{"type":"FeatureCollection","features":[
{ "type": "Feature", "properties": {"name":"Abanda CDP","state":"Alabama","state_abbrev":"AL"},
"geometry":{ "type": "Point", "coordinates": [-85.527029,33.091627]}},
{ "type": "Feature", "properties": {"name":"Abbeville city","state":"Alabama","state_abbrev":"AL"},
"geometry":{ "type": "Point", "coordinates": [-85.259121,31.564706]}},
{ "type": "Feature", "properties": {"name":"Adamsville city","state":"Alabama","state_abbrev":"AL"},
"geometry":{ "type": "Point", "coordinates": [-86.971527,33.602315]}},
{ "type": "Feature", "properties": {"name":"Addison town","state":"Alabama","state_abbrev":"AL"},
"geometry":{ "type": "Point", "coordinates": [-87.178004,34.202681]}},
{ "type": "Feature", "properties": {"name":"Akron town","state":"Alabama","state_abbrev":"AL"},
"geometry":{ "type": "Point", "coordinates": [-87.740899,32.879066]}},
{ "type": "Feature", "properties": {"name":"Alabaster city","state":"Alabama","state_abbrev":"AL"},
"geometry":{ "type": "Point", "coordinates": [-86.82308,33.214355]}},
{ "type": "Feature", "properties": {"name":"Albertville city","state":"Alabama","state_abbrev":"AL"},
"geometry":{ "type": "Point", "coordinates": [-86.21066,34.26313]}},
{ "type": "Feature", "properties": {"name":"Alexander City city","state":"Alabama","state_abbrev":"AL"},
"geometry":{ "type": "Point", "coordinates": [-85.937122,32.92724]}},
{ "type": "Feature", "properties": {"name":"Alexandria CDP","state":"Alabama","state_abbrev":"AL"},
"geometry":{ "type": "Point", "coordinates": [-85.872008,33.760819]}},
{ "type": "Feature", "properties": {"name":"Aliceville city","state":"Alabama","state_abbrev":"AL"},
"geometry":{ "type": "Point", "coordinates": [-88.159344,33.123706]}},
{ "type": "Feature", "properties": {"name":"Allgood town","state":"Alabama","state_abbrev":"AL"},
"geometry":{ "type": "Point", "coordinates": [-86.516109,33.907623]}},
{ "type": "Feature", "properties": {"name":"Altoona town","state":"Alabama","state_abbrev":"AL"},
"geometry":{ "type": "Point", "coordinates": [-86.305179,34.040014]}},
{ "type": "Feature", "properties": {"name":"Andalusia city","state":"Alabama","state_abbrev":"AL"},
"geometry":{ "type": "Point", "coordinates": [-86.478031,31.309436]}},
{ "type": "Feature", "properties": {"name":"Anderson town","state":"Alabama","state_abbrev":"AL"},
"geometry":{ "type": "Point", "coordinates": [-87.274274,34.915675]}},
{ "type": "Feature", "properties": {"name":"Anniston city","state":"Alabama","state_abbrev":"AL"},
"geometry":{ "type": "Point", "coordinates": [-85.810891,33.673469]}},
{ "type": "Feature", "properties": {"name":"Arab city","state":"Alabama","state_abbrev":"AL"},
"geometry":{ "type": "Point", "coordinates": [-86.501167,34.332387]}},
{ "type": "Feature", "properties": {"name":"Ardmore town","state":"Alabama","state_abbrev":"AL"},
"geometry":{ "type": "Point", "coordinates": [-86.829022,34.987838]}},
{ "type": "Feature", "properties": {"name":"Argo town","state":"Alabama","state_abbrev":"AL"},
"geometry":{ "type": "Point", "coordinates": [-86.505281,33.691018]}},
{ "type": "Feature", "properties": {"name":"Ariton town","state":"Alabama","state_abbrev":"AL"},
"geometry":{ "type": "Point", "coordinates": [-85.713061,31.597772]}},
{ "type": "Feature", "properties": {"name":"Arley town","state":"Alabama","state_abbrev":"AL"},
"geometry":{ "type": "Point", "coordinates": [-87.217831,34.076234]}},
{ "type": "Feature", "properties": {"name":"Ashford town","state":"Alabama","state_abbrev":"AL"},
"geometry":{ "type": "Point", "coordinates": [-85.236236,31.185284]}},
{ "type": "Feature", "properties": {"name":"Ashland town","state":"Alabama","state_abbrev":"AL"},
"geometry":{ "type": "Point", "coordinates": [-85.833706,33.269892]}},
{ "type": "Feature", "properties": {"name":"Ashville city","state":"Alabama","state_abbrev":"AL"},
"geometry":{ "type": "Point", "coordinates": [-86.270015,33.835197]}},
{ "type": "Feature", "properties": {"name":"Athens city","state":"Alabama","state_abbrev":"AL"},
"geometry":{ "type": "Point", "coordinates": [-86.950799,34.779021]}},
{ "type": "Feature", "properties": {"name":"Atmore city","state":"Alabama","state_abbrev":"AL"},
"geometry":{ "type": "Point", "coordinates": [-87.457798,31.124067]}},
{ "type": "Feature", "properties": {"name":"Attalla city","state":"Alabama","state_abbrev":"AL"},
"geometry":{ "type": "Point", "coordinates": [-86.121037,33.986189]}},
{ "type": "Feature", "properties": {"name":"Auburn city","state":"Alabama","state_abbrev":"AL"},
"geometry":{ "type": "Point", "coordinates": [-85.494735,32.609539]}},
{ "type": "Feature", "properties": {"name":"Autaugaville town","state":"Alabama","state_abbrev":"AL"},
"geometry":{ "type": "Point", "coordinates": [-86.658752,32.432563]}},
{ "type": "Feature", "properties": {"name":"Avon town","state":"Alabama","state_abbrev":"AL"},
"geometry":{ "type": "Point", "coordinates": [-85.279211,31.179727]}},
{ "type": "Feature", "properties": {"name":"Axis CDP","state":"Alabama","state_abbrev":"AL"},
"geometry":{ "type": "Point", "coordinates": [-88.02262,30.922171]}},
{ "type": "Feature", "properties": {"name":"Babbie town","state":"Alabama","state_abbrev":"AL"},
"geometry":{ "type": "Point", "coordinates": [-86.319437,31.302083]}},
{ "type": "Feature", "properties": {"name":"Baileyton town","state":"Alabama","state_abbrev":"AL"},
"geometry":{ "type": "Point", "coordinates": [-86.608788,34.260858]}},
{ "type": "Feature", "properties": {"name":"Bakerhill town","state":"Alabama","state_abbrev":"AL"},
"geometry":{ "type": "Point", "coordinates": [-85.295408,31.776923]}},
{ "type": "Feature", "properties": {"name":"Ballplay CDP","state":"Alabama","state_abbrev":"AL"},
"geometry":{ "type": "Point", "coordinates": [-85.801478,34.023047]}},
{ "type": "Feature", "properties": {"name":"Banks town","state":"Alabama","state_abbrev":"AL"},
"geometry":{ "type": "Point", "coordinates": [-85.836434,31.813264]}},
{ "type": "Feature", "properties": {"name":"Bay Minette city","state":"Alabama","state_abbrev":"AL"},
"geometry":{ "type": "Point", "coordinates": [-87.791306,30.894436]}},
{ "type": "Feature", "properties": {"name":"Bayou La Batre city","state":"Alabama","state_abbrev":"AL"},
"geometry":{ "type": "Point", "coordinates": [-88.263271,30.407586]}},
{ "type": "Feature", "properties": {"name":"Bear Creek town","state":"Alabama","state_abbrev":"AL"},
"geometry":{ "type": "Point", "coordinates": [-87.713399,34.255481]}},
{ "type": "Feature", "properties": {"name":"Beatrice town","state":"Alabama","state_abbrev":"AL"},
"geometry":{ "type": "Point", "coordinates": [-87.209046,31.733309]}},
{ "type": "Feature", "properties": {"name":"Beaverton town","state":"Alabama","state_abbrev":"AL"},
"geometry":{ "type": "Point", "coordinates": [-88.021778,33.935411]}},
{ "type": "Feature", "properties": {"name":"Belgreen CDP","state":"Alabama","state_abbrev":"AL"},
"geometry":{ "type": "Point", "coordinates": [-87.861678,34.47454]}},
{ "type": "Feature", "properties": {"name":"Belk town","state":"Alabama","state_abbrev":"AL"},
"geometry":{ "type": "Point", "coordinates": [-87.92861,33.651641]}},
{ "type": "Feature", "properties": {"name":"Bellamy CDP","state":"Alabama","state_abbrev":"AL"},
"geometry":{ "type": "Point", "coordinates": [-88.131481,32.463658]}},
{ "type": "Feature", "properties": {"name":"Belle Fontaine CDP","state":"Alabama","state_abbrev":"AL"},
"geometry":{ "type": "Point", "coordinates": [-88.10594,30.489492]}},
{ "type": "Feature", "properties": {"name":"Benton town","state":"Alabama","state_abbrev":"AL"},
"geometry":{ "type": "Point", "coordinates": [-86.817546,32.307931]}},
{ "type": "Feature", "properties": {"name":"Berlin town","state":"Alabama","state_abbrev":"AL"},
"geometry":{ "type": "Point", "coordinates": [-86.748955,34.185005]}},
{ "type": "Feature", "properties": {"name":"Berry town","state":"Alabama","state_abbrev":"AL"},
"geometry":{ "type": "Point", "coordinates": [-87.609311,33.666702]}},
{ "type": "Feature", "properties": {"name":"Bessemer city","state":"Alabama","state_abbrev":"AL"},
"geometry":{ "type": "Point", "coordinates": [-86.971522,33.370858]}},
{ "type": "Feature", "properties": {"name":"Billingsley town","state":"Alabama","state_abbrev":"AL"},
"geometry":{ "type": "Point", "coordinates": [-86.706713,32.664711]}},
{ "type": "Feature", "properties": {"name":"Birmingham city","state":"Alabama","state_abbrev":"AL"},
"geometry":{ "type": "Point", "coordinates": [-86.797036,33.527174]}},
{ "type": "Feature", "properties": {"name":"Black town","state":"Alabama","state_abbrev":"AL"},
"geometry":{ "type": "Point", "coordinates": [-85.74442,31.00977]}},
{ "type": "Feature", "properties": {"name":"Blountsville town","state":"Alabama","state_abbrev":"AL"},
"geometry":{ "type": "Point", "coordinates": [-86.583918,34.075838]}},
{ "type": "Feature", "properties": {"name":"Blue Ridge CDP","state":"Alabama","state_abbrev":"AL"},
"geometry":{ "type": "Point", "coordinates": [-86.182436,32.4989]}},
{ "type": "Feature", "properties": {"name":"Blue Springs town","state":"Alabama","state_abbrev":"AL"},
"geometry":{ "type": "Point", "coordinates": [-85.503526,31.663516]}},
{ "type": "Feature", "properties": {"name":"Boaz city","state":"Alabama","state_abbrev":"AL"},
"geometry":{ "type": "Point", "coordinates": [-86.155151,34.19902]}},
{ "type": "Feature", "properties": {"name":"Boligee town","state":"Alabama","state_abbrev":"AL"},
"geometry":{ "type": "Point", "coordinates": [-88.02859,32.768081]}},
{ "type": "Feature", "properties": {"name":"Bon Air town","state":"Alabama","state_abbrev":"AL"},
"geometry":{ "type": "Point", "coordinates": [-86.327148,33.25937]}},
{ "type": "Feature", "properties": {"name":"Bon Secour CDP","state":"Alabama","state_abbrev":"AL"},
"geometry":{ "type": "Point", "coordinates": [-87.72439,30.318246]}},
{ "type": "Feature", "properties": {"name":"Boykin CDP","state":"Alabama","state_abbrev":"AL"},
"geometry":{ "type": "Point", "coordinates": [-87.294343,32.068375]}},
{ "type": "Feature", "properties": {"name":"Brantley town","state":"Alabama","state_abbrev":"AL"},
"geometry":{ "type": "Point", "coordinates": [-86.256784,31.581992]}},
{ "type": "Feature", "properties": {"name":"Brantleyville CDP","state":"Alabama","state_abbrev":"AL"},
"geometry":{ "type": "Point", "coordinates": [-86.882522,33.219303]}},
{ "type": "Feature", "properties": {"name":"Brent city","state":"Alabama","state_abbrev":"AL"},
"geometry":{ "type": "Point", "coordinates": [-87.172088,32.944893]}},
{ "type": "Feature", "properties": {"name":"Brewton city","state":"Alabama","state_abbrev":"AL"},
"geometry":{ "type": "Point", "coordinates": [-87.076583,31.109175]}},
{ "type": "Feature", "properties": {"name":"Bridgeport city","state":"Alabama","state_abbrev":"AL"},
"geometry":{ "type": "Point", "coordinates": [-85.723765,34.949312]}},
{ "type": "Feature", "properties": {"name":"Brighton city","state":"Alabama","state_abbrev":"AL"},
"geometry":{ "type": "Point", "coordinates": [-86.945404,33.439551]}},
{ "type": "Feature", "properties": {"name":"Brilliant town","state":"Alabama","state_abbrev":"AL"},
"geometry":{ "type": "Point", "coordinates": [-87.769047,34.025671]}},
{ "type": "Feature", "properties": {"name":"Bristow Cove CDP","state":"Alabama","state_abbrev":"AL"},
"geometry":{ "type": "Point", "coordinates": [-86.240993,34.109216]}},
{ "type": "Feature", "properties": {"name":"Brook Highland CDP","state":"Alabama","state_abbrev":"AL"},
"geometry":{ "type": "Point", "coordinates": [-86.68488,33.440378]}},
{ "type": "Feature", "properties": {"name":"Brookside town","state":"Alabama","state_abbrev":"AL"},
"geometry":{ "type": "Point", "coordinates": [-86.906314,33.634617]}},
{ "type": "Feature", "properties": {"name":"Brookwood town","state":"Alabama","state_abbrev":"AL"},
"geometry":{ "type": "Point", "coordinates": [-87.331488,33.239842]}},
{ "type": "Feature", "properties": {"name":"Broomtown CDP","state":"Alabama","state_abbrev":"AL"},
"geometry":{ "type": "Point", "coordinates": [-85.532112,34.365728]}},
{ "type": "Feature", "properties": {"name":"Brundidge city","state":"Alabama","state_abbrev":"AL"},
"geometry":{ "type": "Point", "coordinates": [-85.81755,31.717639]}},
{ "type": "Feature", "properties": {"name":"Bucks CDP","state":"Alabama","state_abbrev":"AL"},
"geometry":{ "type": "Point", "coordinates": [-88.026385,31.016881]}},
{ "type": "Feature", "properties": {"name":"Butler town","state":"Alabama","state_abbrev":"AL"},
"geometry":{ "type": "Point", "coordinates": [-88.210781,32.096479]}},
{ "type": "Feature", "properties": {"name":"Calera city","state":"Alabama","state_abbrev":"AL"},
"geometry":{ "type": "Point", "coordinates": [-86.745644,33.122319]}},
{ "type": "Feature", "properties": {"name":"Calvert CDP","state":"Alabama","state_abbrev":"AL"},
"geometry":{ "type": "Point", "coordinates": [-88.021549,31.149898]}},
{ "type": "Feature", "properties": {"name":"Camden city","state":"Alabama","state_abbrev":"AL"},
"geometry":{ "type": "Point", "coordinates": [-87.28895,31.998493]}},
{ "type": "Feature", "properties": {"name":"Camp Hill town","state":"Alabama","state_abbrev":"AL"},
"geometry":{ "type": "Point", "coordinates": [-85.655833,32.797327]}},
{ "type": "Feature", "properties": {"name":"Carbon Hill city","state":"Alabama","state_abbrev":"AL"},
"geometry":{ "type": "Point", "coordinates": [-87.522078,33.894991]}},
{ "type": "Feature", "properties": {"name":"Cardiff town","state":"Alabama","state_abbrev":"AL"},
"geometry":{ "type": "Point", "coordinates": [-86.930637,33.64729]}},
{ "type": "Feature", "properties": {"name":"Carlisle-Rockledge CDP","state":"Alabama","state_abbrev":"AL"},
"geometry":{ "type": "Point", "coordinates": [-86.124073,34.114451]}},
{ "type": "Feature", "properties": {"name":"Carlton CDP","state":"Alabama","state_abbrev":"AL"},
"geometry":{ "type": "Point", "coordinates": [-87.835666,31.348571]}},
{ "type": "Feature", "properties": {"name":"Carolina town","state":"Alabama","state_abbrev":"AL"},
"geometry":{ "type": "Point", "coordinates": [-86.521001,31.23415]}},
{ "type": "Feature", "properties": {"name":"Carrollton town","state":"Alabama","state_abbrev":"AL"},
"geometry":{ "type": "Point", "coordinates": [-88.095071,33.261903]}},
{ "type": "Feature", "properties": {"name":"Castleberry town","state":"Alabama","state_abbrev":"AL"},
"geometry":{ "type": "Point", "coordinates": [-87.029129,31.299678]}},
{ "type": "Feature", "properties": {"name":"Catherine CDP","state":"Alabama","state_abbrev":"AL"},
"geometry":{ "type": "Point", "coordinates": [-87.469978,32.18617]}},
{ "type": "Feature", "properties": {"name":"Cedar Bluff town","state":"Alabama","state_abbrev":"AL"},
"geometry":{ "type": "Point", "coordinates": [-85.588565,34.221422]}},
{ "type": "Feature", "properties": {"name":"Center Point city","state":"Alabama","state_abbrev":"AL"},
"geometry":{ "type": "Point", "coordinates": [-86.684567,33.643903]}},
{ "type": "Feature", "properties": {"name":"Centre city","state":"Alabama","state_abbrev":"AL"},
"geometry":{ "type": "Point", "coordinates": [-85.671683,34.153059]}},
{ "type": "Feature", "properties": {"name":"Centreville city","state":"Alabama","state_abbrev":"AL"},
"geometry":{ "type": "Point", "coordinates": [-87.132043,32.958967]}},
{ "type": "Feature", "properties": {"name":"Chatom town","state":"Alabama","state_abbrev":"AL"},
"geometry":{ "type": "Point", "coordinates": [-88.246019,31.469145]}},
{ "type": "Feature", "properties": {"name":"Chelsea city","state":"Alabama","state_abbrev":"AL"},
"geometry":{ "type": "Point", "coordinates": [-86.635139,33.309007]}},
{ "type": "Feature", "properties": {"name":"Cherokee town","state":"Alabama","state_abbrev":"AL"},
"geometry":{ "type": "Point", "coordinates": [-87.965589,34.7577]}},
{ "type": "Feature", "properties": {"name":"Chickasaw city","state":"Alabama","state_abbrev":"AL"},
"geometry":{ "type": "Point", "coordinates": [-88.079697,30.77145]}},
{ "type": "Feature", "properties": {"name":"Childersburg city","state":"Alabama","state_abbrev":"AL"},
"geometry":{ "type": "Point", "coordinates": [-86.340844,33.292549]}},
{ "type": "Feature", "properties": {"name":"Choccolocco CDP","state":"Alabama","state_abbrev":"AL"},
"geometry":{ "type": "Point", "coordinates": [-85.707191,33.667728]}},
{ "type": "Feature", "properties": {"name":"Chunchula CDP","state":"Alabama","state_abbrev":"AL"},
"geometry":{ "type": "Point", "coordinates": [-88.2082,30.927194]}},
{ "type": "Feature", "properties": {"name":"Citronelle city","state":"Alabama","state_abbrev":"AL"},
"geometry":{ "type": "Point", "coordinates": [-88.249843,31.097269]}},
{ "type": "Feature", "properties": {"name":"Clanton city","state":"Alabama","state_abbrev":"AL"},
"geometry":{ "type": "Point", "coordinates": [-86.619494,32.845572]}},
{ "type": "Feature", "properties": {"name":"Clay city","state":"Alabama","state_abbrev":"AL"},
"geometry":{ "type": "Point", "coordinates": [-86.608182,33.696583]}},
{ "type": "Feature", "properties": {"name":"Clayhatchee town","state":"Alabama","state_abbrev":"AL"},
"geometry":{ "type": "Point", "coordinates": [-85.721478,31.236925]}},
{ "type": "Feature", "properties": {"name":"Clayton town","state":"Alabama","state_abbrev":"AL"},
"geometry":{ "type": "Point", "coordinates": [-85.460454,31.882277]}},
{ "type": "Feature", "properties": {"name":"Cleveland town","state":"Alabama","state_abbrev":"AL"},
"geometry":{ "type": "Point", "coordinates": [-86.561352,34.002179]}},
{ "type": "Feature", "properties": {"name":"Clio city","state":"Alabama","state_abbrev":"AL"},
"geometry":{ "type": "Point", "coordinates": [-85.611039,31.708516]}},
{ "type": "Feature", "properties": {"name":"Coaling town","state":"Alabama","state_abbrev":"AL"},
"geometry":{ "type": "Point", "coordinates": [-87.349887,33.169901]}},
{ "type": "Feature", "properties": {"name":"Coats Bend CDP","state":"Alabama","state_abbrev":"AL"},
"geometry":{ "type": "Point", "coordinates": [-85.874602,34.073273]}},
{ "type": "Feature", "properties": {"name":"Coffee Springs town","state":"Alabama","state_abbrev":"AL"},
"geometry":{ "type": "Point", "coordinates": [-85.910898,31.165836]}},
{ "type": "Feature", "properties": {"name":"Coffeeville town","state":"Alabama","state_abbrev":"AL"},
"geometry":{ "type": "Point", "coordinates": [-88.086049,31.766564]}},
{ "type": "Feature", "properties": {"name":"Coker town","state":"Alabama","state_abbrev":"AL"},
"geometry":{ "type": "Point", "coordinates": [-87.681329,33.243752]}},
{ "type": "Feature", "properties": {"name":"Collinsville town","state":"Alabama","state_abbrev":"AL"},
"geometry":{ "type": "Point", "coordinates": [-85.86861,34.267224]}},
{ "type": "Feature", "properties": {"name":"Colony town","state":"Alabama","state_abbrev":"AL"},
"geometry":{ "type": "Point", "coordinates": [-86.902001,33.941393]}},
{ "type": "Feature", "properties": {"name":"Columbia town","state":"Alabama","state_abbrev":"AL"},
"geometry":{ "type": "Point", "coordinates": [-85.110202,31.295351]}},
{ "type": "Feature", "properties": {"name":"Columbiana city","state":"Alabama","state_abbrev":"AL"},
"geometry":{ "type": "Point", "coordinates": [-86.615618,33.191452]}},
{ "type": "Feature", "properties": {"name":"Concord CDP","state":"Alabama","state_abbrev":"AL"},
"geometry":{ "type": "Point", "coordinates": [-87.040429,33.461988]}},
{ "type": "Feature", "properties": {"name":"Coosada town","state":"Alabama","state_abbrev":"AL"},
"geometry":{ "type": "Point", "coordinates": [-86.326543,32.495394]}},
{ "type": "Feature", "properties": {"name":"Cordova city","state":"Alabama","state_abbrev":"AL"},
"geometry":{ "type": "Point", "coordinates": [-87.199416,33.761788]}},
{ "type": "Feature", "properties": {"name":"Cottondale CDP","state":"Alabama","state_abbrev":"AL"},
"geometry":{ "type": "Point", "coordinates": [-87.454861,33.193047]}},
{ "type": "Feature", "properties": {"name":"Cottonwood town","state":"Alabama","state_abbrev":"AL"},
"geometry":{ "type": "Point", "coordinates": [-85.29956,31.054033]}},
{ "type": "Feature", "properties": {"name":"County Line town","state":"Alabama","state_abbrev":"AL"},
"geometry":{ "type": "Point", "coordinates": [-86.719467,33.820724]}},
{ "type": "Feature", "properties": {"name":"Courtland town","state":"Alabama","state_abbrev":"AL"},
"geometry":{ "type": "Point", "coordinates": [-87.327892,34.669946]}},
{ "type": "Feature", "properties": {"name":"Cowarts town","state":"Alabama","state_abbrev":"AL"},
"geometry":{ "type": "Point", "coordinates": [-85.309769,31.206248]}},
{ "type": "Feature", "properties": {"name":"Creola city","state":"Alabama","state_abbrev":"AL"},
"geometry":{ "type": "Point", "coordinates": [-88.009536,30.874249]}},
{ "type": "Feature", "properties": {"name":"Crossville town","state":"Alabama","state_abbrev":"AL"},
"geometry":{ "type": "Point", "coordinates": [-85.999737,34.282697]}},
{ "type": "Feature", "properties": {"name":"Cuba town","state":"Alabama","state_abbrev":"AL"},
"geometry":{ "type": "Point", "coordinates": [-88.374798,32.440733]}},
{ "type": "Feature", "properties": {"name":"Cullman city","state":"Alabama","state_abbrev":"AL"},
"geometry":{ "type": "Point", "coordinates": [-86.840656,34.17687]}},
{ "type": "Feature", "properties": {"name":"Cullomburg CDP","state":"Alabama","state_abbrev":"AL"},
"geometry":{ "type": "Point", "coordinates": [-88.291774,31.713061]}},
{ "type": "Feature", "properties": {"name":"Cusseta town","state":"Alabama","state_abbrev":"AL"},
"geometry":{ "type": "Point", "coordinates": [-85.305769,32.787637]}},
{ "type": "Feature", "properties": {"name":"Dadeville city","state":"Alabama","state_abbrev":"AL"},
"geometry":{ "type": "Point", "coordinates": [-85.776201,32.826114]}},
{ "type": "Feature", "properties": {"name":"Daleville city","state":"Alabama","state_abbrev":"AL"},
"geometry":{ "type": "Point", "coordinates": [-85.711711,31.291534]}},
{ "type": "Feature", "properties": {"name":"Daphne city","state":"Alabama","state_abbrev":"AL"},
"geometry":{ "type": "Point", "coordinates": [-87.881783,30.626072]}},
{ "type": "Feature", "properties": {"name":"Dauphin Island town","state":"Alabama","state_abbrev":"AL"},
"geometry":{ "type": "Point", "coordinates": [-88.171268,30.250913]}},
{ "type": "Feature", "properties": {"name":"Daviston town","state":"Alabama","state_abbrev":"AL"},
"geometry":{ "type": "Point", "coordinates": [-85.634329,33.056839]}},
{ "type": "Feature", "properties": {"name":"Dayton town","state":"Alabama","state_abbrev":"AL"},
"geometry":{ "type": "Point", "coordinates": [-87.641573,32.350958]}},
{ "type": "Feature", "properties": {"name":"Deatsville town","state":"Alabama","state_abbrev":"AL"},
"geometry":{ "type": "Point", "coordinates": [-86.389059,32.589044]}},
{ "type": "Feature", "properties": {"name":"Decatur city","state":"Alabama","state_abbrev":"AL"},
"geometry":{ "type": "Point", "coordinates": [-86.989901,34.572995]}},
{ "type": "Feature", "properties": {"name":"Deer Park CDP","state":"Alabama","state_abbrev":"AL"},
"geometry":{ "type": "Point", "coordinates": [-88.328023,31.218369]}},
{ "type": "Feature", "properties": {"name":"Delta CDP","state":"Alabama","state_abbrev":"AL"},
"geometry":{ "type": "Point", "coordinates": [-85.675905,33.440524]}},
{ "type": "Feature", "properties": {"name":"Demopolis city","state":"Alabama","state_abbrev":"AL"},
"geometry":{ "type": "Point", "coordinates": [-87.826678,32.499744]}},
{ "type": "Feature", "properties": {"name":"Detroit town","state":"Alabama","state_abbrev":"AL"},
"geometry":{ "type": "Point", "coordinates": [-88.167831,34.027379]}},
{ "type": "Feature", "properties": {"name":"Dodge City town","state":"Alabama","state_abbrev":"AL"},
"geometry":{ "type": "Point", "coordinates": [-86.885524,34.043275]}},
{ "type": "Feature", "properties": {"name":"Dora city","state":"Alabama","state_abbrev":"AL"},
"geometry":{ "type": "Point", "coordinates": [-87.081292,33.728116]}},
{ "type": "Feature", "properties": {"name":"Dothan city","state":"Alabama","state_abbrev":"AL"},
"geometry":{ "type": "Point", "coordinates": [-85.406823,31.233698]}},
{ "type": "Feature", "properties": {"name":"Double Springs town","state":"Alabama","state_abbrev":"AL"},
"geometry":{ "type": "Point", "coordinates": [-87.389447,34.149648]}},
{ "type": "Feature", "properties": {"name":"Douglas town","state":"Alabama","state_abbrev":"AL"},
"geometry":{ "type": "Point", "coordinates": [-86.323386,34.168258]}},
{ "type": "Feature", "properties": {"name":"Dozier town","state":"Alabama","state_abbrev":"AL"},
"geometry":{ "type": "Point", "coordinates": [-86.369235,31.505407]}},
{ "type": "Feature", "properties": {"name":"Dunnavant CDP","state":"Alabama","state_abbrev":"AL"},
"geometry":{ "type": "Point", "coordinates": [-86.540481,33.495011]}},
{ "type": "Feature", "properties": {"name":"Dutton town","state":"Alabama","state_abbrev":"AL"},
"geometry":{ "type": "Point", "coordinates": [-85.91185,34.606152]}},
{ "type": "Feature", "properties": {"name":"Eagle Point CDP","state":"Alabama","state_abbrev":"AL"},
"geometry":{ "type": "Point", "coordinates": [-86.676753,33.400912]}},
{ "type": "Feature", "properties": {"name":"East Brewton city","state":"Alabama","state_abbrev":"AL"},
"geometry":{ "type": "Point", "coordinates": [-87.055345,31.09144]}},
{ "type": "Feature", "properties": {"name":"East Point CDP","state":"Alabama","state_abbrev":"AL"},
"geometry":{ "type": "Point", "coordinates": [-86.791899,34.19088]}},
{ "type": "Feature", "properties": {"name":"Eclectic town","state":"Alabama","state_abbrev":"AL"},
"geometry":{ "type": "Point", "coordinates": [-86.041062,32.640222]}},
{ "type": "Feature", "properties": {"name":"Edgewater CDP","state":"Alabama","state_abbrev":"AL"},
"geometry":{ "type": "Point", "coordinates": [-86.95279,33.530099]}},
{ "type": "Feature", "properties": {"name":"Edwardsville town","state":"Alabama","state_abbrev":"AL"},
"geometry":{ "type": "Point", "coordinates": [-85.414124,33.88374]}},
{ "type": "Feature", "properties": {"name":"Egypt CDP","state":"Alabama","state_abbrev":"AL"},
"geometry":{ "type": "Point", "coordinates": [-86.165054,34.075938]}},
{ "type": "Feature", "properties": {"name":"Elba city","state":"Alabama","state_abbrev":"AL"},
"geometry":{ "type": "Point", "coordinates": [-86.077115,31.417218]}},
{ "type": "Feature", "properties": {"name":"Elberta town","state":"Alabama","state_abbrev":"AL"},
"geometry":{ "type": "Point", "coordinates": [-87.595729,30.373753]}},
{ "type": "Feature", "properties": {"name":"Eldridge town","state":"Alabama","state_abbrev":"AL"},
"geometry":{ "type": "Point", "coordinates": [-87.622869,33.923053]}},
{ "type": "Feature", "properties": {"name":"Elkmont town","state":"Alabama","state_abbrev":"AL"},
"geometry":{ "type": "Point", "coordinates": [-86.976971,34.932604]}},
{ "type": "Feature", "properties": {"name":"Elmore town","state":"Alabama","state_abbrev":"AL"},
"geometry":{ "type": "Point", "coordinates": [-86.341025,32.556606]}},
{ "type": "Feature", "properties": {"name":"Emelle town","state":"Alabama","state_abbrev":"AL"},
"geometry":{ "type": "Point", "coordinates": [-88.316486,32.728678]}},
{ "type": "Feature", "properties": {"name":"Emerald Mountain CDP","state":"Alabama","state_abbrev":"AL"},
"geometry":{ "type": "Point", "coordinates": [-86.094381,32.447694]}},
{ "type": "Feature", "properties": {"name":"Enterprise city","state":"Alabama","state_abbrev":"AL"},
"geometry":{ "type": "Point", "coordinates": [-85.844021,31.326898]}},
{ "type": "Feature", "properties": {"name":"Epes town","state":"Alabama","state_abbrev":"AL"},
"geometry":{ "type": "Point", "coordinates": [-88.141963,32.695049]}},
{ "type": "Feature", "properties": {"name":"Equality CDP","state":"Alabama","state_abbrev":"AL"},
"geometry":{ "type": "Point", "coordinates": [-86.123185,32.765659]}},
{ "type": "Feature", "properties": {"name":"Ethelsville town","state":"Alabama","state_abbrev":"AL"},
"geometry":{ "type": "Point", "coordinates": [-88.216093,33.414066]}},
{ "type": "Feature", "properties": {"name":"Eufaula city","state":"Alabama","state_abbrev":"AL"},
"geometry":{ "type": "Point", "coordinates": [-85.152709,31.909937]}},
{ "type": "Feature", "properties": {"name":"Eunola CDP","state":"Alabama","state_abbrev":"AL"},
"geometry":{ "type": "Point", "coordinates": [-85.833966,31.031391]}},
{ "type": "Feature", "properties": {"name":"Eutaw town","state":"Alabama","state_abbrev":"AL"},
"geometry":{ "type": "Point", "coordinates": [-87.900332,32.846247]}},
{ "type": "Feature", "properties": {"name":"Eva town","state":"Alabama","state_abbrev":"AL"},
"geometry":{ "type": "Point", "coordinates": [-86.765318,34.326504]}},
{ "type": "Feature", "properties": {"name":"Evergreen city","state":"Alabama","state_abbrev":"AL"},
"geometry":{ "type": "Point", "coordinates": [-86.976081,31.433216]}},
{ "type": "Feature", "properties": {"name":"Excel town","state":"Alabama","state_abbrev":"AL"},
"geometry":{ "type": "Point", "coordinates": [-87.343663,31.426386]}},
{ "type": "Feature", "properties": {"name":"Fairfield city","state":"Alabama","state_abbrev":"AL"},
"geometry":{ "type": "Point", "coordinates": [-86.919407,33.474802]}},
{ "type": "Feature", "properties": {"name":"Fairford CDP","state":"Alabama","state_abbrev":"AL"},
"geometry":{ "type": "Point", "coordinates": [-88.072784,31.178002]}},
{ "type": "Feature", "properties": {"name":"Fairhope city","state":"Alabama","state_abbrev":"AL"},
"geometry":{ "type": "Point", "coordinates": [-87.879122,30.52092]}},
{ "type": "Feature", "properties": {"name":"Fairview town","state":"Alabama","state_abbrev":"AL"},
"geometry":{ "type": "Point", "coordinates": [-86.677724,34.250195]}},
{ "type": "Feature", "properties": {"name":"Falkville town","state":"Alabama","state_abbrev":"AL"},
"geometry":{ "type": "Point", "coordinates": [-86.909547,34.377019]}},
{ "type": "Feature", "properties": {"name":"Faunsdale town","state":"Alabama","state_abbrev":"AL"},
"geometry":{ "type": "Point", "coordinates": [-87.593789,32.457614]}},
{ "type": "Feature", "properties": {"name":"Fayette city","state":"Alabama","state_abbrev":"AL"},
"geometry":{ "type": "Point", "coordinates": [-87.831169,33.694215]}},
{ "type": "Feature", "properties": {"name":"Fayetteville CDP","state":"Alabama","state_abbrev":"AL"},
"geometry":{ "type": "Point", "coordinates": [-86.442774,33.168097]}},
{ "type": "Feature", "properties": {"name":"Fitzpatrick CDP","state":"Alabama","state_abbrev":"AL"},
"geometry":{ "type": "Point", "coordinates": [-85.873693,32.210377]}},
{ "type": "Feature", "properties": {"name":"Five Points town","state":"Alabama","state_abbrev":"AL"},
"geometry":{ "type": "Point", "coordinates": [-85.351592,33.017311]}},
{ "type": "Feature", "properties": {"name":"Flomaton town","state":"Alabama","state_abbrev":"AL"},
"geometry":{ "type": "Point", "coordinates": [-87.256016,31.014816]}},
{ "type": "Feature", "properties": {"name":"Florala town","state":"Alabama","state_abbrev":"AL"},
"geometry":{ "type": "Point", "coordinates": [-86.318152,31.022391]}},
{ "type": "Feature", "properties": {"name":"Florence city","state":"Alabama","state_abbrev":"AL"},
"geometry":{ "type": "Point", "coordinates": [-87.666139,34.830323]}},
{ "type": "Feature", "properties": {"name":"Foley city","state":"Alabama","state_abbrev":"AL"},
"geometry":{ "type": "Point", "coordinates": [-87.664211,30.397009]}},
{ "type": "Feature", "properties": {"name":"Forestdale CDP","state":"Alabama","state_abbrev":"AL"},
"geometry":{ "type": "Point", "coordinates": [-86.900047,33.573701]}},
{ "type": "Feature", "properties": {"name":"Forkland town","state":"Alabama","state_abbrev":"AL"},
"geometry":{ "type": "Point", "coordinates": [-87.867436,32.647435]}},
{ "type": "Feature", "properties": {"name":"Fort Deposit town","state":"Alabama","state_abbrev":"AL"},
"geometry":{ "type": "Point", "coordinates": [-86.566359,31.986261]}},
{ "type": "Feature", "properties": {"name":"Fort Payne city","state":"Alabama","state_abbrev":"AL"},
"geometry":{ "type": "Point", "coordinates": [-85.689447,34.457329]}},
{ "type": "Feature", "properties": {"name":"Fort Rucker CDP","state":"Alabama","state_abbrev":"AL"},
"geometry":{ "type": "Point", "coordinates": [-85.716072,31.342576]}},
{ "type": "Feature", "properties": {"name":"Franklin town","state":"Alabama","state_abbrev":"AL"},
"geometry":{ "type": "Point", "coordinates": [-85.78541,32.452693]}},
{ "type": "Feature", "properties": {"name":"Fredonia CDP","state":"Alabama","state_abbrev":"AL"},
"geometry":{ "type": "Point", "coordinates": [-85.292306,32.983577]}},
{ "type": "Feature", "properties": {"name":"Frisco City town","state":"Alabama","state_abbrev":"AL"},
"geometry":{ "type": "Point", "coordinates": [-87.404182,31.439485]}},
{ "type": "Feature", "properties": {"name":"Fruitdale CDP","state":"Alabama","state_abbrev":"AL"},
"geometry":{ "type": "Point", "coordinates": [-88.410937,31.34979]}},
{ "type": "Feature", "properties": {"name":"Fruithurst town","state":"Alabama","state_abbrev":"AL"},
"geometry":{ "type": "Point", "coordinates": [-85.431249,33.729539]}},
{ "type": "Feature", "properties": {"name":"Fulton town","state":"Alabama","state_abbrev":"AL"},
"geometry":{ "type": "Point", "coordinates": [-87.744212,31.790989]}},
{ "type": "Feature", "properties": {"name":"Fultondale city","state":"Alabama","state_abbrev":"AL"},
"geometry":{ "type": "Point", "coordinates": [-86.801436,33.617363]}},
{ "type": "Feature", "properties": {"name":"Fyffe town","state":"Alabama","state_abbrev":"AL"},
"geometry":{ "type": "Point", "coordinates": [-85.905167,34.448957]}},
{ "type": "Feature", "properties": {"name":"Gadsden city","state":"Alabama","state_abbrev":"AL"},
"geometry":{ "type": "Point", "coordinates": [-86.016078,34.006597]}},
{ "type": "Feature", "properties": {"name":"Gainesville town","state":"Alabama","state_abbrev":"AL"},
"geometry":{ "type": "Point", "coordinates": [-88.160791,32.814934]}},
{ "type": "Feature", "properties": {"name":"Gallant CDP","state":"Alabama","state_abbrev":"AL"},
"geometry":{ "type": "Point", "coordinates": [-86.230171,34.001318]}},
{ "type": "Feature", "properties": {"name":"Gantt town","state":"Alabama","state_abbrev":"AL"},
"geometry":{ "type": "Point", "coordinates": [-86.483524,31.41074]}},
{ "type": "Feature", "properties": {"name":"Garden City town","state":"Alabama","state_abbrev":"AL"},
"geometry":{ "type": "Point", "coordinates": [-86.749054,34.014688]}},
{ "type": "Feature", "properties": {"name":"Gardendale city","state":"Alabama","state_abbrev":"AL"},
"geometry":{ "type": "Point", "coordinates": [-86.809844,33.676587]}},
{ "type": "Feature", "properties": {"name":"Gaylesville town","state":"Alabama","state_abbrev":"AL"},
"geometry":{ "type": "Point", "coordinates": [-85.561248,34.267444]}},
{ "type": "Feature", "properties": {"name":"Geiger town","state":"Alabama","state_abbrev":"AL"},
"geometry":{ "type": "Point", "coordinates": [-88.318154,32.868715]}},
{ "type": "Feature", "properties": {"name":"Geneva city","state":"Alabama","state_abbrev":"AL"},
"geometry":{ "type": "Point", "coordinates": [-85.876818,31.044886]}},
{ "type": "Feature", "properties": {"name":"Georgiana town","state":"Alabama","state_abbrev":"AL"},
"geometry":{ "type": "Point", "coordinates": [-86.746762,31.639134]}},
{ "type": "Feature", "properties": {"name":"Geraldine town","state":"Alabama","state_abbrev":"AL"},
"geometry":{ "type": "Point", "coordinates": [-86.002579,34.359087]}},
{ "type": "Feature", "properties": {"name":"Gilbertown town","state":"Alabama","state_abbrev":"AL"},
"geometry":{ "type": "Point", "coordinates": [-88.307545,31.866247]}},
{ "type": "Feature", "properties": {"name":"Glen Allen town","state":"Alabama","state_abbrev":"AL"},
"geometry":{ "type": "Point", "coordinates": [-87.732682,33.892108]}},
{ "type": "Feature", "properties": {"name":"Glencoe city","state":"Alabama","state_abbrev":"AL"},
"geometry":{ "type": "Point", "coordinates": [-85.933606,33.948339]}},
{ "type": "Feature", "properties": {"name":"Glenwood town","state":"Alabama","state_abbrev":"AL"},
"geometry":{ "type": "Point", "coordinates": [-86.173687,31.671266]}},
{ "type": "Feature", "properties": {"name":"Goldville town","state":"Alabama","state_abbrev":"AL"},
"geometry":{ "type": "Point", "coordinates": [-85.777982,33.084867]}},
{ "type": "Feature", "properties": {"name":"Good Hope city","state":"Alabama","state_abbrev":"AL"},
"geometry":{ "type": "Point", "coordinates": [-86.867104,34.110689]}},
{ "type": "Feature", "properties": {"name":"Goodwater town","state":"Alabama","state_abbrev":"AL"},
"geometry":{ "type": "Point", "coordinates": [-86.052486,33.060713]}},
{ "type": "Feature", "properties": {"name":"Gordo town","state":"Alabama","state_abbrev":"AL"},
"geometry":{ "type": "Point", "coordinates": [-87.903681,33.322286]}},
{ "type": "Feature", "properties": {"name":"Gordon town","state":"Alabama","state_abbrev":"AL"},
"geometry":{ "type": "Point", "coordinates": [-85.092504,31.143606]}},
{ "type": "Feature", "properties": {"name":"Gordonville town","state":"Alabama","state_abbrev":"AL"},
"geometry":{ "type": "Point", "coordinates": [-86.704235,32.159179]}},
{ "type": "Feature", "properties": {"name":"Goshen town","state":"Alabama","state_abbrev":"AL"},
"geometry":{ "type": "Point", "coordinates": [-86.123245,31.720015]}},
{ "type": "Feature", "properties": {"name":"Graham CDP","state":"Alabama","state_abbrev":"AL"},
"geometry":{ "type": "Point", "coordinates": [-85.323085,33.455191]}},
{ "type": "Feature", "properties": {"name":"Grand Bay CDP","state":"Alabama","state_abbrev":"AL"},
"geometry":{ "type": "Point", "coordinates": [-88.344401,30.472082]}},
{ "type": "Feature", "properties": {"name":"Grant town","state":"Alabama","state_abbrev":"AL"},
"geometry":{ "type": "Point", "coordinates": [-86.26043,34.518173]}},
{ "type": "Feature", "properties": {"name":"Grayson Valley CDP","state":"Alabama","state_abbrev":"AL"},
"geometry":{ "type": "Point", "coordinates": [-86.641942,33.646568]}},
{ "type": "Feature", "properties": {"name":"Graysville city","state":"Alabama","state_abbrev":"AL"},
"geometry":{ "type": "Point", "coordinates": [-86.941398,33.633756]}},
{ "type": "Feature", "properties": {"name":"Greensboro city","state":"Alabama","state_abbrev":"AL"},
"geometry":{ "type": "Point", "coordinates": [-87.5937,32.700968]}},
{ "type": "Feature", "properties": {"name":"Greenville city","state":"Alabama","state_abbrev":"AL"},
"geometry":{ "type": "Point", "coordinates": [-86.636951,31.843072]}},
{ "type": "Feature", "properties": {"name":"Grimes town","state":"Alabama","state_abbrev":"AL"},
"geometry":{ "type": "Point", "coordinates": [-85.45029,31.299869]}},
{ "type": "Feature", "properties": {"name":"Grove Hill town","state":"Alabama","state_abbrev":"AL"},
"geometry":{ "type": "Point", "coordinates": [-87.772868,31.69867]}},
{ "type": "Feature", "properties": {"name":"Guin city","state":"Alabama","state_abbrev":"AL"},
"geometry":{ "type": "Point", "coordinates": [-87.902363,33.98322]}},
{ "type": "Feature", "properties": {"name":"Gulfcrest CDP","state":"Alabama","state_abbrev":"AL"},
"geometry":{ "type": "Point", "coordinates": [-88.242231,30.991106]}},
{ "type": "Feature", "properties": {"name":"Gulf Shores city","state":"Alabama","state_abbrev":"AL"},
"geometry":{ "type": "Point", "coordinates": [-87.701258,30.275837]}},
{ "type": "Feature", "properties": {"name":"Guntersville city","state":"Alabama","state_abbrev":"AL"},
"geometry":{ "type": "Point", "coordinates": [-86.252323,34.367947]}},
{ "type": "Feature", "properties": {"name":"Gurley town","state":"Alabama","state_abbrev":"AL"},
"geometry":{ "type": "Point", "coordinates": [-86.380271,34.701364]}},
{ "type": "Feature", "properties": {"name":"Gu-Win town","state":"Alabama","state_abbrev":"AL"},
"geometry":{ "type": "Point", "coordinates": [-87.870376,33.94433]}},
{ "type": "Feature", "properties": {"name":"Hackleburg town","state":"Alabama","state_abbrev":"AL"},
"geometry":{ "type": "Point", "coordinates": [-87.830402,34.269355]}},
{ "type": "Feature", "properties": {"name":"Hackneyville CDP","state":"Alabama","state_abbrev":"AL"},
"geometry":{ "type": "Point", "coordinates": [-85.934423,33.054654]}},
{ "type": "Feature", "properties": {"name":"Haleburg town","state":"Alabama","state_abbrev":"AL"},
"geometry":{ "type": "Point", "coordinates": [-85.138068,31.409976]}},
{ "type": "Feature", "properties": {"name":"Haleyville city","state":"Alabama","state_abbrev":"AL"},
"geometry":{ "type": "Point", "coordinates": [-87.617574,34.233832]}},
{ "type": "Feature", "properties": {"name":"Hamilton city","state":"Alabama","state_abbrev":"AL"},
"geometry":{ "type": "Point", "coordinates": [-87.970833,34.138713]}},
{ "type": "Feature", "properties": {"name":"Hammondville town","state":"Alabama","state_abbrev":"AL"},
"geometry":{ "type": "Point", "coordinates": [-85.640348,34.566232]}},
{ "type": "Feature", "properties": {"name":"Hanceville city","state":"Alabama","state_abbrev":"AL"},
"geometry":{ "type": "Point", "coordinates": [-86.764436,34.06401]}},
{ "type": "Feature", "properties": {"name":"Hanover CDP","state":"Alabama","state_abbrev":"AL"},
"geometry":{ "type": "Point", "coordinates": [-86.200931,33.002922]}},
{ "type": "Feature", "properties": {"name":"Harpersville town","state":"Alabama","state_abbrev":"AL"},
"geometry":{ "type": "Point", "coordinates": [-86.428431,33.317725]}},
{ "type": "Feature", "properties": {"name":"Hartford city","state":"Alabama","state_abbrev":"AL"},
"geometry":{ "type": "Point", "coordinates": [-85.691225,31.105348]}},
{ "type": "Feature", "properties": {"name":"Hartselle city","state":"Alabama","state_abbrev":"AL"},
"geometry":{ "type": "Point", "coordinates": [-86.940364,34.440434]}},
{ "type": "Feature", "properties": {"name":"Harvest CDP","state":"Alabama","state_abbrev":"AL"},
"geometry":{ "type": "Point", "coordinates": [-86.758643,34.85507]}},
{ "type": "Feature", "properties": {"name":"Hatton CDP","state":"Alabama","state_abbrev":"AL"},
"geometry":{ "type": "Point", "coordinates": [-87.413835,34.560671]}},
{ "type": "Feature", "properties": {"name":"Hayden town","state":"Alabama","state_abbrev":"AL"},
"geometry":{ "type": "Point", "coordinates": [-86.744224,33.894514]}},
{ "type": "Feature", "properties": {"name":"Hayneville town","state":"Alabama","state_abbrev":"AL"},
"geometry":{ "type": "Point", "coordinates": [-86.578588,32.182595]}},
{ "type": "Feature", "properties": {"name":"Hazel Green CDP","state":"Alabama","state_abbrev":"AL"},
"geometry":{ "type": "Point", "coordinates": [-86.567392,34.923656]}},
{ "type": "Feature", "properties": {"name":"Headland city","state":"Alabama","state_abbrev":"AL"},
"geometry":{ "type": "Point", "coordinates": [-85.357031,31.354974]}},
{ "type": "Feature", "properties": {"name":"Heath town","state":"Alabama","state_abbrev":"AL"},
"geometry":{ "type": "Point", "coordinates": [-86.46905,31.344839]}},
{ "type": "Feature", "properties": {"name":"Heflin city","state":"Alabama","state_abbrev":"AL"},
"geometry":{ "type": "Point", "coordinates": [-85.569339,33.6474]}},
{ "type": "Feature", "properties": {"name":"Helena city","state":"Alabama","state_abbrev":"AL"},
"geometry":{ "type": "Point", "coordinates": [-86.879177,33.283424]}},
{ "type": "Feature", "properties": {"name":"Henagar city","state":"Alabama","state_abbrev":"AL"},
"geometry":{ "type": "Point", "coordinates": [-85.730918,34.630641]}},
{ "type": "Feature", "properties": {"name":"Highland Lake town","state":"Alabama","state_abbrev":"AL"},
"geometry":{ "type": "Point", "coordinates": [-86.422553,33.894586]}},
{ "type": "Feature", "properties": {"name":"Highland Lakes CDP","state":"Alabama","state_abbrev":"AL"},
"geometry":{ "type": "Point", "coordinates": [-86.64792,33.397611]}},
{ "type": "Feature", "properties": {"name":"Hillsboro town","state":"Alabama","state_abbrev":"AL"},
"geometry":{ "type": "Point", "coordinates": [-87.178489,34.642586]}},
{ "type": "Feature", "properties": {"name":"Hissop CDP","state":"Alabama","state_abbrev":"AL"},
"geometry":{ "type": "Point", "coordinates": [-86.129601,32.890568]}},
{ "type": "Feature", "properties": {"name":"Hobson CDP","state":"Alabama","state_abbrev":"AL"},
"geometry":{ "type": "Point", "coordinates": [-88.150928,31.488725]}},
{ "type": "Feature", "properties": {"name":"Hobson City town","state":"Alabama","state_abbrev":"AL"},
"geometry":{ "type": "Point", "coordinates": [-85.846146,33.618801]}},
{ "type": "Feature", "properties": {"name":"Hodges town","state":"Alabama","state_abbrev":"AL"},
"geometry":{ "type": "Point", "coordinates": [-87.92316,34.334246]}},
{ "type": "Feature", "properties": {"name":"Hokes Bluff city","state":"Alabama","state_abbrev":"AL"},
"geometry":{ "type": "Point", "coordinates": [-85.862873,33.989682]}},
{ "type": "Feature", "properties": {"name":"Hollins CDP","state":"Alabama","state_abbrev":"AL"},
"geometry":{ "type": "Point", "coordinates": [-86.126967,33.121757]}},
{ "type": "Feature", "properties": {"name":"Hollis Crossroads CDP","state":"Alabama","state_abbrev":"AL"},
"geometry":{ "type": "Point", "coordinates": [-85.652862,33.531333]}},
{ "type": "Feature", "properties": {"name":"Holly Pond town","state":"Alabama","state_abbrev":"AL"},
"geometry":{ "type": "Point", "coordinates": [-86.612067,34.167686]}},
{ "type": "Feature", "properties": {"name":"Hollywood town","state":"Alabama","state_abbrev":"AL"},
"geometry":{ "type": "Point", "coordinates": [-85.965579,34.717279]}},
{ "type": "Feature", "properties": {"name":"Holt CDP","state":"Alabama","state_abbrev":"AL"},
"geometry":{ "type": "Point", "coordinates": [-87.482894,33.229745]}},
{ "type": "Feature", "properties": {"name":"Holtville CDP","state":"Alabama","state_abbrev":"AL"},
"geometry":{ "type": "Point", "coordinates": [-86.328004,32.630299]}},
{ "type": "Feature", "properties": {"name":"Homewood city","state":"Alabama","state_abbrev":"AL"},
"geometry":{ "type": "Point", "coordinates": [-86.80965,33.45855]}},
{ "type": "Feature", "properties": {"name":"Hoover city","state":"Alabama","state_abbrev":"AL"},
"geometry":{ "type": "Point", "coordinates": [-86.808905,33.37903]}},
{ "type": "Feature", "properties": {"name":"Horn Hill town","state":"Alabama","state_abbrev":"AL"},
"geometry":{ "type": "Point", "coordinates": [-86.325163,31.238137]}},
{ "type": "Feature", "properties": {"name":"Hueytown city","state":"Alabama","state_abbrev":"AL"},
"geometry":{ "type": "Point", "coordinates": [-87.016565,33.408604]}},
{ "type": "Feature", "properties": {"name":"Huguley CDP","state":"Alabama","state_abbrev":"AL"},
"geometry":{ "type": "Point", "coordinates": [-85.239635,32.843062]}},
{ "type": "Feature", "properties": {"name":"Huntsville city","state":"Alabama","state_abbrev":"AL"},
"geometry":{ "type": "Point", "coordinates": [-86.532599,34.782275]}},
{ "type": "Feature", "properties": {"name":"Hurtsboro town","state":"Alabama","state_abbrev":"AL"},
"geometry":{ "type": "Point", "coordinates": [-85.41467,32.24009]}},
{ "type": "Feature", "properties": {"name":"Hytop town","state":"Alabama","state_abbrev":"AL"},
"geometry":{ "type": "Point", "coordinates": [-86.089176,34.896635]}},
{ "type": "Feature", "properties": {"name":"Ider town","state":"Alabama","state_abbrev":"AL"},
"geometry":{ "type": "Point", "coordinates": [-85.668958,34.702599]}},
{ "type": "Feature", "properties": {"name":"Indian Springs Village city","state":"Alabama","state_abbrev":"AL"},
"geometry":{ "type": "Point", "coordinates": [-86.746856,33.361209]}},
{ "type": "Feature", "properties": {"name":"Irondale city","state":"Alabama","state_abbrev":"AL"},
"geometry":{ "type": "Point", "coordinates": [-86.659082,33.539914]}},
{ "type": "Feature", "properties": {"name":"Ivalee CDP","state":"Alabama","state_abbrev":"AL"},
"geometry":{ "type": "Point", "coordinates": [-86.147182,34.037204]}},
{ "type": "Feature", "properties": {"name":"Jackson city","state":"Alabama","state_abbrev":"AL"},
"geometry":{ "type": "Point", "coordinates": [-87.891183,31.532321]}},
{ "type": "Feature", "properties": {"name":"Jacksons' Gap town","state":"Alabama","state_abbrev":"AL"},
"geometry":{ "type": "Point", "coordinates": [-85.815046,32.884019]}},
{ "type": "Feature", "properties": {"name":"Jacksonville city","state":"Alabama","state_abbrev":"AL"},
"geometry":{ "type": "Point", "coordinates": [-85.755217,33.810066]}},
{ "type": "Feature", "properties": {"name":"Jasper city","state":"Alabama","state_abbrev":"AL"},
"geometry":{ "type": "Point", "coordinates": [-87.270268,33.856035]}},
{ "type": "Feature", "properties": {"name":"Jemison city","state":"Alabama","state_abbrev":"AL"},
"geometry":{ "type": "Point", "coordinates": [-86.73307,32.970705]}},
{ "type": "Feature", "properties": {"name":"Joppa CDP","state":"Alabama","state_abbrev":"AL"},
"geometry":{ "type": "Point", "coordinates": [-86.549946,34.29955]}},
{ "type": "Feature", "properties": {"name":"Kansas town","state":"Alabama","state_abbrev":"AL"},
"geometry":{ "type": "Point", "coordinates": [-87.556598,33.902808]}},
{ "type": "Feature", "properties": {"name":"Kellyton town","state":"Alabama","state_abbrev":"AL"},
"geometry":{ "type": "Point", "coordinates": [-86.034608,32.979188]}},
{ "type": "Feature", "properties": {"name":"Kennedy town","state":"Alabama","state_abbrev":"AL"},
"geometry":{ "type": "Point", "coordinates": [-87.9855,33.580722]}},
{ "type": "Feature", "properties": {"name":"Killen town","state":"Alabama","state_abbrev":"AL"},
"geometry":{ "type": "Point", "coordinates": [-87.529346,34.860954]}},
{ "type": "Feature", "properties": {"name":"Kimberly city","state":"Alabama","state_abbrev":"AL"},
"geometry":{ "type": "Point", "coordinates": [-86.800821,33.780312]}},
{ "type": "Feature", "properties": {"name":"Kinsey town","state":"Alabama","state_abbrev":"AL"},
"geometry":{ "type": "Point", "coordinates": [-85.334994,31.296269]}},
{ "type": "Feature", "properties": {"name":"Kinston town","state":"Alabama","state_abbrev":"AL"},
"geometry":{ "type": "Point", "coordinates": [-86.170075,31.219604]}},
{ "type": "Feature", "properties": {"name":"Ladonia CDP","state":"Alabama","state_abbrev":"AL"},
"geometry":{ "type": "Point", "coordinates": [-85.090423,32.459709]}},
{ "type": "Feature", "properties": {"name":"La Fayette city","state":"Alabama","state_abbrev":"AL"},
"geometry":{ "type": "Point", "coordinates": [-85.400795,32.899427]}},
{ "type": "Feature", "properties": {"name":"Lakeview town","state":"Alabama","state_abbrev":"AL"},
"geometry":{ "type": "Point", "coordinates": [-85.975573,34.391675]}},
{ "type": "Feature", "properties": {"name":"Lake View town","state":"Alabama","state_abbrev":"AL"},
"geometry":{ "type": "Point", "coordinates": [-87.132653,33.288266]}},
{ "type": "Feature", "properties": {"name":"Lanett city","state":"Alabama","state_abbrev":"AL"},
"geometry":{ "type": "Point", "coordinates": [-85.207788,32.858649]}},
{ "type": "Feature", "properties": {"name":"Langston town","state":"Alabama","state_abbrev":"AL"},
"geometry":{ "type": "Point", "coordinates": [-86.09335,34.545063]}},
{ "type": "Feature", "properties": {"name":"Leeds city","state":"Alabama","state_abbrev":"AL"},
"geometry":{ "type": "Point", "coordinates": [-86.571448,33.546847]}},
{ "type": "Feature", "properties": {"name":"Leesburg town","state":"Alabama","state_abbrev":"AL"},
"geometry":{ "type": "Point", "coordinates": [-85.777897,34.178627]}},
{ "type": "Feature", "properties": {"name":"Leighton town","state":"Alabama","state_abbrev":"AL"},
"geometry":{ "type": "Point", "coordinates": [-87.524282,34.69368]}},
{ "type": "Feature", "properties": {"name":"Leroy CDP","state":"Alabama","state_abbrev":"AL"},
"geometry":{ "type": "Point", "coordinates": [-87.972773,31.494971]}},
{ "type": "Feature", "properties": {"name":"Lester town","state":"Alabama","state_abbrev":"AL"},
"geometry":{ "type": "Point", "coordinates": [-87.155534,34.982751]}},
{ "type": "Feature", "properties": {"name":"Level Plains town","state":"Alabama","state_abbrev":"AL"},
"geometry":{ "type": "Point", "coordinates": [-85.768722,31.307125]}},
{ "type": "Feature", "properties": {"name":"Lexington town","state":"Alabama","state_abbrev":"AL"},
"geometry":{ "type": "Point", "coordinates": [-87.37283,34.959351]}},
{ "type": "Feature", "properties": {"name":"Libertyville town","state":"Alabama","state_abbrev":"AL"},
"geometry":{ "type": "Point", "coordinates": [-86.456955,31.24005]}},
{ "type": "Feature", "properties": {"name":"Lillian CDP","state":"Alabama","state_abbrev":"AL"},
"geometry":{ "type": "Point", "coordinates": [-87.420751,30.418904]}},
{ "type": "Feature", "properties": {"name":"Lincoln city","state":"Alabama","state_abbrev":"AL"},
"geometry":{ "type": "Point", "coordinates": [-86.127876,33.580169]}},
{ "type": "Feature", "properties": {"name":"Linden city","state":"Alabama","state_abbrev":"AL"},
"geometry":{ "type": "Point", "coordinates": [-87.792583,32.30136]}},
{ "type": "Feature", "properties": {"name":"Lineville city","state":"Alabama","state_abbrev":"AL"},
"geometry":{ "type": "Point", "coordinates": [-85.752278,33.312832]}},
{ "type": "Feature", "properties": {"name":"Lipscomb city","state":"Alabama","state_abbrev":"AL"},
"geometry":{ "type": "Point", "coordinates": [-86.926103,33.426005]}},
{ "type": "Feature", "properties": {"name":"Lisman town","state":"Alabama","state_abbrev":"AL"},
"geometry":{ "type": "Point", "coordinates": [-88.284092,32.171729]}},
{ "type": "Feature", "properties": {"name":"Littleville town","state":"Alabama","state_abbrev":"AL"},
"geometry":{ "type": "Point", "coordinates": [-87.670729,34.595121]}},
{ "type": "Feature", "properties": {"name":"Livingston city","state":"Alabama","state_abbrev":"AL"},
"geometry":{ "type": "Point", "coordinates": [-88.186929,32.595549]}},
{ "type": "Feature", "properties": {"name":"Loachapoka town","state":"Alabama","state_abbrev":"AL"},
"geometry":{ "type": "Point", "coordinates": [-85.598479,32.607946]}},
{ "type": "Feature", "properties": {"name":"Lockhart town","state":"Alabama","state_abbrev":"AL"},
"geometry":{ "type": "Point", "coordinates": [-86.350273,31.013011]}},
{ "type": "Feature", "properties": {"name":"Locust Fork town","state":"Alabama","state_abbrev":"AL"},
"geometry":{ "type": "Point", "coordinates": [-86.647093,33.876794]}},
{ "type": "Feature", "properties": {"name":"Lookout Mountain CDP","state":"Alabama","state_abbrev":"AL"},
"geometry":{ "type": "Point", "coordinates": [-85.965464,34.115916]}},
{ "type": "Feature", "properties": {"name":"Louisville town","state":"Alabama","state_abbrev":"AL"},
"geometry":{ "type": "Point", "coordinates": [-85.558336,31.781047]}},
{ "type": "Feature", "properties": {"name":"Lowndesboro town","state":"Alabama","state_abbrev":"AL"},
"geometry":{ "type": "Point", "coordinates": [-86.610848,32.276422]}},
{ "type": "Feature", "properties": {"name":"Loxley town","state":"Alabama","state_abbrev":"AL"},
"geometry":{ "type": "Point", "coordinates": [-87.739213,30.684588]}},
{ "type": "Feature", "properties": {"name":"Luverne city","state":"Alabama","state_abbrev":"AL"},
"geometry":{ "type": "Point", "coordinates": [-86.269082,31.718941]}},
{ "type": "Feature", "properties": {"name":"Lynn town","state":"Alabama","state_abbrev":"AL"},
"geometry":{ "type": "Point", "coordinates": [-87.548643,34.057591]}},
{ "type": "Feature", "properties": {"name":"McCalla CDP","state":"Alabama","state_abbrev":"AL"},
"geometry":{ "type": "Point", "coordinates": [-87.02666,33.303112]}},
{ "type": "Feature", "properties": {"name":"McDonald Chapel CDP","state":"Alabama","state_abbrev":"AL"},
"geometry":{ "type": "Point", "coordinates": [-86.938462,33.518576]}},
{ "type": "Feature", "properties": {"name":"Macedonia CDP","state":"Alabama","state_abbrev":"AL"},
"geometry":{ "type": "Point", "coordinates": [-88.239221,33.403139]}},
{ "type": "Feature", "properties": {"name":"McIntosh town","state":"Alabama","state_abbrev":"AL"},
"geometry":{ "type": "Point", "coordinates": [-88.028369,31.264957]}},
{ "type": "Feature", "properties": {"name":"McKenzie town","state":"Alabama","state_abbrev":"AL"},
"geometry":{ "type": "Point", "coordinates": [-86.725954,31.54647]}},
{ "type": "Feature", "properties": {"name":"McMullen town","state":"Alabama","state_abbrev":"AL"},
"geometry":{ "type": "Point", "coordinates": [-88.175749,33.1481]}},
{ "type": "Feature", "properties": {"name":"Madison city","state":"Alabama","state_abbrev":"AL"},
"geometry":{ "type": "Point", "coordinates": [-86.76228,34.710533]}},
{ "type": "Feature", "properties": {"name":"Madrid town","state":"Alabama","state_abbrev":"AL"},
"geometry":{ "type": "Point", "coordinates": [-85.399205,31.035635]}},
{ "type": "Feature", "properties": {"name":"Magnolia Springs town","state":"Alabama","state_abbrev":"AL"},
"geometry":{ "type": "Point", "coordinates": [-87.775895,30.40341]}},
{ "type": "Feature", "properties": {"name":"Malcolm CDP","state":"Alabama","state_abbrev":"AL"},
"geometry":{ "type": "Point", "coordinates": [-88.000624,31.198806]}},
{ "type": "Feature", "properties": {"name":"Malvern town","state":"Alabama","state_abbrev":"AL"},
"geometry":{ "type": "Point", "coordinates": [-85.522973,31.143698]}},
{ "type": "Feature", "properties": {"name":"Maplesville town","state":"Alabama","state_abbrev":"AL"},
"geometry":{ "type": "Point", "coordinates": [-86.879694,32.784391]}},
{ "type": "Feature", "properties": {"name":"Marbury CDP","state":"Alabama","state_abbrev":"AL"},
"geometry":{ "type": "Point", "coordinates": [-86.463728,32.672984]}},
{ "type": "Feature", "properties": {"name":"Margaret town","state":"Alabama","state_abbrev":"AL"},
"geometry":{ "type": "Point", "coordinates": [-86.463942,33.67284]}},
{ "type": "Feature", "properties": {"name":"Marion city","state":"Alabama","state_abbrev":"AL"},
"geometry":{ "type": "Point", "coordinates": [-87.317333,32.631968]}},
{ "type": "Feature", "properties": {"name":"Maytown town","state":"Alabama","state_abbrev":"AL"},
"geometry":{ "type": "Point", "coordinates": [-87.000043,33.549954]}},
{ "type": "Feature", "properties": {"name":"Meadowbrook CDP","state":"Alabama","state_abbrev":"AL"},
"geometry":{ "type": "Point", "coordinates": [-86.704373,33.395235]}},
{ "type": "Feature", "properties": {"name":"Megargel CDP","state":"Alabama","state_abbrev":"AL"},
"geometry":{ "type": "Point", "coordinates": [-87.430649,31.378141]}},
{ "type": "Feature", "properties": {"name":"Memphis town","state":"Alabama","state_abbrev":"AL"},
"geometry":{ "type": "Point", "coordinates": [-88.305942,33.137044]}},
{ "type": "Feature", "properties": {"name":"Mentone town","state":"Alabama","state_abbrev":"AL"},
"geometry":{ "type": "Point", "coordinates": [-85.589704,34.563209]}},
{ "type": "Feature", "properties": {"name":"Meridianville CDP","state":"Alabama","state_abbrev":"AL"},
"geometry":{ "type": "Point", "coordinates": [-86.580559,34.874913]}},
{ "type": "Feature", "properties": {"name":"Midfield city","state":"Alabama","state_abbrev":"AL"},
"geometry":{ "type": "Point", "coordinates": [-86.922414,33.455272]}},
{ "type": "Feature", "properties": {"name":"Midland City town","state":"Alabama","state_abbrev":"AL"},
"geometry":{ "type": "Point", "coordinates": [-85.493674,31.315675]}},
{ "type": "Feature", "properties": {"name":"Midway town","state":"Alabama","state_abbrev":"AL"},
"geometry":{ "type": "Point", "coordinates": [-85.524417,32.076373]}},
{ "type": "Feature", "properties": {"name":"Mignon CDP","state":"Alabama","state_abbrev":"AL"},
"geometry":{ "type": "Point", "coordinates": [-86.256886,33.18658]}},
{ "type": "Feature", "properties": {"name":"Millbrook city","state":"Alabama","state_abbrev":"AL"},
"geometry":{ "type": "Point", "coordinates": [-86.373914,32.501474]}},
{ "type": "Feature", "properties": {"name":"Millerville CDP","state":"Alabama","state_abbrev":"AL"},
"geometry":{ "type": "Point", "coordinates": [-85.929828,33.191458]}},
{ "type": "Feature", "properties": {"name":"Millport town","state":"Alabama","state_abbrev":"AL"},
"geometry":{ "type": "Point", "coordinates": [-88.082382,33.555935]}},
{ "type": "Feature", "properties": {"name":"Millry town","state":"Alabama","state_abbrev":"AL"},
"geometry":{ "type": "Point", "coordinates": [-88.327956,31.621199]}},
{ "type": "Feature", "properties": {"name":"Minor CDP","state":"Alabama","state_abbrev":"AL"},
"geometry":{ "type": "Point", "coordinates": [-86.940073,33.539011]}},
{ "type": "Feature", "properties": {"name":"Mobile city","state":"Alabama","state_abbrev":"AL"},
"geometry":{ "type": "Point", "coordinates": [-88.100226,30.668426]}},
{ "type": "Feature", "properties": {"name":"Monroeville city","state":"Alabama","state_abbrev":"AL"},
"geometry":{ "type": "Point", "coordinates": [-87.327714,31.516223]}},
{ "type": "Feature", "properties": {"name":"Montevallo city","state":"Alabama","state_abbrev":"AL"},
"geometry":{ "type": "Point", "coordinates": [-86.847702,33.126053]}},
{ "type": "Feature", "properties": {"name":"Montgomery city","state":"Alabama","state_abbrev":"AL"},
"geometry":{ "type": "Point", "coordinates": [-86.267307,32.348503]}},
{ "type": "Feature", "properties": {"name":"Moody city","state":"Alabama","state_abbrev":"AL"},
"geometry":{ "type": "Point", "coordinates": [-86.493786,33.603429]}},
{ "type": "Feature", "properties": {"name":"Moores Mill CDP","state":"Alabama","state_abbrev":"AL"},
"geometry":{ "type": "Point", "coordinates": [-86.52038,34.852143]}},
{ "type": "Feature", "properties": {"name":"Mooresville town","state":"Alabama","state_abbrev":"AL"},
"geometry":{ "type": "Point", "coordinates": [-86.880025,34.625883]}},
{ "type": "Feature", "properties": {"name":"Morris town","state":"Alabama","state_abbrev":"AL"},
"geometry":{ "type": "Point", "coordinates": [-86.800755,33.746223]}},
{ "type": "Feature", "properties": {"name":"Morrison Crossroads CDP","state":"Alabama","state_abbrev":"AL"},
"geometry":{ "type": "Point", "coordinates": [-85.488284,33.417996]}},
{ "type": "Feature", "properties": {"name":"Mosses town","state":"Alabama","state_abbrev":"AL"},
"geometry":{ "type": "Point", "coordinates": [-86.679435,32.188758]}},
{ "type": "Feature", "properties": {"name":"Moulton city","state":"Alabama","state_abbrev":"AL"},
"geometry":{ "type": "Point", "coordinates": [-87.282707,34.488302]}},
{ "type": "Feature", "properties": {"name":"Moundville town","state":"Alabama","state_abbrev":"AL"},
"geometry":{ "type": "Point", "coordinates": [-87.627545,32.996542]}},
{ "type": "Feature", "properties": {"name":"Mountain Brook city","state":"Alabama","state_abbrev":"AL"},
"geometry":{ "type": "Point", "coordinates": [-86.73447,33.491488]}},
{ "type": "Feature", "properties": {"name":"Mount Olive CDP","state":"Alabama","state_abbrev":"AL"},
"geometry":{ "type": "Point", "coordinates": [-86.13304,33.078454]}},
{ "type": "Feature", "properties": {"name":"Mount Olive CDP","state":"Alabama","state_abbrev":"AL"},
"geometry":{ "type": "Point", "coordinates": [-86.87549,33.669286]}},
{ "type": "Feature", "properties": {"name":"Mount Vernon town","state":"Alabama","state_abbrev":"AL"},
"geometry":{ "type": "Point", "coordinates": [-88.013166,31.087727]}},
{ "type": "Feature", "properties": {"name":"Movico CDP","state":"Alabama","state_abbrev":"AL"},
"geometry":{ "type": "Point", "coordinates": [-88.026619,31.062763]}},
{ "type": "Feature", "properties": {"name":"Mulga town","state":"Alabama","state_abbrev":"AL"},
"geometry":{ "type": "Point", "coordinates": [-86.972304,33.556313]}},
{ "type": "Feature", "properties": {"name":"Munford town","state":"Alabama","state_abbrev":"AL"},
"geometry":{ "type": "Point", "coordinates": [-85.956225,33.526208]}},
{ "type": "Feature", "properties": {"name":"Muscle Shoals city","state":"Alabama","state_abbrev":"AL"},
"geometry":{ "type": "Point", "coordinates": [-87.633761,34.74317]}},
{ "type": "Feature", "properties": {"name":"Myrtlewood town","state":"Alabama","state_abbrev":"AL"},
"geometry":{ "type": "Point", "coordinates": [-87.949261,32.252088]}},
{ "type": "Feature", "properties": {"name":"Nanafalia CDP","state":"Alabama","state_abbrev":"AL"},
"geometry":{ "type": "Point", "coordinates": [-87.995757,32.111393]}},
{ "type": "Feature", "properties": {"name":"Nances Creek CDP","state":"Alabama","state_abbrev":"AL"},
"geometry":{ "type": "Point", "coordinates": [-85.669104,33.855501]}},
{ "type": "Feature", "properties": {"name":"Napier Field town","state":"Alabama","state_abbrev":"AL"},
"geometry":{ "type": "Point", "coordinates": [-85.454929,31.314925]}},
{ "type": "Feature", "properties": {"name":"Natural Bridge town","state":"Alabama","state_abbrev":"AL"},
"geometry":{ "type": "Point", "coordinates": [-87.601409,34.090354]}},
{ "type": "Feature", "properties": {"name":"Nauvoo town","state":"Alabama","state_abbrev":"AL"},
"geometry":{ "type": "Point", "coordinates": [-87.48544,33.984386]}},
{ "type": "Feature", "properties": {"name":"Nectar town","state":"Alabama","state_abbrev":"AL"},
"geometry":{ "type": "Point", "coordinates": [-86.620614,33.979779]}},
{ "type": "Feature", "properties": {"name":"Needham town","state":"Alabama","state_abbrev":"AL"},
"geometry":{ "type": "Point", "coordinates": [-88.336563,31.987]}},
{ "type": "Feature", "properties": {"name":"Newbern town","state":"Alabama","state_abbrev":"AL"},
"geometry":{ "type": "Point", "coordinates": [-87.535614,32.591672]}},
{ "type": "Feature", "properties": {"name":"New Brockton town","state":"Alabama","state_abbrev":"AL"},
"geometry":{ "type": "Point", "coordinates": [-85.919028,31.37671]}},
{ "type": "Feature", "properties": {"name":"New Hope city","state":"Alabama","state_abbrev":"AL"},
"geometry":{ "type": "Point", "coordinates": [-86.412372,34.537972]}},
{ "type": "Feature", "properties": {"name":"New Market CDP","state":"Alabama","state_abbrev":"AL"},
"geometry":{ "type": "Point", "coordinates": [-86.425818,34.892335]}},
{ "type": "Feature", "properties": {"name":"New Site town","state":"Alabama","state_abbrev":"AL"},
"geometry":{ "type": "Point", "coordinates": [-85.784536,33.026041]}},
{ "type": "Feature", "properties": {"name":"Newton town","state":"Alabama","state_abbrev":"AL"},
"geometry":{ "type": "Point", "coordinates": [-85.588307,31.341229]}},
{ "type": "Feature", "properties": {"name":"New Union CDP","state":"Alabama","state_abbrev":"AL"},
"geometry":{ "type": "Point", "coordinates": [-86.228002,34.133682]}},
{ "type": "Feature", "properties": {"name":"Newville town","state":"Alabama","state_abbrev":"AL"},
"geometry":{ "type": "Point", "coordinates": [-85.33669,31.420604]}},
{ "type": "Feature", "properties": {"name":"Nixburg CDP","state":"Alabama","state_abbrev":"AL"},
"geometry":{ "type": "Point", "coordinates": [-86.100838,32.855488]}},
{ "type": "Feature", "properties": {"name":"North Courtland town","state":"Alabama","state_abbrev":"AL"},
"geometry":{ "type": "Point", "coordinates": [-87.305717,34.680023]}},
{ "type": "Feature", "properties": {"name":"North Johns town","state":"Alabama","state_abbrev":"AL"},
"geometry":{ "type": "Point", "coordinates": [-87.100725,33.367769]}},
{ "type": "Feature", "properties": {"name":"Northport city","state":"Alabama","state_abbrev":"AL"},
"geometry":{ "type": "Point", "coordinates": [-87.596396,33.257565]}},
{ "type": "Feature", "properties": {"name":"Notasulga town","state":"Alabama","state_abbrev":"AL"},
"geometry":{ "type": "Point", "coordinates": [-85.668577,32.555409]}},
{ "type": "Feature", "properties": {"name":"Oak Grove town","state":"Alabama","state_abbrev":"AL"},
"geometry":{ "type": "Point", "coordinates": [-86.303727,33.190359]}},
{ "type": "Feature", "properties": {"name":"Oak Hill town","state":"Alabama","state_abbrev":"AL"},
"geometry":{ "type": "Point", "coordinates": [-87.085234,31.92162]}},
{ "type": "Feature", "properties": {"name":"Oakman town","state":"Alabama","state_abbrev":"AL"},
"geometry":{ "type": "Point", "coordinates": [-87.388699,33.714322]}},
{ "type": "Feature", "properties": {"name":"Odenville city","state":"Alabama","state_abbrev":"AL"},
"geometry":{ "type": "Point", "coordinates": [-86.423371,33.700875]}},
{ "type": "Feature", "properties": {"name":"Ohatchee town","state":"Alabama","state_abbrev":"AL"},
"geometry":{ "type": "Point", "coordinates": [-86.029062,33.789759]}},
{ "type": "Feature", "properties": {"name":"Oneonta city","state":"Alabama","state_abbrev":"AL"},
"geometry":{ "type": "Point", "coordinates": [-86.489793,33.947038]}},
{ "type": "Feature", "properties": {"name":"Onycha town","state":"Alabama","state_abbrev":"AL"},
"geometry":{ "type": "Point", "coordinates": [-86.276024,31.225693]}},
{ "type": "Feature", "properties": {"name":"Opelika city","state":"Alabama","state_abbrev":"AL"},
"geometry":{ "type": "Point", "coordinates": [-85.37889,32.660739]}},
{ "type": "Feature", "properties": {"name":"Opp city","state":"Alabama","state_abbrev":"AL"},
"geometry":{ "type": "Point", "coordinates": [-86.257442,31.284375]}},
{ "type": "Feature", "properties": {"name":"Orange Beach city","state":"Alabama","state_abbrev":"AL"},
"geometry":{ "type": "Point", "coordinates": [-87.595371,30.293987]}},
{ "type": "Feature", "properties": {"name":"Orrville town","state":"Alabama","state_abbrev":"AL"},
"geometry":{ "type": "Point", "coordinates": [-87.245447,32.306769]}},
{ "type": "Feature", "properties": {"name":"Our Town CDP","state":"Alabama","state_abbrev":"AL"},
"geometry":{ "type": "Point", "coordinates": [-85.967035,32.842211]}},
{ "type": "Feature", "properties": {"name":"Owens Cross Roads town","state":"Alabama","state_abbrev":"AL"},
"geometry":{ "type": "Point", "coordinates": [-86.455027,34.585458]}},
{ "type": "Feature", "properties": {"name":"Oxford city","state":"Alabama","state_abbrev":"AL"},
"geometry":{ "type": "Point", "coordinates": [-85.868132,33.597366]}},
{ "type": "Feature", "properties": {"name":"Ozark city","state":"Alabama","state_abbrev":"AL"},
"geometry":{ "type": "Point", "coordinates": [-85.645035,31.451615]}},
{ "type": "Feature", "properties": {"name":"Paint Rock town","state":"Alabama","state_abbrev":"AL"},
"geometry":{ "type": "Point", "coordinates": [-86.333952,34.660934]}},
{ "type": "Feature", "properties": {"name":"Panola CDP","state":"Alabama","state_abbrev":"AL"},
"geometry":{ "type": "Point", "coordinates": [-88.262266,32.946819]}},
{ "type": "Feature", "properties": {"name":"Parrish town","state":"Alabama","state_abbrev":"AL"},
"geometry":{ "type": "Point", "coordinates": [-87.280127,33.732321]}},
{ "type": "Feature", "properties": {"name":"Pea Ridge CDP","state":"Alabama","state_abbrev":"AL"},
"geometry":{ "type": "Point", "coordinates": [-86.937949,33.133805]}},
{ "type": "Feature", "properties": {"name":"Pelham city","state":"Alabama","state_abbrev":"AL"},
"geometry":{ "type": "Point", "coordinates": [-86.742197,33.32183]}},
{ "type": "Feature", "properties": {"name":"Pell City city","state":"Alabama","state_abbrev":"AL"},
"geometry":{ "type": "Point", "coordinates": [-86.263634,33.560312]}},
{ "type": "Feature", "properties": {"name":"Pennington town","state":"Alabama","state_abbrev":"AL"},
"geometry":{ "type": "Point", "coordinates": [-88.037572,32.200612]}},
{ "type": "Feature", "properties": {"name":"Penton CDP","state":"Alabama","state_abbrev":"AL"},
"geometry":{ "type": "Point", "coordinates": [-85.474824,33.009832]}},
{ "type": "Feature", "properties": {"name":"Perdido CDP","state":"Alabama","state_abbrev":"AL"},
"geometry":{ "type": "Point", "coordinates": [-87.630272,31.005634]}},
{ "type": "Feature", "properties": {"name":"Perdido Beach town","state":"Alabama","state_abbrev":"AL"},
"geometry":{ "type": "Point", "coordinates": [-87.5048,30.353879]}},
{ "type": "Feature", "properties": {"name":"Peterman CDP","state":"Alabama","state_abbrev":"AL"},
"geometry":{ "type": "Point", "coordinates": [-87.263042,31.583669]}},
{ "type": "Feature", "properties": {"name":"Petrey town","state":"Alabama","state_abbrev":"AL"},
"geometry":{ "type": "Point", "coordinates": [-86.204007,31.85216]}},
{ "type": "Feature", "properties": {"name":"Phenix City city","state":"Alabama","state_abbrev":"AL"},
"geometry":{ "type": "Point", "coordinates": [-85.031019,32.453709]}},
{ "type": "Feature", "properties": {"name":"Phil Campbell town","state":"Alabama","state_abbrev":"AL"},
"geometry":{ "type": "Point", "coordinates": [-87.707359,34.351547]}},
{ "type": "Feature", "properties": {"name":"Pickensville town","state":"Alabama","state_abbrev":"AL"},
"geometry":{ "type": "Point", "coordinates": [-88.289443,33.235782]}},
{ "type": "Feature", "properties": {"name":"Piedmont city","state":"Alabama","state_abbrev":"AL"},
"geometry":{ "type": "Point", "coordinates": [-85.615267,33.927557]}},
{ "type": "Feature", "properties": {"name":"Pike Road town","state":"Alabama","state_abbrev":"AL"},
"geometry":{ "type": "Point", "coordinates": [-86.118927,32.273609]}},
{ "type": "Feature", "properties": {"name":"Pinckard town","state":"Alabama","state_abbrev":"AL"},
"geometry":{ "type": "Point", "coordinates": [-85.537836,31.318989]}},
{ "type": "Feature", "properties": {"name":"Pine Apple town","state":"Alabama","state_abbrev":"AL"},
"geometry":{ "type": "Point", "coordinates": [-86.989059,31.872155]}},
{ "type": "Feature", "properties": {"name":"Pine Hill town","state":"Alabama","state_abbrev":"AL"},
"geometry":{ "type": "Point", "coordinates": [-87.587516,31.985884]}},
{ "type": "Feature", "properties": {"name":"Pine Level CDP","state":"Alabama","state_abbrev":"AL"},
"geometry":{ "type": "Point", "coordinates": [-86.454318,32.579539]}},
{ "type": "Feature", "properties": {"name":"Pine Ridge town","state":"Alabama","state_abbrev":"AL"},
"geometry":{ "type": "Point", "coordinates": [-85.783831,34.447915]}},
{ "type": "Feature", "properties": {"name":"Pinson city","state":"Alabama","state_abbrev":"AL"},
"geometry":{ "type": "Point", "coordinates": [-86.663613,33.709262]}},
{ "type": "Feature", "properties": {"name":"Pisgah town","state":"Alabama","state_abbrev":"AL"},
"geometry":{ "type": "Point", "coordinates": [-85.84601,34.684366]}},
{ "type": "Feature", "properties": {"name":"Pleasant Grove city","state":"Alabama","state_abbrev":"AL"},
"geometry":{ "type": "Point", "coordinates": [-86.97815,33.493967]}},
{ "type": "Feature", "properties": {"name":"Pleasant Groves town","state":"Alabama","state_abbrev":"AL"},
"geometry":{ "type": "Point", "coordinates": [-86.197637,34.737619]}},
{ "type": "Feature", "properties": {"name":"Point Clear CDP","state":"Alabama","state_abbrev":"AL"},
"geometry":{ "type": "Point", "coordinates": [-87.911132,30.486112]}},
{ "type": "Feature", "properties": {"name":"Pollard town","state":"Alabama","state_abbrev":"AL"},
"geometry":{ "type": "Point", "coordinates": [-87.172978,31.023877]}},
{ "type": "Feature", "properties": {"name":"Powell town","state":"Alabama","state_abbrev":"AL"},
"geometry":{ "type": "Point", "coordinates": [-85.897553,34.532588]}},
{ "type": "Feature", "properties": {"name":"Prattville city","state":"Alabama","state_abbrev":"AL"},
"geometry":{ "type": "Point", "coordinates": [-86.449401,32.449041]}},
{ "type": "Feature", "properties": {"name":"Priceville town","state":"Alabama","state_abbrev":"AL"},
"geometry":{ "type": "Point", "coordinates": [-86.882177,34.529583]}},
{ "type": "Feature", "properties": {"name":"Prichard city","state":"Alabama","state_abbrev":"AL"},
"geometry":{ "type": "Point", "coordinates": [-88.131416,30.773337]}},
{ "type": "Feature", "properties": {"name":"Providence town","state":"Alabama","state_abbrev":"AL"},
"geometry":{ "type": "Point", "coordinates": [-87.776115,32.342386]}},
{ "type": "Feature", "properties": {"name":"Putnam CDP","state":"Alabama","state_abbrev":"AL"},
"geometry":{ "type": "Point", "coordinates": [-88.033057,32.018084]}},
{ "type": "Feature", "properties": {"name":"Ragland town","state":"Alabama","state_abbrev":"AL"},
"geometry":{ "type": "Point", "coordinates": [-86.135927,33.748325]}},
{ "type": "Feature", "properties": {"name":"Rainbow City city","state":"Alabama","state_abbrev":"AL"},
"geometry":{ "type": "Point", "coordinates": [-86.084228,33.928777]}},
{ "type": "Feature", "properties": {"name":"Rainsville city","state":"Alabama","state_abbrev":"AL"},
"geometry":{ "type": "Point", "coordinates": [-85.836505,34.494364]}},
{ "type": "Feature", "properties": {"name":"Ranburne town","state":"Alabama","state_abbrev":"AL"},
"geometry":{ "type": "Point", "coordinates": [-85.339013,33.525853]}},
{ "type": "Feature", "properties": {"name":"Ray CDP","state":"Alabama","state_abbrev":"AL"},
"geometry":{ "type": "Point", "coordinates": [-86.045252,32.868141]}},
{ "type": "Feature", "properties": {"name":"Red Bay city","state":"Alabama","state_abbrev":"AL"},
"geometry":{ "type": "Point", "coordinates": [-88.136515,34.436097]}},
{ "type": "Feature", "properties": {"name":"Redland CDP","state":"Alabama","state_abbrev":"AL"},
"geometry":{ "type": "Point", "coordinates": [-86.143759,32.481426]}},
{ "type": "Feature", "properties": {"name":"Red Level town","state":"Alabama","state_abbrev":"AL"},
"geometry":{ "type": "Point", "coordinates": [-86.606217,31.406711]}},
{ "type": "Feature", "properties": {"name":"Redstone Arsenal CDP","state":"Alabama","state_abbrev":"AL"},
"geometry":{ "type": "Point", "coordinates": [-86.661172,34.687763]}},
{ "type": "Feature", "properties": {"name":"Reece City town","state":"Alabama","state_abbrev":"AL"},
"geometry":{ "type": "Point", "coordinates": [-86.034498,34.077241]}},
{ "type": "Feature", "properties": {"name":"Reeltown CDP","state":"Alabama","state_abbrev":"AL"},
"geometry":{ "type": "Point", "coordinates": [-85.819562,32.574211]}},
{ "type": "Feature", "properties": {"name":"Reform town","state":"Alabama","state_abbrev":"AL"},
"geometry":{ "type": "Point", "coordinates": [-88.017273,33.37826]}},
{ "type": "Feature", "properties": {"name":"Rehobeth town","state":"Alabama","state_abbrev":"AL"},
"geometry":{ "type": "Point", "coordinates": [-85.439607,31.124507]}},
{ "type": "Feature", "properties": {"name":"Remlap CDP","state":"Alabama","state_abbrev":"AL"},
"geometry":{ "type": "Point", "coordinates": [-86.593941,33.806972]}},
{ "type": "Feature", "properties": {"name":"Repton town","state":"Alabama","state_abbrev":"AL"},
"geometry":{ "type": "Point", "coordinates": [-87.238931,31.409716]}},
{ "type": "Feature", "properties": {"name":"Ridgeville town","state":"Alabama","state_abbrev":"AL"},
"geometry":{ "type": "Point", "coordinates": [-86.102874,34.056929]}},
{ "type": "Feature", "properties": {"name":"River Falls town","state":"Alabama","state_abbrev":"AL"},
"geometry":{ "type": "Point", "coordinates": [-86.544609,31.352397]}},
{ "type": "Feature", "properties": {"name":"Riverside city","state":"Alabama","state_abbrev":"AL"},
"geometry":{ "type": "Point", "coordinates": [-86.204357,33.616394]}},
{ "type": "Feature", "properties": {"name":"Riverview town","state":"Alabama","state_abbrev":"AL"},
"geometry":{ "type": "Point", "coordinates": [-87.077531,31.06126]}},
{ "type": "Feature", "properties": {"name":"Roanoke city","state":"Alabama","state_abbrev":"AL"},
"geometry":{ "type": "Point", "coordinates": [-85.369526,33.145305]}},
{ "type": "Feature", "properties": {"name":"Robertsdale city","state":"Alabama","state_abbrev":"AL"},
"geometry":{ "type": "Point", "coordinates": [-87.704723,30.557139]}},
{ "type": "Feature", "properties": {"name":"Rock Creek CDP","state":"Alabama","state_abbrev":"AL"},
"geometry":{ "type": "Point", "coordinates": [-87.081249,33.477227]}},
{ "type": "Feature", "properties": {"name":"Rockford town","state":"Alabama","state_abbrev":"AL"},
"geometry":{ "type": "Point", "coordinates": [-86.208346,32.896866]}},
{ "type": "Feature", "properties": {"name":"Rock Mills CDP","state":"Alabama","state_abbrev":"AL"},
"geometry":{ "type": "Point", "coordinates": [-85.28107,33.15994]}},
{ "type": "Feature", "properties": {"name":"Rockville CDP","state":"Alabama","state_abbrev":"AL"},
"geometry":{ "type": "Point", "coordinates": [-87.844212,31.405776]}},
{ "type": "Feature", "properties": {"name":"Rogersville town","state":"Alabama","state_abbrev":"AL"},
"geometry":{ "type": "Point", "coordinates": [-87.284092,34.827714]}},
{ "type": "Feature", "properties": {"name":"Rosa town","state":"Alabama","state_abbrev":"AL"},
"geometry":{ "type": "Point", "coordinates": [-86.500325,33.992756]}},
{ "type": "Feature", "properties": {"name":"Russellville city","state":"Alabama","state_abbrev":"AL"},
"geometry":{ "type": "Point", "coordinates": [-87.728123,34.505719]}},
{ "type": "Feature", "properties": {"name":"Rutledge town","state":"Alabama","state_abbrev":"AL"},
"geometry":{ "type": "Point", "coordinates": [-86.302008,31.724072]}},
{ "type": "Feature", "properties": {"name":"St. Florian town","state":"Alabama","state_abbrev":"AL"},
"geometry":{ "type": "Point", "coordinates": [-87.623736,34.874098]}},
{ "type": "Feature", "properties": {"name":"St. Stephens CDP","state":"Alabama","state_abbrev":"AL"},
"geometry":{ "type": "Point", "coordinates": [-88.052834,31.571111]}},
{ "type": "Feature", "properties": {"name":"Saks CDP","state":"Alabama","state_abbrev":"AL"},
"geometry":{ "type": "Point", "coordinates": [-85.853698,33.711401]}},
{ "type": "Feature", "properties": {"name":"Samson city","state":"Alabama","state_abbrev":"AL"},
"geometry":{ "type": "Point", "coordinates": [-86.046735,31.112417]}},
{ "type": "Feature", "properties": {"name":"Sand Rock town","state":"Alabama","state_abbrev":"AL"},
"geometry":{ "type": "Point", "coordinates": [-85.770416,34.231228]}},
{ "type": "Feature", "properties": {"name":"Sanford town","state":"Alabama","state_abbrev":"AL"},
"geometry":{ "type": "Point", "coordinates": [-86.398848,31.298819]}},
{ "type": "Feature", "properties": {"name":"Saraland city","state":"Alabama","state_abbrev":"AL"},
"geometry":{ "type": "Point", "coordinates": [-88.097202,30.85401]}},
{ "type": "Feature", "properties": {"name":"Sardis City town","state":"Alabama","state_abbrev":"AL"},
"geometry":{ "type": "Point", "coordinates": [-86.119104,34.172413]}},
{ "type": "Feature", "properties": {"name":"Satsuma city","state":"Alabama","state_abbrev":"AL"},
"geometry":{ "type": "Point", "coordinates": [-88.063383,30.857874]}},
{ "type": "Feature", "properties": {"name":"Scottsboro city","state":"Alabama","state_abbrev":"AL"},
"geometry":{ "type": "Point", "coordinates": [-86.048155,34.64462]}},
{ "type": "Feature", "properties": {"name":"Section town","state":"Alabama","state_abbrev":"AL"},
"geometry":{ "type": "Point", "coordinates": [-85.984942,34.581644]}},
{ "type": "Feature", "properties": {"name":"Selma city","state":"Alabama","state_abbrev":"AL"},
"geometry":{ "type": "Point", "coordinates": [-87.035702,32.416983]}},
{ "type": "Feature", "properties": {"name":"Selmont-West Selmont CDP","state":"Alabama","state_abbrev":"AL"},
"geometry":{ "type": "Point", "coordinates": [-87.006888,32.378253]}},
{ "type": "Feature", "properties": {"name":"Semmes city","state":"Alabama","state_abbrev":"AL"},
"geometry":{ "type": "Point", "coordinates": [-88.24759,30.796223]}},
{ "type": "Feature", "properties": {"name":"Sheffield city","state":"Alabama","state_abbrev":"AL"},
"geometry":{ "type": "Point", "coordinates": [-87.698183,34.757028]}},
{ "type": "Feature", "properties": {"name":"Shelby CDP","state":"Alabama","state_abbrev":"AL"},
"geometry":{ "type": "Point", "coordinates": [-86.585403,33.106882]}},
{ "type": "Feature", "properties": {"name":"Shiloh town","state":"Alabama","state_abbrev":"AL"},
"geometry":{ "type": "Point", "coordinates": [-85.877617,34.462666]}},
{ "type": "Feature", "properties": {"name":"Shoal Creek CDP","state":"Alabama","state_abbrev":"AL"},
"geometry":{ "type": "Point", "coordinates": [-86.610925,33.430763]}},
{ "type": "Feature", "properties": {"name":"Shorter town","state":"Alabama","state_abbrev":"AL"},
"geometry":{ "type": "Point", "coordinates": [-85.972808,32.411501]}},
{ "type": "Feature", "properties": {"name":"Silas town","state":"Alabama","state_abbrev":"AL"},
"geometry":{ "type": "Point", "coordinates": [-88.325923,31.767802]}},
{ "type": "Feature", "properties": {"name":"Silverhill town","state":"Alabama","state_abbrev":"AL"},
"geometry":{ "type": "Point", "coordinates": [-87.750557,30.545359]}},
{ "type": "Feature", "properties": {"name":"Sims Chapel CDP","state":"Alabama","state_abbrev":"AL"},
"geometry":{ "type": "Point", "coordinates": [-88.142971,31.249255]}},
{ "type": "Feature", "properties": {"name":"Sipsey town","state":"Alabama","state_abbrev":"AL"},
"geometry":{ "type": "Point", "coordinates": [-87.082918,33.822119]}},
{ "type": "Feature", "properties": {"name":"Skyline town","state":"Alabama","state_abbrev":"AL"},
"geometry":{ "type": "Point", "coordinates": [-86.12243,34.798524]}},
{ "type": "Feature", "properties": {"name":"Slocomb city","state":"Alabama","state_abbrev":"AL"},
"geometry":{ "type": "Point", "coordinates": [-85.59866,31.112126]}},
{ "type": "Feature", "properties": {"name":"Smiths Station city","state":"Alabama","state_abbrev":"AL"},
"geometry":{ "type": "Point", "coordinates": [-85.099425,32.522852]}},
{ "type": "Feature", "properties": {"name":"Smoke Rise CDP","state":"Alabama","state_abbrev":"AL"},
"geometry":{ "type": "Point", "coordinates": [-86.824683,33.879942]}},
{ "type": "Feature", "properties": {"name":"Snead town","state":"Alabama","state_abbrev":"AL"},
"geometry":{ "type": "Point", "coordinates": [-86.390916,34.116228]}},
{ "type": "Feature", "properties": {"name":"Somerville town","state":"Alabama","state_abbrev":"AL"},
"geometry":{ "type": "Point", "coordinates": [-86.791203,34.467053]}},
{ "type": "Feature", "properties": {"name":"Southside city","state":"Alabama","state_abbrev":"AL"},
"geometry":{ "type": "Point", "coordinates": [-86.01802,33.890841]}},
{ "type": "Feature", "properties": {"name":"South Vinemont town","state":"Alabama","state_abbrev":"AL"},
"geometry":{ "type": "Point", "coordinates": [-86.863965,34.235567]}},
{ "type": "Feature", "properties": {"name":"Spanish Fort city","state":"Alabama","state_abbrev":"AL"},
"geometry":{ "type": "Point", "coordinates": [-87.865917,30.722968]}},
{ "type": "Feature", "properties": {"name":"Spring Garden CDP","state":"Alabama","state_abbrev":"AL"},
"geometry":{ "type": "Point", "coordinates": [-85.555756,33.972965]}},
{ "type": "Feature", "properties": {"name":"Springville city","state":"Alabama","state_abbrev":"AL"},
"geometry":{ "type": "Point", "coordinates": [-86.484086,33.74052]}},
{ "type": "Feature", "properties": {"name":"Spruce Pine CDP","state":"Alabama","state_abbrev":"AL"},
"geometry":{ "type": "Point", "coordinates": [-87.729597,34.39287]}},
{ "type": "Feature", "properties": {"name":"Standing Rock CDP","state":"Alabama","state_abbrev":"AL"},
"geometry":{ "type": "Point", "coordinates": [-85.239849,33.08569]}},
{ "type": "Feature", "properties": {"name":"Stapleton CDP","state":"Alabama","state_abbrev":"AL"},
"geometry":{ "type": "Point", "coordinates": [-87.797727,30.735558]}},
{ "type": "Feature", "properties": {"name":"Steele town","state":"Alabama","state_abbrev":"AL"},
"geometry":{ "type": "Point", "coordinates": [-86.192107,33.941378]}},
{ "type": "Feature", "properties": {"name":"Sterrett CDP","state":"Alabama","state_abbrev":"AL"},
"geometry":{ "type": "Point", "coordinates": [-86.461045,33.442198]}},
{ "type": "Feature", "properties": {"name":"Stevenson city","state":"Alabama","state_abbrev":"AL"},
"geometry":{ "type": "Point", "coordinates": [-85.81435,34.876797]}},
{ "type": "Feature", "properties": {"name":"Stewartville CDP","state":"Alabama","state_abbrev":"AL"},
"geometry":{ "type": "Point", "coordinates": [-86.260693,33.075532]}},
{ "type": "Feature", "properties": {"name":"Stockton CDP","state":"Alabama","state_abbrev":"AL"},
"geometry":{ "type": "Point", "coordinates": [-87.873929,31.001245]}},
{ "type": "Feature", "properties": {"name":"Sulligent city","state":"Alabama","state_abbrev":"AL"},
"geometry":{ "type": "Point", "coordinates": [-88.126633,33.891189]}},
{ "type": "Feature", "properties": {"name":"Sumiton city","state":"Alabama","state_abbrev":"AL"},
"geometry":{ "type": "Point", "coordinates": [-87.046903,33.749269]}},
{ "type": "Feature", "properties": {"name":"Summerdale town","state":"Alabama","state_abbrev":"AL"},
"geometry":{ "type": "Point", "coordinates": [-87.687561,30.476741]}},
{ "type": "Feature", "properties": {"name":"Susan Moore town","state":"Alabama","state_abbrev":"AL"},
"geometry":{ "type": "Point", "coordinates": [-86.434156,34.091999]}},
{ "type": "Feature", "properties": {"name":"Sweet Water town","state":"Alabama","state_abbrev":"AL"},
"geometry":{ "type": "Point", "coordinates": [-87.861889,32.104614]}},
{ "type": "Feature", "properties": {"name":"Sylacauga city","state":"Alabama","state_abbrev":"AL"},
"geometry":{ "type": "Point", "coordinates": [-86.274799,33.18867]}},
{ "type": "Feature", "properties": {"name":"Sylvania town","state":"Alabama","state_abbrev":"AL"},
"geometry":{ "type": "Point", "coordinates": [-85.804722,34.562039]}},
{ "type": "Feature", "properties": {"name":"Sylvan Springs town","state":"Alabama","state_abbrev":"AL"},
"geometry":{ "type": "Point", "coordinates": [-87.031197,33.53023]}},
{ "type": "Feature", "properties": {"name":"Talladega city","state":"Alabama","state_abbrev":"AL"},
"geometry":{ "type": "Point", "coordinates": [-86.099454,33.431757]}},
{ "type": "Feature", "properties": {"name":"Talladega Springs town","state":"Alabama","state_abbrev":"AL"},
"geometry":{ "type": "Point", "coordinates": [-86.437761,33.120452]}},
{ "type": "Feature", "properties": {"name":"Tallassee city","state":"Alabama","state_abbrev":"AL"},
"geometry":{ "type": "Point", "coordinates": [-85.891993,32.532665]}},
{ "type": "Feature", "properties": {"name":"Tarrant city","state":"Alabama","state_abbrev":"AL"},
"geometry":{ "type": "Point", "coordinates": [-86.766253,33.592897]}},
{ "type": "Feature", "properties": {"name":"Taylor town","state":"Alabama","state_abbrev":"AL"},
"geometry":{ "type": "Point", "coordinates": [-85.47579,31.168811]}},
{ "type": "Feature", "properties": {"name":"Theodore CDP","state":"Alabama","state_abbrev":"AL"},
"geometry":{ "type": "Point", "coordinates": [-88.187573,30.538686]}},
{ "type": "Feature", "properties": {"name":"Thomaston town","state":"Alabama","state_abbrev":"AL"},
"geometry":{ "type": "Point", "coordinates": [-87.623706,32.268277]}},
{ "type": "Feature", "properties": {"name":"Thomasville city","state":"Alabama","state_abbrev":"AL"},
"geometry":{ "type": "Point", "coordinates": [-87.743024,31.910455]}},
{ "type": "Feature", "properties": {"name":"Thorsby town","state":"Alabama","state_abbrev":"AL"},
"geometry":{ "type": "Point", "coordinates": [-86.720335,32.916909]}},
{ "type": "Feature", "properties": {"name":"Tibbie CDP","state":"Alabama","state_abbrev":"AL"},
"geometry":{ "type": "Point", "coordinates": [-88.243862,31.37049]}},
{ "type": "Feature", "properties": {"name":"Tidmore Bend CDP","state":"Alabama","state_abbrev":"AL"},
"geometry":{ "type": "Point", "coordinates": [-85.926387,34.033184]}},
{ "type": "Feature", "properties": {"name":"Tillmans Corner CDP","state":"Alabama","state_abbrev":"AL"},
"geometry":{ "type": "Point", "coordinates": [-88.21278,30.581533]}},
{ "type": "Feature", "properties": {"name":"Town Creek town","state":"Alabama","state_abbrev":"AL"},
"geometry":{ "type": "Point", "coordinates": [-87.407763,34.671301]}},
{ "type": "Feature", "properties": {"name":"Toxey town","state":"Alabama","state_abbrev":"AL"},
"geometry":{ "type": "Point", "coordinates": [-88.309146,31.910712]}},
{ "type": "Feature", "properties": {"name":"Trafford town","state":"Alabama","state_abbrev":"AL"},
"geometry":{ "type": "Point", "coordinates": [-86.746502,33.818713]}},
{ "type": "Feature", "properties": {"name":"Triana town","state":"Alabama","state_abbrev":"AL"},
"geometry":{ "type": "Point", "coordinates": [-86.748488,34.587779]}},
{ "type": "Feature", "properties": {"name":"Trinity town","state":"Alabama","state_abbrev":"AL"},
"geometry":{ "type": "Point", "coordinates": [-87.081354,34.597445]}},
{ "type": "Feature", "properties": {"name":"Troy city","state":"Alabama","state_abbrev":"AL"},
"geometry":{ "type": "Point", "coordinates": [-85.96713,31.80196]}},
{ "type": "Feature", "properties": {"name":"Trussville city","state":"Alabama","state_abbrev":"AL"},
"geometry":{ "type": "Point", "coordinates": [-86.563239,33.655233]}},
{ "type": "Feature", "properties": {"name":"Tuscaloosa city","state":"Alabama","state_abbrev":"AL"},
"geometry":{ "type": "Point", "coordinates": [-87.5283,33.234404]}},
{ "type": "Feature", "properties": {"name":"Tuscumbia city","state":"Alabama","state_abbrev":"AL"},
"geometry":{ "type": "Point", "coordinates": [-87.702586,34.718502]}},
{ "type": "Feature", "properties": {"name":"Tuskegee city","state":"Alabama","state_abbrev":"AL"},
"geometry":{ "type": "Point", "coordinates": [-85.682509,32.418723]}},
{ "type": "Feature", "properties": {"name":"Twin town","state":"Alabama","state_abbrev":"AL"},
"geometry":{ "type": "Point", "coordinates": [-87.852295,33.992314]}},
{ "type": "Feature", "properties": {"name":"Underwood-Petersville CDP","state":"Alabama","state_abbrev":"AL"},
"geometry":{ "type": "Point", "coordinates": [-87.698157,34.876112]}},
{ "type": "Feature", "properties": {"name":"Union town","state":"Alabama","state_abbrev":"AL"},
"geometry":{ "type": "Point", "coordinates": [-87.907179,32.99381]}},
{ "type": "Feature", "properties": {"name":"Union Grove town","state":"Alabama","state_abbrev":"AL"},
"geometry":{ "type": "Point", "coordinates": [-86.451667,34.406172]}},
{ "type": "Feature", "properties": {"name":"Union Springs city","state":"Alabama","state_abbrev":"AL"},
"geometry":{ "type": "Point", "coordinates": [-85.714623,32.139506]}},
{ "type": "Feature", "properties": {"name":"Uniontown town","state":"Alabama","state_abbrev":"AL"},
"geometry":{ "type": "Point", "coordinates": [-87.487271,32.44662]}},
{ "type": "Feature", "properties": {"name":"Uriah CDP","state":"Alabama","state_abbrev":"AL"},
"geometry":{ "type": "Point", "coordinates": [-87.499213,31.307365]}},
{ "type": "Feature", "properties": {"name":"Valley city","state":"Alabama","state_abbrev":"AL"},
"geometry":{ "type": "Point", "coordinates": [-85.204438,32.801427]}},
{ "type": "Feature", "properties": {"name":"Valley Grande city","state":"Alabama","state_abbrev":"AL"},
"geometry":{ "type": "Point", "coordinates": [-87.032773,32.486872]}},
{ "type": "Feature", "properties": {"name":"Valley Head town","state":"Alabama","state_abbrev":"AL"},
"geometry":{ "type": "Point", "coordinates": [-85.623044,34.556204]}},
{ "type": "Feature", "properties": {"name":"Vance town","state":"Alabama","state_abbrev":"AL"},
"geometry":{ "type": "Point", "coordinates": [-87.226627,33.173992]}},
{ "type": "Feature", "properties": {"name":"Vandiver CDP","state":"Alabama","state_abbrev":"AL"},
"geometry":{ "type": "Point", "coordinates": [-86.529222,33.458856]}},
{ "type": "Feature", "properties": {"name":"Vernon city","state":"Alabama","state_abbrev":"AL"},
"geometry":{ "type": "Point", "coordinates": [-88.114291,33.758816]}},
{ "type": "Feature", "properties": {"name":"Vestavia Hills city","state":"Alabama","state_abbrev":"AL"},
"geometry":{ "type": "Point", "coordinates": [-86.739508,33.462496]}},
{ "type": "Feature", "properties": {"name":"Vina town","state":"Alabama","state_abbrev":"AL"},
"geometry":{ "type": "Point", "coordinates": [-88.060572,34.376175]}},
{ "type": "Feature", "properties": {"name":"Vincent town","state":"Alabama","state_abbrev":"AL"},
"geometry":{ "type": "Point", "coordinates": [-86.402544,33.383145]}},
{ "type": "Feature", "properties": {"name":"Vinegar Bend CDP","state":"Alabama","state_abbrev":"AL"},
"geometry":{ "type": "Point", "coordinates": [-88.367264,31.259093]}},
{ "type": "Feature", "properties": {"name":"Vredenburgh town","state":"Alabama","state_abbrev":"AL"},
"geometry":{ "type": "Point", "coordinates": [-87.318077,31.823234]}},
{ "type": "Feature", "properties": {"name":"Wadley town","state":"Alabama","state_abbrev":"AL"},
"geometry":{ "type": "Point", "coordinates": [-85.568592,33.1234]}},
{ "type": "Feature", "properties": {"name":"Waldo town","state":"Alabama","state_abbrev":"AL"},
"geometry":{ "type": "Point", "coordinates": [-86.041075,33.387083]}},
{ "type": "Feature", "properties": {"name":"Walnut Grove town","state":"Alabama","state_abbrev":"AL"},
"geometry":{ "type": "Point", "coordinates": [-86.28717,34.064595]}},
{ "type": "Feature", "properties": {"name":"Warrior city","state":"Alabama","state_abbrev":"AL"},
"geometry":{ "type": "Point", "coordinates": [-86.81565,33.814858]}},
{ "type": "Feature", "properties": {"name":"Waterloo town","state":"Alabama","state_abbrev":"AL"},
"geometry":{ "type": "Point", "coordinates": [-88.064373,34.917199]}},
{ "type": "Feature", "properties": {"name":"Waverly town","state":"Alabama","state_abbrev":"AL"},
"geometry":{ "type": "Point", "coordinates": [-85.570999,32.730078]}},
{ "type": "Feature", "properties": {"name":"Weaver city","state":"Alabama","state_abbrev":"AL"},
"geometry":{ "type": "Point", "coordinates": [-85.809363,33.75907]}},
{ "type": "Feature", "properties": {"name":"Webb town","state":"Alabama","state_abbrev":"AL"},
"geometry":{ "type": "Point", "coordinates": [-85.289622,31.257237]}},
{ "type": "Feature", "properties": {"name":"Wedowee town","state":"Alabama","state_abbrev":"AL"},
"geometry":{ "type": "Point", "coordinates": [-85.4865,33.308004]}},
{ "type": "Feature", "properties": {"name":"Weogufka CDP","state":"Alabama","state_abbrev":"AL"},
"geometry":{ "type": "Point", "coordinates": [-86.309146,33.021724]}},
{ "type": "Feature", "properties": {"name":"West Blocton town","state":"Alabama","state_abbrev":"AL"},
"geometry":{ "type": "Point", "coordinates": [-87.125225,33.118176]}},
{ "type": "Feature", "properties": {"name":"West End-Cobb Town CDP","state":"Alabama","state_abbrev":"AL"},
"geometry":{ "type": "Point", "coordinates": [-85.876553,33.651481]}},
{ "type": "Feature", "properties": {"name":"West Jefferson town","state":"Alabama","state_abbrev":"AL"},
"geometry":{ "type": "Point", "coordinates": [-87.040582,33.673375]}},
{ "type": "Feature", "properties": {"name":"Westover town","state":"Alabama","state_abbrev":"AL"},
"geometry":{ "type": "Point", "coordinates": [-86.533986,33.36734]}},
{ "type": "Feature", "properties": {"name":"West Point town","state":"Alabama","state_abbrev":"AL"},
"geometry":{ "type": "Point", "coordinates": [-86.964017,34.238735]}},
{ "type": "Feature", "properties": {"name":"Wetumpka city","state":"Alabama","state_abbrev":"AL"},
"geometry":{ "type": "Point", "coordinates": [-86.206999,32.540376]}},
{ "type": "Feature", "properties": {"name":"Whatley CDP","state":"Alabama","state_abbrev":"AL"},
"geometry":{ "type": "Point", "coordinates": [-87.710836,31.646343]}},
{ "type": "Feature", "properties": {"name":"White Hall town","state":"Alabama","state_abbrev":"AL"},
"geometry":{ "type": "Point", "coordinates": [-86.715776,32.297411]}},
{ "type": "Feature", "properties": {"name":"White Plains CDP","state":"Alabama","state_abbrev":"AL"},
"geometry":{ "type": "Point", "coordinates": [-85.68847,33.759312]}},
{ "type": "Feature", "properties": {"name":"Whitesboro CDP","state":"Alabama","state_abbrev":"AL"},
"geometry":{ "type": "Point", "coordinates": [-86.058499,34.169004]}},
{ "type": "Feature", "properties": {"name":"Wilsonville town","state":"Alabama","state_abbrev":"AL"},
"geometry":{ "type": "Point", "coordinates": [-86.491105,33.240752]}},
{ "type": "Feature", "properties": {"name":"Wilton town","state":"Alabama","state_abbrev":"AL"},
"geometry":{ "type": "Point", "coordinates": [-86.879655,33.081565]}},
{ "type": "Feature", "properties": {"name":"Winfield city","state":"Alabama","state_abbrev":"AL"},
"geometry":{ "type": "Point", "coordinates": [-87.79131,33.934717]}},
{ "type": "Feature", "properties": {"name":"Woodland town","state":"Alabama","state_abbrev":"AL"},
"geometry":{ "type": "Point", "coordinates": [-85.397439,33.375627]}},
{ "type": "Feature", "properties": {"name":"Woodstock town","state":"Alabama","state_abbrev":"AL"},
"geometry":{ "type": "Point", "coordinates": [-87.148433,33.217498]}},
{ "type": "Feature", "properties": {"name":"Woodville town","state":"Alabama","state_abbrev":"AL"},
"geometry":{ "type": "Point", "coordinates": [-86.283558,34.629535]}},
{ "type": "Feature", "properties": {"name":"Yellow Bluff town","state":"Alabama","state_abbrev":"AL"},
"geometry":{ "type": "Point", "coordinates": [-87.477359,31.962341]}},
{ "type": "Feature", "properties": {"name":"York city","state":"Alabama","state_abbrev":"AL"},
"geometry":{ "type": "Point", "coordinates": [-88.291394,32.500586]}}]}
