{"type":"FeatureCollection","features":[
{ "type": "Feature", "properties": {"Name":"Adak city","State":"Alaska","State_Abbrev":"AK"},
"geometry":{ "type": "Point", "coordinates": [-176.598067,51.909889]}},
{ "type": "Feature", "properties": {"Name":"Akhiok city","State":"Alaska","State_Abbrev":"AK"},
"geometry":{ "type": "Point", "coordinates": [-154.215306,56.948329]}},
{ "type": "Feature", "properties": {"Name":"Akiachak CDP","State":"Alaska","State_Abbrev":"AK"},
"geometry":{ "type": "Point", "coordinates": [-161.402087,60.920984]}},
{ "type": "Feature", "properties": {"Name":"Akiak city","State":"Alaska","State_Abbrev":"AK"},
"geometry":{ "type": "Point", "coordinates": [-161.216002,60.909445]}},
{ "type": "Feature", "properties": {"Name":"Akutan city","State":"Alaska","State_Abbrev":"AK"},
"geometry":{ "type": "Point", "coordinates": [-165.763026,54.139979]}},
{ "type": "Feature", "properties": {"Name":"Alakanuk city","State":"Alaska","State_Abbrev":"AK"},
"geometry":{ "type": "Point", "coordinates": [-164.649719,62.710997]}},
{ "type": "Feature", "properties": {"Name":"Alatna CDP","State":"Alaska","State_Abbrev":"AK"},
"geometry":{ "type": "Point", "coordinates": [-152.838498,66.563794]}},
{ "type": "Feature", "properties": {"Name":"Alcan Border CDP","State":"Alaska","State_Abbrev":"AK"},
"geometry":{ "type": "Point", "coordinates": [-141.193584,62.703078]}},
{ "type": "Feature", "properties": {"Name":"Aleknagik city","State":"Alaska","State_Abbrev":"AK"},
"geometry":{ "type": "Point", "coordinates": [-158.664343,59.288961]}},
{ "type": "Feature", "properties": {"Name":"Aleneva CDP","State":"Alaska","State_Abbrev":"AK"},
"geometry":{ "type": "Point", "coordinates": [-152.909015,58.059052]}},
{ "type": "Feature", "properties": {"Name":"Allakaket city","State":"Alaska","State_Abbrev":"AK"},
"geometry":{ "type": "Point", "coordinates": [-152.583016,66.542002]}},
{ "type": "Feature", "properties": {"Name":"Ambler city","State":"Alaska","State_Abbrev":"AK"},
"geometry":{ "type": "Point", "coordinates": [-157.887097,67.090944]}},
{ "type": "Feature", "properties": {"Name":"Anaktuvuk Pass city","State":"Alaska","State_Abbrev":"AK"},
"geometry":{ "type": "Point", "coordinates": [-151.697066,68.149752]}},
{ "type": "Feature", "properties": {"Name":"Anchorage municipality","State":"Alaska","State_Abbrev":"AK"},
"geometry":{ "type": "Point", "coordinates": [-149.284329,61.17425]}},
{ "type": "Feature", "properties": {"Name":"Anchor Point CDP","State":"Alaska","State_Abbrev":"AK"},
"geometry":{ "type": "Point", "coordinates": [-151.695697,59.747364]}},
{ "type": "Feature", "properties": {"Name":"Anderson city","State":"Alaska","State_Abbrev":"AK"},
"geometry":{ "type": "Point", "coordinates": [-149.163187,64.308281]}},
{ "type": "Feature", "properties": {"Name":"Angoon city","State":"Alaska","State_Abbrev":"AK"},
"geometry":{ "type": "Point", "coordinates": [-134.478357,57.441257]}},
{ "type": "Feature", "properties": {"Name":"Aniak city","State":"Alaska","State_Abbrev":"AK"},
"geometry":{ "type": "Point", "coordinates": [-159.547427,61.578825]}},
{ "type": "Feature", "properties": {"Name":"Anvik city","State":"Alaska","State_Abbrev":"AK"},
"geometry":{ "type": "Point", "coordinates": [-160.215106,62.631627]}},
{ "type": "Feature", "properties": {"Name":"Arctic Village CDP","State":"Alaska","State_Abbrev":"AK"},
"geometry":{ "type": "Point", "coordinates": [-145.401362,68.165374]}},
{ "type": "Feature", "properties": {"Name":"Atka city","State":"Alaska","State_Abbrev":"AK"},
"geometry":{ "type": "Point", "coordinates": [-174.213452,52.211546]}},
{ "type": "Feature", "properties": {"Name":"Atmautluak CDP","State":"Alaska","State_Abbrev":"AK"},
"geometry":{ "type": "Point", "coordinates": [-162.280302,60.862755]}},
{ "type": "Feature", "properties": {"Name":"Atqasuk city","State":"Alaska","State_Abbrev":"AK"},
"geometry":{ "type": "Point", "coordinates": [-157.325459,70.480786]}},
{ "type": "Feature", "properties": {"Name":"Attu Station CDP","State":"Alaska","State_Abbrev":"AK"},
"geometry":{ "type": "Point", "coordinates": [+173.256076,52.880248]}},
{ "type": "Feature", "properties": {"Name":"Badger CDP","State":"Alaska","State_Abbrev":"AK"},
"geometry":{ "type": "Point", "coordinates": [-147.385129,64.800081]}},
{ "type": "Feature", "properties": {"Name":"Bear Creek CDP","State":"Alaska","State_Abbrev":"AK"},
"geometry":{ "type": "Point", "coordinates": [-149.369779,60.20806]}},
{ "type": "Feature", "properties": {"Name":"Beaver CDP","State":"Alaska","State_Abbrev":"AK"},
"geometry":{ "type": "Point", "coordinates": [-147.287756,66.384745]}},
{ "type": "Feature", "properties": {"Name":"Beluga CDP","State":"Alaska","State_Abbrev":"AK"},
"geometry":{ "type": "Point", "coordinates": [-151.184237,61.190862]}},
{ "type": "Feature", "properties": {"Name":"Bethel city","State":"Alaska","State_Abbrev":"AK"},
"geometry":{ "type": "Point", "coordinates": [-161.796322,60.793905]}},
{ "type": "Feature", "properties": {"Name":"Bettles city","State":"Alaska","State_Abbrev":"AK"},
"geometry":{ "type": "Point", "coordinates": [-151.537994,66.906901]}},
{ "type": "Feature", "properties": {"Name":"Big Delta CDP","State":"Alaska","State_Abbrev":"AK"},
"geometry":{ "type": "Point", "coordinates": [-145.740874,64.157047]}},
{ "type": "Feature", "properties": {"Name":"Big Lake CDP","State":"Alaska","State_Abbrev":"AK"},
"geometry":{ "type": "Point", "coordinates": [-149.97553,61.515547]}},
{ "type": "Feature", "properties": {"Name":"Birch Creek CDP","State":"Alaska","State_Abbrev":"AK"},
"geometry":{ "type": "Point", "coordinates": [-145.876583,66.268327]}},
{ "type": "Feature", "properties": {"Name":"Brevig Mission city","State":"Alaska","State_Abbrev":"AK"},
"geometry":{ "type": "Point", "coordinates": [-166.508946,65.343196]}},
{ "type": "Feature", "properties": {"Name":"Buckland city","State":"Alaska","State_Abbrev":"AK"},
"geometry":{ "type": "Point", "coordinates": [-161.139436,65.976489]}},
{ "type": "Feature", "properties": {"Name":"Buffalo Soapstone CDP","State":"Alaska","State_Abbrev":"AK"},
"geometry":{ "type": "Point", "coordinates": [-149.121172,61.684439]}},
{ "type": "Feature", "properties": {"Name":"Butte CDP","State":"Alaska","State_Abbrev":"AK"},
"geometry":{ "type": "Point", "coordinates": [-148.988168,61.534033]}},
{ "type": "Feature", "properties": {"Name":"Cantwell CDP","State":"Alaska","State_Abbrev":"AK"},
"geometry":{ "type": "Point", "coordinates": [-148.749621,63.411396]}},
{ "type": "Feature", "properties": {"Name":"Central CDP","State":"Alaska","State_Abbrev":"AK"},
"geometry":{ "type": "Point", "coordinates": [-144.620508,65.509073]}},
{ "type": "Feature", "properties": {"Name":"Chalkyitsik CDP","State":"Alaska","State_Abbrev":"AK"},
"geometry":{ "type": "Point", "coordinates": [-143.789298,66.646753]}},
{ "type": "Feature", "properties": {"Name":"Chase CDP","State":"Alaska","State_Abbrev":"AK"},
"geometry":{ "type": "Point", "coordinates": [-149.936172,62.418236]}},
{ "type": "Feature", "properties": {"Name":"Chefornak city","State":"Alaska","State_Abbrev":"AK"},
"geometry":{ "type": "Point", "coordinates": [-164.251542,60.151845]}},
{ "type": "Feature", "properties": {"Name":"Chena Ridge CDP","State":"Alaska","State_Abbrev":"AK"},
"geometry":{ "type": "Point", "coordinates": [-148.032883,64.794305]}},
{ "type": "Feature", "properties": {"Name":"Chenega CDP","State":"Alaska","State_Abbrev":"AK"},
"geometry":{ "type": "Point", "coordinates": [-147.99458,60.092096]}},
{ "type": "Feature", "properties": {"Name":"Chevak city","State":"Alaska","State_Abbrev":"AK"},
"geometry":{ "type": "Point", "coordinates": [-165.594126,61.52956]}},
{ "type": "Feature", "properties": {"Name":"Chickaloon CDP","State":"Alaska","State_Abbrev":"AK"},
"geometry":{ "type": "Point", "coordinates": [-148.291957,61.815283]}},
{ "type": "Feature", "properties": {"Name":"Chicken CDP","State":"Alaska","State_Abbrev":"AK"},
"geometry":{ "type": "Point", "coordinates": [-141.828278,64.087691]}},
{ "type": "Feature", "properties": {"Name":"Chignik city","State":"Alaska","State_Abbrev":"AK"},
"geometry":{ "type": "Point", "coordinates": [-158.391784,56.29518]}},
{ "type": "Feature", "properties": {"Name":"Chignik Lagoon CDP","State":"Alaska","State_Abbrev":"AK"},
"geometry":{ "type": "Point", "coordinates": [-158.500259,56.304267]}},
{ "type": "Feature", "properties": {"Name":"Chignik Lake CDP","State":"Alaska","State_Abbrev":"AK"},
"geometry":{ "type": "Point", "coordinates": [-158.793376,56.273221]}},
{ "type": "Feature", "properties": {"Name":"Chiniak CDP","State":"Alaska","State_Abbrev":"AK"},
"geometry":{ "type": "Point", "coordinates": [-152.279033,57.575497]}},
{ "type": "Feature", "properties": {"Name":"Chisana CDP","State":"Alaska","State_Abbrev":"AK"},
"geometry":{ "type": "Point", "coordinates": [-142.050549,62.110039]}},
{ "type": "Feature", "properties": {"Name":"Chistochina CDP","State":"Alaska","State_Abbrev":"AK"},
"geometry":{ "type": "Point", "coordinates": [-144.941045,62.596444]}},
{ "type": "Feature", "properties": {"Name":"Chitina CDP","State":"Alaska","State_Abbrev":"AK"},
"geometry":{ "type": "Point", "coordinates": [-144.175268,61.553038]}},
{ "type": "Feature", "properties": {"Name":"Chuathbaluk city","State":"Alaska","State_Abbrev":"AK"},
"geometry":{ "type": "Point", "coordinates": [-159.247015,61.573909]}},
{ "type": "Feature", "properties": {"Name":"Circle CDP","State":"Alaska","State_Abbrev":"AK"},
"geometry":{ "type": "Point", "coordinates": [-144.175331,65.838617]}},
{ "type": "Feature", "properties": {"Name":"Clam Gulch CDP","State":"Alaska","State_Abbrev":"AK"},
"geometry":{ "type": "Point", "coordinates": [-151.404203,60.208887]}},
{ "type": "Feature", "properties": {"Name":"Clark's Point city","State":"Alaska","State_Abbrev":"AK"},
"geometry":{ "type": "Point", "coordinates": [-158.527347,58.832992]}},
{ "type": "Feature", "properties": {"Name":"Coffman Cove city","State":"Alaska","State_Abbrev":"AK"},
"geometry":{ "type": "Point", "coordinates": [-132.841966,56.001661]}},
{ "type": "Feature", "properties": {"Name":"Cohoe CDP","State":"Alaska","State_Abbrev":"AK"},
"geometry":{ "type": "Point", "coordinates": [-151.298172,60.266971]}},
{ "type": "Feature", "properties": {"Name":"Cold Bay city","State":"Alaska","State_Abbrev":"AK"},
"geometry":{ "type": "Point", "coordinates": [-162.775686,55.215824]}},
{ "type": "Feature", "properties": {"Name":"Coldfoot CDP","State":"Alaska","State_Abbrev":"AK"},
"geometry":{ "type": "Point", "coordinates": [-150.108051,67.247451]}},
{ "type": "Feature", "properties": {"Name":"College CDP","State":"Alaska","State_Abbrev":"AK"},
"geometry":{ "type": "Point", "coordinates": [-147.819453,64.86729]}},
{ "type": "Feature", "properties": {"Name":"Cooper Landing CDP","State":"Alaska","State_Abbrev":"AK"},
"geometry":{ "type": "Point", "coordinates": [-149.843945,60.494579]}},
{ "type": "Feature", "properties": {"Name":"Copper Center CDP","State":"Alaska","State_Abbrev":"AK"},
"geometry":{ "type": "Point", "coordinates": [-145.363956,62.001096]}},
{ "type": "Feature", "properties": {"Name":"Cordova city","State":"Alaska","State_Abbrev":"AK"},
"geometry":{ "type": "Point", "coordinates": [-145.642065,60.530138]}},
{ "type": "Feature", "properties": {"Name":"Covenant Life CDP","State":"Alaska","State_Abbrev":"AK"},
"geometry":{ "type": "Point", "coordinates": [-136.123002,59.397505]}},
{ "type": "Feature", "properties": {"Name":"Craig city","State":"Alaska","State_Abbrev":"AK"},
"geometry":{ "type": "Point", "coordinates": [-133.111568,55.488746]}},
{ "type": "Feature", "properties": {"Name":"Crooked Creek CDP","State":"Alaska","State_Abbrev":"AK"},
"geometry":{ "type": "Point", "coordinates": [-158.08102,61.796698]}},
{ "type": "Feature", "properties": {"Name":"Crown Point CDP","State":"Alaska","State_Abbrev":"AK"},
"geometry":{ "type": "Point", "coordinates": [-149.35298,60.426679]}},
{ "type": "Feature", "properties": {"Name":"Deering city","State":"Alaska","State_Abbrev":"AK"},
"geometry":{ "type": "Point", "coordinates": [-162.764572,66.069488]}},
{ "type": "Feature", "properties": {"Name":"Delta Junction city","State":"Alaska","State_Abbrev":"AK"},
"geometry":{ "type": "Point", "coordinates": [-145.699997,64.057347]}},
{ "type": "Feature", "properties": {"Name":"Deltana CDP","State":"Alaska","State_Abbrev":"AK"},
"geometry":{ "type": "Point", "coordinates": [-145.351625,63.78934]}},
{ "type": "Feature", "properties": {"Name":"Denali Park CDP","State":"Alaska","State_Abbrev":"AK"},
"geometry":{ "type": "Point", "coordinates": [-148.673705,63.573017]}},
{ "type": "Feature", "properties": {"Name":"Diamond Ridge CDP","State":"Alaska","State_Abbrev":"AK"},
"geometry":{ "type": "Point", "coordinates": [-151.554623,59.702361]}},
{ "type": "Feature", "properties": {"Name":"Dillingham city","State":"Alaska","State_Abbrev":"AK"},
"geometry":{ "type": "Point", "coordinates": [-158.532251,59.060467]}},
{ "type": "Feature", "properties": {"Name":"Diomede city","State":"Alaska","State_Abbrev":"AK"},
"geometry":{ "type": "Point", "coordinates": [-168.922577,65.753924]}},
{ "type": "Feature", "properties": {"Name":"Dot Lake CDP","State":"Alaska","State_Abbrev":"AK"},
"geometry":{ "type": "Point", "coordinates": [-144.292361,63.587223]}},
{ "type": "Feature", "properties": {"Name":"Dot Lake Village CDP","State":"Alaska","State_Abbrev":"AK"},
"geometry":{ "type": "Point", "coordinates": [-144.016171,63.662593]}},
{ "type": "Feature", "properties": {"Name":"Dry Creek CDP","State":"Alaska","State_Abbrev":"AK"},
"geometry":{ "type": "Point", "coordinates": [-144.639194,63.626638]}},
{ "type": "Feature", "properties": {"Name":"Eagle city","State":"Alaska","State_Abbrev":"AK"},
"geometry":{ "type": "Point", "coordinates": [-141.197829,64.781256]}},
{ "type": "Feature", "properties": {"Name":"Eagle Village CDP","State":"Alaska","State_Abbrev":"AK"},
"geometry":{ "type": "Point", "coordinates": [-141.113834,64.743389]}},
{ "type": "Feature", "properties": {"Name":"Eareckson Station CDP","State":"Alaska","State_Abbrev":"AK"},
"geometry":{ "type": "Point", "coordinates": [+174.107149,52.72106]}},
{ "type": "Feature", "properties": {"Name":"Edna Bay city","State":"Alaska","State_Abbrev":"AK"},
"geometry":{ "type": "Point", "coordinates": [-133.692253,55.967618]}},
{ "type": "Feature", "properties": {"Name":"Eek city","State":"Alaska","State_Abbrev":"AK"},
"geometry":{ "type": "Point", "coordinates": [-162.041999,60.216265]}},
{ "type": "Feature", "properties": {"Name":"Egegik city","State":"Alaska","State_Abbrev":"AK"},
"geometry":{ "type": "Point", "coordinates": [-157.521978,58.205148]}},
{ "type": "Feature", "properties": {"Name":"Eielson AFB CDP","State":"Alaska","State_Abbrev":"AK"},
"geometry":{ "type": "Point", "coordinates": [-147.059464,64.6733]}},
{ "type": "Feature", "properties": {"Name":"Ekwok city","State":"Alaska","State_Abbrev":"AK"},
"geometry":{ "type": "Point", "coordinates": [-157.487023,59.345782]}},
{ "type": "Feature", "properties": {"Name":"Elfin Cove CDP","State":"Alaska","State_Abbrev":"AK"},
"geometry":{ "type": "Point", "coordinates": [-136.288309,58.087681]}},
{ "type": "Feature", "properties": {"Name":"Elim city","State":"Alaska","State_Abbrev":"AK"},
"geometry":{ "type": "Point", "coordinates": [-162.27656,64.618226]}},
{ "type": "Feature", "properties": {"Name":"Emmonak city","State":"Alaska","State_Abbrev":"AK"},
"geometry":{ "type": "Point", "coordinates": [-164.50929,62.77559]}},
{ "type": "Feature", "properties": {"Name":"Ester CDP","State":"Alaska","State_Abbrev":"AK"},
"geometry":{ "type": "Point", "coordinates": [-148.041153,64.879056]}},
{ "type": "Feature", "properties": {"Name":"Eureka Roadhouse CDP","State":"Alaska","State_Abbrev":"AK"},
"geometry":{ "type": "Point", "coordinates": [-147.155104,61.958507]}},
{ "type": "Feature", "properties": {"Name":"Evansville CDP","State":"Alaska","State_Abbrev":"AK"},
"geometry":{ "type": "Point", "coordinates": [-151.37006,66.932933]}},
{ "type": "Feature", "properties": {"Name":"Excursion Inlet CDP","State":"Alaska","State_Abbrev":"AK"},
"geometry":{ "type": "Point", "coordinates": [-135.345462,58.415144]}},
{ "type": "Feature", "properties": {"Name":"Fairbanks city","State":"Alaska","State_Abbrev":"AK"},
"geometry":{ "type": "Point", "coordinates": [-147.651745,64.836531]}},
{ "type": "Feature", "properties": {"Name":"False Pass city","State":"Alaska","State_Abbrev":"AK"},
"geometry":{ "type": "Point", "coordinates": [-163.334268,54.872441]}},
{ "type": "Feature", "properties": {"Name":"Farmers Loop CDP","State":"Alaska","State_Abbrev":"AK"},
"geometry":{ "type": "Point", "coordinates": [-147.698608,64.908228]}},
{ "type": "Feature", "properties": {"Name":"Farm Loop CDP","State":"Alaska","State_Abbrev":"AK"},
"geometry":{ "type": "Point", "coordinates": [-149.155223,61.635115]}},
{ "type": "Feature", "properties": {"Name":"Ferry CDP","State":"Alaska","State_Abbrev":"AK"},
"geometry":{ "type": "Point", "coordinates": [-148.920602,64.04962]}},
{ "type": "Feature", "properties": {"Name":"Fishhook CDP","State":"Alaska","State_Abbrev":"AK"},
"geometry":{ "type": "Point", "coordinates": [-149.283642,61.731248]}},
{ "type": "Feature", "properties": {"Name":"Flat CDP","State":"Alaska","State_Abbrev":"AK"},
"geometry":{ "type": "Point", "coordinates": [-158.040554,62.441366]}},
{ "type": "Feature", "properties": {"Name":"Fort Greely CDP","State":"Alaska","State_Abbrev":"AK"},
"geometry":{ "type": "Point", "coordinates": [-145.714886,63.967836]}},
{ "type": "Feature", "properties": {"Name":"Fort Yukon city","State":"Alaska","State_Abbrev":"AK"},
"geometry":{ "type": "Point", "coordinates": [-145.227642,66.588406]}},
{ "type": "Feature", "properties": {"Name":"Four Mile Road CDP","State":"Alaska","State_Abbrev":"AK"},
"geometry":{ "type": "Point", "coordinates": [-149.115192,64.604476]}},
{ "type": "Feature", "properties": {"Name":"Fox CDP","State":"Alaska","State_Abbrev":"AK"},
"geometry":{ "type": "Point", "coordinates": [-147.609007,64.974859]}},
{ "type": "Feature", "properties": {"Name":"Fox River CDP","State":"Alaska","State_Abbrev":"AK"},
"geometry":{ "type": "Point", "coordinates": [-151.012102,59.889921]}},
{ "type": "Feature", "properties": {"Name":"Fritz Creek CDP","State":"Alaska","State_Abbrev":"AK"},
"geometry":{ "type": "Point", "coordinates": [-151.288605,59.746867]}},
{ "type": "Feature", "properties": {"Name":"Funny River CDP","State":"Alaska","State_Abbrev":"AK"},
"geometry":{ "type": "Point", "coordinates": [-150.788736,60.484313]}},
{ "type": "Feature", "properties": {"Name":"Gakona CDP","State":"Alaska","State_Abbrev":"AK"},
"geometry":{ "type": "Point", "coordinates": [-145.305188,62.368038]}},
{ "type": "Feature", "properties": {"Name":"Galena city","State":"Alaska","State_Abbrev":"AK"},
"geometry":{ "type": "Point", "coordinates": [-156.873394,64.741422]}},
{ "type": "Feature", "properties": {"Name":"Gambell city","State":"Alaska","State_Abbrev":"AK"},
"geometry":{ "type": "Point", "coordinates": [-171.714835,63.775872]}},
{ "type": "Feature", "properties": {"Name":"Game Creek CDP","State":"Alaska","State_Abbrev":"AK"},
"geometry":{ "type": "Point", "coordinates": [-135.512547,58.050105]}},
{ "type": "Feature", "properties": {"Name":"Gateway CDP","State":"Alaska","State_Abbrev":"AK"},
"geometry":{ "type": "Point", "coordinates": [-149.222683,61.566857]}},
{ "type": "Feature", "properties": {"Name":"Glacier View CDP","State":"Alaska","State_Abbrev":"AK"},
"geometry":{ "type": "Point", "coordinates": [-147.772591,61.848035]}},
{ "type": "Feature", "properties": {"Name":"Glennallen CDP","State":"Alaska","State_Abbrev":"AK"},
"geometry":{ "type": "Point", "coordinates": [-145.844069,62.153867]}},
{ "type": "Feature", "properties": {"Name":"Goldstream CDP","State":"Alaska","State_Abbrev":"AK"},
"geometry":{ "type": "Point", "coordinates": [-148.02732,64.942151]}},
{ "type": "Feature", "properties": {"Name":"Golovin city","State":"Alaska","State_Abbrev":"AK"},
"geometry":{ "type": "Point", "coordinates": [-162.998943,64.563902]}},
{ "type": "Feature", "properties": {"Name":"Goodnews Bay city","State":"Alaska","State_Abbrev":"AK"},
"geometry":{ "type": "Point", "coordinates": [-161.575325,59.127165]}},
{ "type": "Feature", "properties": {"Name":"Grayling city","State":"Alaska","State_Abbrev":"AK"},
"geometry":{ "type": "Point", "coordinates": [-160.112989,62.896051]}},
{ "type": "Feature", "properties": {"Name":"Gulkana CDP","State":"Alaska","State_Abbrev":"AK"},
"geometry":{ "type": "Point", "coordinates": [-145.444965,62.215434]}},
{ "type": "Feature", "properties": {"Name":"Gustavus city","State":"Alaska","State_Abbrev":"AK"},
"geometry":{ "type": "Point", "coordinates": [-135.728152,58.434657]}},
{ "type": "Feature", "properties": {"Name":"Haines CDP","State":"Alaska","State_Abbrev":"AK"},
"geometry":{ "type": "Point", "coordinates": [-135.468816,59.249681]}},
{ "type": "Feature", "properties": {"Name":"Halibut Cove CDP","State":"Alaska","State_Abbrev":"AK"},
"geometry":{ "type": "Point", "coordinates": [-151.223764,59.569581]}},
{ "type": "Feature", "properties": {"Name":"Happy Valley CDP","State":"Alaska","State_Abbrev":"AK"},
"geometry":{ "type": "Point", "coordinates": [-151.528868,59.898514]}},
{ "type": "Feature", "properties": {"Name":"Harding-Birch Lakes CDP","State":"Alaska","State_Abbrev":"AK"},
"geometry":{ "type": "Point", "coordinates": [-146.530601,64.381305]}},
{ "type": "Feature", "properties": {"Name":"Healy CDP","State":"Alaska","State_Abbrev":"AK"},
"geometry":{ "type": "Point", "coordinates": [-148.970842,63.959632]}},
{ "type": "Feature", "properties": {"Name":"Healy Lake CDP","State":"Alaska","State_Abbrev":"AK"},
"geometry":{ "type": "Point", "coordinates": [-144.681574,64.009705]}},
{ "type": "Feature", "properties": {"Name":"Hobart Bay CDP","State":"Alaska","State_Abbrev":"AK"},
"geometry":{ "type": "Point", "coordinates": [-133.306569,57.417759]}},
{ "type": "Feature", "properties": {"Name":"Hollis CDP","State":"Alaska","State_Abbrev":"AK"},
"geometry":{ "type": "Point", "coordinates": [-132.701922,55.515474]}},
{ "type": "Feature", "properties": {"Name":"Holy Cross city","State":"Alaska","State_Abbrev":"AK"},
"geometry":{ "type": "Point", "coordinates": [-159.858776,62.185115]}},
{ "type": "Feature", "properties": {"Name":"Homer city","State":"Alaska","State_Abbrev":"AK"},
"geometry":{ "type": "Point", "coordinates": [-151.513095,59.647503]}},
{ "type": "Feature", "properties": {"Name":"Hoonah city","State":"Alaska","State_Abbrev":"AK"},
"geometry":{ "type": "Point", "coordinates": [-135.431474,58.12201]}},
{ "type": "Feature", "properties": {"Name":"Hooper Bay city","State":"Alaska","State_Abbrev":"AK"},
"geometry":{ "type": "Point", "coordinates": [-166.111471,61.509167]}},
{ "type": "Feature", "properties": {"Name":"Hope CDP","State":"Alaska","State_Abbrev":"AK"},
"geometry":{ "type": "Point", "coordinates": [-149.632991,60.886124]}},
{ "type": "Feature", "properties": {"Name":"Houston city","State":"Alaska","State_Abbrev":"AK"},
"geometry":{ "type": "Point", "coordinates": [-149.80061,61.615303]}},
{ "type": "Feature", "properties": {"Name":"Hughes city","State":"Alaska","State_Abbrev":"AK"},
"geometry":{ "type": "Point", "coordinates": [-154.237627,66.045217]}},
{ "type": "Feature", "properties": {"Name":"Huslia city","State":"Alaska","State_Abbrev":"AK"},
"geometry":{ "type": "Point", "coordinates": [-156.310953,65.705524]}},
{ "type": "Feature", "properties": {"Name":"Hydaburg city","State":"Alaska","State_Abbrev":"AK"},
"geometry":{ "type": "Point", "coordinates": [-132.820438,55.205842]}},
{ "type": "Feature", "properties": {"Name":"Hyder CDP","State":"Alaska","State_Abbrev":"AK"},
"geometry":{ "type": "Point", "coordinates": [-130.038288,55.981542]}},
{ "type": "Feature", "properties": {"Name":"Igiugig CDP","State":"Alaska","State_Abbrev":"AK"},
"geometry":{ "type": "Point", "coordinates": [-155.863275,59.300989]}},
{ "type": "Feature", "properties": {"Name":"Iliamna CDP","State":"Alaska","State_Abbrev":"AK"},
"geometry":{ "type": "Point", "coordinates": [-154.883752,59.778342]}},
{ "type": "Feature", "properties": {"Name":"Ivanof Bay CDP","State":"Alaska","State_Abbrev":"AK"},
"geometry":{ "type": "Point", "coordinates": [-159.493298,55.918199]}},
{ "type": "Feature", "properties": {"Name":"Juneau city and borough","State":"Alaska","State_Abbrev":"AK"},
"geometry":{ "type": "Point", "coordinates": [-134.178445,58.37291]}},
{ "type": "Feature", "properties": {"Name":"Kachemak city","State":"Alaska","State_Abbrev":"AK"},
"geometry":{ "type": "Point", "coordinates": [-151.436347,59.674535]}},
{ "type": "Feature", "properties": {"Name":"Kake city","State":"Alaska","State_Abbrev":"AK"},
"geometry":{ "type": "Point", "coordinates": [-133.903663,56.97532]}},
{ "type": "Feature", "properties": {"Name":"Kaktovik city","State":"Alaska","State_Abbrev":"AK"},
"geometry":{ "type": "Point", "coordinates": [-143.629435,70.121452]}},
{ "type": "Feature", "properties": {"Name":"Kalifornsky CDP","State":"Alaska","State_Abbrev":"AK"},
"geometry":{ "type": "Point", "coordinates": [-151.220302,60.453399]}},
{ "type": "Feature", "properties": {"Name":"Kaltag city","State":"Alaska","State_Abbrev":"AK"},
"geometry":{ "type": "Point", "coordinates": [-158.778761,64.314143]}},
{ "type": "Feature", "properties": {"Name":"Karluk CDP","State":"Alaska","State_Abbrev":"AK"},
"geometry":{ "type": "Point", "coordinates": [-154.363413,57.590981]}},
{ "type": "Feature", "properties": {"Name":"Kasaan city","State":"Alaska","State_Abbrev":"AK"},
"geometry":{ "type": "Point", "coordinates": [-132.406834,55.561145]}},
{ "type": "Feature", "properties": {"Name":"Kasigluk CDP","State":"Alaska","State_Abbrev":"AK"},
"geometry":{ "type": "Point", "coordinates": [-162.536598,60.86382]}},
{ "type": "Feature", "properties": {"Name":"Kasilof CDP","State":"Alaska","State_Abbrev":"AK"},
"geometry":{ "type": "Point", "coordinates": [-151.232884,60.319336]}},
{ "type": "Feature", "properties": {"Name":"Kenai city","State":"Alaska","State_Abbrev":"AK"},
"geometry":{ "type": "Point", "coordinates": [-151.20806,60.56224]}},
{ "type": "Feature", "properties": {"Name":"Kenny Lake CDP","State":"Alaska","State_Abbrev":"AK"},
"geometry":{ "type": "Point", "coordinates": [-144.821315,61.621616]}},
{ "type": "Feature", "properties": {"Name":"Ketchikan city","State":"Alaska","State_Abbrev":"AK"},
"geometry":{ "type": "Point", "coordinates": [-131.674552,55.357145]}},
{ "type": "Feature", "properties": {"Name":"Kiana city","State":"Alaska","State_Abbrev":"AK"},
"geometry":{ "type": "Point", "coordinates": [-160.434364,66.972586]}},
{ "type": "Feature", "properties": {"Name":"King Cove city","State":"Alaska","State_Abbrev":"AK"},
"geometry":{ "type": "Point", "coordinates": [-162.316806,55.084993]}},
{ "type": "Feature", "properties": {"Name":"King Salmon CDP","State":"Alaska","State_Abbrev":"AK"},
"geometry":{ "type": "Point", "coordinates": [-156.528544,58.735227]}},
{ "type": "Feature", "properties": {"Name":"Kipnuk CDP","State":"Alaska","State_Abbrev":"AK"},
"geometry":{ "type": "Point", "coordinates": [-164.062221,59.937456]}},
{ "type": "Feature", "properties": {"Name":"Kivalina city","State":"Alaska","State_Abbrev":"AK"},
"geometry":{ "type": "Point", "coordinates": [-164.535573,67.726893]}},
{ "type": "Feature", "properties": {"Name":"Klawock city","State":"Alaska","State_Abbrev":"AK"},
"geometry":{ "type": "Point", "coordinates": [-133.08613,55.556425]}},
{ "type": "Feature", "properties": {"Name":"Klukwan CDP","State":"Alaska","State_Abbrev":"AK"},
"geometry":{ "type": "Point", "coordinates": [-135.88823,59.398295]}},
{ "type": "Feature", "properties": {"Name":"Knik-Fairview CDP","State":"Alaska","State_Abbrev":"AK"},
"geometry":{ "type": "Point", "coordinates": [-149.622601,61.507645]}},
{ "type": "Feature", "properties": {"Name":"Knik River CDP","State":"Alaska","State_Abbrev":"AK"},
"geometry":{ "type": "Point", "coordinates": [-149.007489,61.461903]}},
{ "type": "Feature", "properties": {"Name":"Kobuk city","State":"Alaska","State_Abbrev":"AK"},
"geometry":{ "type": "Point", "coordinates": [-156.904071,66.923402]}},
{ "type": "Feature", "properties": {"Name":"Kodiak city","State":"Alaska","State_Abbrev":"AK"},
"geometry":{ "type": "Point", "coordinates": [-152.419712,57.791192]}},
{ "type": "Feature", "properties": {"Name":"Kodiak Station CDP","State":"Alaska","State_Abbrev":"AK"},
"geometry":{ "type": "Point", "coordinates": [-152.595907,57.76795]}},
{ "type": "Feature", "properties": {"Name":"Kokhanok CDP","State":"Alaska","State_Abbrev":"AK"},
"geometry":{ "type": "Point", "coordinates": [-154.746007,59.412109]}},
{ "type": "Feature", "properties": {"Name":"Koliganek CDP","State":"Alaska","State_Abbrev":"AK"},
"geometry":{ "type": "Point", "coordinates": [-157.22476,59.696656]}},
{ "type": "Feature", "properties": {"Name":"Kongiganak CDP","State":"Alaska","State_Abbrev":"AK"},
"geometry":{ "type": "Point", "coordinates": [-162.847017,59.991638]}},
{ "type": "Feature", "properties": {"Name":"Kotlik city","State":"Alaska","State_Abbrev":"AK"},
"geometry":{ "type": "Point", "coordinates": [-163.536654,63.02919]}},
{ "type": "Feature", "properties": {"Name":"Kotzebue city","State":"Alaska","State_Abbrev":"AK"},
"geometry":{ "type": "Point", "coordinates": [-162.503478,66.877089]}},
{ "type": "Feature", "properties": {"Name":"Koyuk city","State":"Alaska","State_Abbrev":"AK"},
"geometry":{ "type": "Point", "coordinates": [-161.145458,64.941084]}},
{ "type": "Feature", "properties": {"Name":"Koyukuk city","State":"Alaska","State_Abbrev":"AK"},
"geometry":{ "type": "Point", "coordinates": [-157.693531,64.902073]}},
{ "type": "Feature", "properties": {"Name":"Kupreanof city","State":"Alaska","State_Abbrev":"AK"},
"geometry":{ "type": "Point", "coordinates": [-132.972152,56.821295]}},
{ "type": "Feature", "properties": {"Name":"Kwethluk city","State":"Alaska","State_Abbrev":"AK"},
"geometry":{ "type": "Point", "coordinates": [-161.430844,60.793231]}},
{ "type": "Feature", "properties": {"Name":"Kwigillingok CDP","State":"Alaska","State_Abbrev":"AK"},
"geometry":{ "type": "Point", "coordinates": [-163.177317,59.877575]}},
{ "type": "Feature", "properties": {"Name":"Lake Louise CDP","State":"Alaska","State_Abbrev":"AK"},
"geometry":{ "type": "Point", "coordinates": [-146.540163,62.30162]}},
{ "type": "Feature", "properties": {"Name":"Lake Minchumina CDP","State":"Alaska","State_Abbrev":"AK"},
"geometry":{ "type": "Point", "coordinates": [-152.461794,63.790253]}},
{ "type": "Feature", "properties": {"Name":"Larsen Bay city","State":"Alaska","State_Abbrev":"AK"},
"geometry":{ "type": "Point", "coordinates": [-154.001155,57.529893]}},
{ "type": "Feature", "properties": {"Name":"Lazy Mountain CDP","State":"Alaska","State_Abbrev":"AK"},
"geometry":{ "type": "Point", "coordinates": [-148.925582,61.658227]}},
{ "type": "Feature", "properties": {"Name":"Levelock CDP","State":"Alaska","State_Abbrev":"AK"},
"geometry":{ "type": "Point", "coordinates": [-156.901021,59.068246]}},
{ "type": "Feature", "properties": {"Name":"Lime Village CDP","State":"Alaska","State_Abbrev":"AK"},
"geometry":{ "type": "Point", "coordinates": [-155.233631,61.33004]}},
{ "type": "Feature", "properties": {"Name":"Livengood CDP","State":"Alaska","State_Abbrev":"AK"},
"geometry":{ "type": "Point", "coordinates": [-148.422784,65.476506]}},
{ "type": "Feature", "properties": {"Name":"Loring CDP","State":"Alaska","State_Abbrev":"AK"},
"geometry":{ "type": "Point", "coordinates": [-131.639976,55.606676]}},
{ "type": "Feature", "properties": {"Name":"Lowell Point CDP","State":"Alaska","State_Abbrev":"AK"},
"geometry":{ "type": "Point", "coordinates": [-149.493807,60.076063]}},
{ "type": "Feature", "properties": {"Name":"Lower Kalskag city","State":"Alaska","State_Abbrev":"AK"},
"geometry":{ "type": "Point", "coordinates": [-160.35465,61.517121]}},
{ "type": "Feature", "properties": {"Name":"Lutak CDP","State":"Alaska","State_Abbrev":"AK"},
"geometry":{ "type": "Point", "coordinates": [-135.589046,59.412212]}},
{ "type": "Feature", "properties": {"Name":"McCarthy CDP","State":"Alaska","State_Abbrev":"AK"},
"geometry":{ "type": "Point", "coordinates": [-142.864693,61.453957]}},
{ "type": "Feature", "properties": {"Name":"McGrath city","State":"Alaska","State_Abbrev":"AK"},
"geometry":{ "type": "Point", "coordinates": [-155.568422,62.938875]}},
{ "type": "Feature", "properties": {"Name":"Manley Hot Springs CDP","State":"Alaska","State_Abbrev":"AK"},
"geometry":{ "type": "Point", "coordinates": [-150.645281,65.018757]}},
{ "type": "Feature", "properties": {"Name":"Manokotak city","State":"Alaska","State_Abbrev":"AK"},
"geometry":{ "type": "Point", "coordinates": [-158.914501,58.739523]}},
{ "type": "Feature", "properties": {"Name":"Marshall city","State":"Alaska","State_Abbrev":"AK"},
"geometry":{ "type": "Point", "coordinates": [-162.06087,61.871555]}},
{ "type": "Feature", "properties": {"Name":"Meadow Lakes CDP","State":"Alaska","State_Abbrev":"AK"},
"geometry":{ "type": "Point", "coordinates": [-149.609611,61.637987]}},
{ "type": "Feature", "properties": {"Name":"Mekoryuk city","State":"Alaska","State_Abbrev":"AK"},
"geometry":{ "type": "Point", "coordinates": [-166.268173,60.370179]}},
{ "type": "Feature", "properties": {"Name":"Mendeltna CDP","State":"Alaska","State_Abbrev":"AK"},
"geometry":{ "type": "Point", "coordinates": [-146.758031,62.146098]}},
{ "type": "Feature", "properties": {"Name":"Mentasta Lake CDP","State":"Alaska","State_Abbrev":"AK"},
"geometry":{ "type": "Point", "coordinates": [-143.561486,63.011677]}},
{ "type": "Feature", "properties": {"Name":"Mertarvik CDP","State":"Alaska","State_Abbrev":"AK"},
"geometry":{ "type": "Point", "coordinates": [-164.49911,60.810993]}},
{ "type": "Feature", "properties": {"Name":"Metlakatla CDP","State":"Alaska","State_Abbrev":"AK"},
"geometry":{ "type": "Point", "coordinates": [-131.555726,55.114699]}},
{ "type": "Feature", "properties": {"Name":"Mill Bay CDP","State":"Alaska","State_Abbrev":"AK"},
"geometry":{ "type": "Point", "coordinates": [-152.367542,57.815501]}},
{ "type": "Feature", "properties": {"Name":"Minto CDP","State":"Alaska","State_Abbrev":"AK"},
"geometry":{ "type": "Point", "coordinates": [-149.59021,65.089635]}},
{ "type": "Feature", "properties": {"Name":"Moose Creek CDP","State":"Alaska","State_Abbrev":"AK"},
"geometry":{ "type": "Point", "coordinates": [-147.166627,64.716369]}},
{ "type": "Feature", "properties": {"Name":"Moose Pass CDP","State":"Alaska","State_Abbrev":"AK"},
"geometry":{ "type": "Point", "coordinates": [-149.468361,60.505936]}},
{ "type": "Feature", "properties": {"Name":"Mosquito Lake CDP","State":"Alaska","State_Abbrev":"AK"},
"geometry":{ "type": "Point", "coordinates": [-136.199101,59.4751]}},
{ "type": "Feature", "properties": {"Name":"Mountain Village city","State":"Alaska","State_Abbrev":"AK"},
"geometry":{ "type": "Point", "coordinates": [-163.695024,62.091963]}},
{ "type": "Feature", "properties": {"Name":"Mud Bay CDP","State":"Alaska","State_Abbrev":"AK"},
"geometry":{ "type": "Point", "coordinates": [-135.356493,59.151183]}},
{ "type": "Feature", "properties": {"Name":"Nabesna CDP","State":"Alaska","State_Abbrev":"AK"},
"geometry":{ "type": "Point", "coordinates": [-143.00743,62.496548]}},
{ "type": "Feature", "properties": {"Name":"Naknek CDP","State":"Alaska","State_Abbrev":"AK"},
"geometry":{ "type": "Point", "coordinates": [-156.885872,58.78516]}},
{ "type": "Feature", "properties": {"Name":"Nanwalek CDP","State":"Alaska","State_Abbrev":"AK"},
"geometry":{ "type": "Point", "coordinates": [-151.929558,59.333848]}},
{ "type": "Feature", "properties": {"Name":"Napakiak city","State":"Alaska","State_Abbrev":"AK"},
"geometry":{ "type": "Point", "coordinates": [-161.985573,60.690541]}},
{ "type": "Feature", "properties": {"Name":"Napaskiak city","State":"Alaska","State_Abbrev":"AK"},
"geometry":{ "type": "Point", "coordinates": [-161.753782,60.702782]}},
{ "type": "Feature", "properties": {"Name":"Naukati Bay CDP","State":"Alaska","State_Abbrev":"AK"},
"geometry":{ "type": "Point", "coordinates": [-133.195015,55.874121]}},
{ "type": "Feature", "properties": {"Name":"Nelchina CDP","State":"Alaska","State_Abbrev":"AK"},
"geometry":{ "type": "Point", "coordinates": [-146.829938,62.010403]}},
{ "type": "Feature", "properties": {"Name":"Nelson Lagoon CDP","State":"Alaska","State_Abbrev":"AK"},
"geometry":{ "type": "Point", "coordinates": [-161.635799,55.836649]}},
{ "type": "Feature", "properties": {"Name":"Nenana city","State":"Alaska","State_Abbrev":"AK"},
"geometry":{ "type": "Point", "coordinates": [-149.083629,64.536054]}},
{ "type": "Feature", "properties": {"Name":"Newhalen city","State":"Alaska","State_Abbrev":"AK"},
"geometry":{ "type": "Point", "coordinates": [-154.902414,59.737057]}},
{ "type": "Feature", "properties": {"Name":"New Stuyahok city","State":"Alaska","State_Abbrev":"AK"},
"geometry":{ "type": "Point", "coordinates": [-157.309089,59.485309]}},
{ "type": "Feature", "properties": {"Name":"Newtok CDP","State":"Alaska","State_Abbrev":"AK"},
"geometry":{ "type": "Point", "coordinates": [-164.645684,60.935067]}},
{ "type": "Feature", "properties": {"Name":"Nightmute city","State":"Alaska","State_Abbrev":"AK"},
"geometry":{ "type": "Point", "coordinates": [-164.83464,60.462401]}},
{ "type": "Feature", "properties": {"Name":"Nikiski CDP","State":"Alaska","State_Abbrev":"AK"},
"geometry":{ "type": "Point", "coordinates": [-151.225268,60.725015]}},
{ "type": "Feature", "properties": {"Name":"Nikolaevsk CDP","State":"Alaska","State_Abbrev":"AK"},
"geometry":{ "type": "Point", "coordinates": [-151.596382,59.829553]}},
{ "type": "Feature", "properties": {"Name":"Nikolai city","State":"Alaska","State_Abbrev":"AK"},
"geometry":{ "type": "Point", "coordinates": [-154.374944,62.999115]}},
{ "type": "Feature", "properties": {"Name":"Nikolski CDP","State":"Alaska","State_Abbrev":"AK"},
"geometry":{ "type": "Point", "coordinates": [-168.718502,53.007863]}},
{ "type": "Feature", "properties": {"Name":"Ninilchik CDP","State":"Alaska","State_Abbrev":"AK"},
"geometry":{ "type": "Point", "coordinates": [-151.40438,60.061332]}},
{ "type": "Feature", "properties": {"Name":"Noatak CDP","State":"Alaska","State_Abbrev":"AK"},
"geometry":{ "type": "Point", "coordinates": [-163.010434,67.589482]}},
{ "type": "Feature", "properties": {"Name":"Nome city","State":"Alaska","State_Abbrev":"AK"},
"geometry":{ "type": "Point", "coordinates": [-165.415287,64.505741]}},
{ "type": "Feature", "properties": {"Name":"Nondalton city","State":"Alaska","State_Abbrev":"AK"},
"geometry":{ "type": "Point", "coordinates": [-154.866046,59.975246]}},
{ "type": "Feature", "properties": {"Name":"Noorvik city","State":"Alaska","State_Abbrev":"AK"},
"geometry":{ "type": "Point", "coordinates": [-161.034669,66.82821]}},
{ "type": "Feature", "properties": {"Name":"North Lakes CDP","State":"Alaska","State_Abbrev":"AK"},
"geometry":{ "type": "Point", "coordinates": [-149.310724,61.618378]}},
{ "type": "Feature", "properties": {"Name":"North Pole city","State":"Alaska","State_Abbrev":"AK"},
"geometry":{ "type": "Point", "coordinates": [-147.362655,64.752728]}},
{ "type": "Feature", "properties": {"Name":"Northway CDP","State":"Alaska","State_Abbrev":"AK"},
"geometry":{ "type": "Point", "coordinates": [-141.541256,63.000776]}},
{ "type": "Feature", "properties": {"Name":"Nuiqsut city","State":"Alaska","State_Abbrev":"AK"},
"geometry":{ "type": "Point", "coordinates": [-150.989674,70.213483]}},
{ "type": "Feature", "properties": {"Name":"Nulato city","State":"Alaska","State_Abbrev":"AK"},
"geometry":{ "type": "Point", "coordinates": [-158.27535,64.691283]}},
{ "type": "Feature", "properties": {"Name":"Nunam Iqua city","State":"Alaska","State_Abbrev":"AK"},
"geometry":{ "type": "Point", "coordinates": [-164.900554,62.506887]}},
{ "type": "Feature", "properties": {"Name":"Nunapitchuk city","State":"Alaska","State_Abbrev":"AK"},
"geometry":{ "type": "Point", "coordinates": [-162.464569,60.881739]}},
{ "type": "Feature", "properties": {"Name":"Old Harbor city","State":"Alaska","State_Abbrev":"AK"},
"geometry":{ "type": "Point", "coordinates": [-153.329674,57.218798]}},
{ "type": "Feature", "properties": {"Name":"Oscarville CDP","State":"Alaska","State_Abbrev":"AK"},
"geometry":{ "type": "Point", "coordinates": [-161.788239,60.723444]}},
{ "type": "Feature", "properties": {"Name":"Ouzinkie city","State":"Alaska","State_Abbrev":"AK"},
"geometry":{ "type": "Point", "coordinates": [-152.462388,57.92466]}},
{ "type": "Feature", "properties": {"Name":"Palmer city","State":"Alaska","State_Abbrev":"AK"},
"geometry":{ "type": "Point", "coordinates": [-149.114679,61.597168]}},
{ "type": "Feature", "properties": {"Name":"Paxson CDP","State":"Alaska","State_Abbrev":"AK"},
"geometry":{ "type": "Point", "coordinates": [-145.757621,62.975706]}},
{ "type": "Feature", "properties": {"Name":"Pedro Bay CDP","State":"Alaska","State_Abbrev":"AK"},
"geometry":{ "type": "Point", "coordinates": [-154.141274,59.789585]}},
{ "type": "Feature", "properties": {"Name":"Pelican city","State":"Alaska","State_Abbrev":"AK"},
"geometry":{ "type": "Point", "coordinates": [-136.215066,57.959229]}},
{ "type": "Feature", "properties": {"Name":"Perryville CDP","State":"Alaska","State_Abbrev":"AK"},
"geometry":{ "type": "Point", "coordinates": [-159.155754,55.934456]}},
{ "type": "Feature", "properties": {"Name":"Petersburg CDP","State":"Alaska","State_Abbrev":"AK"},
"geometry":{ "type": "Point", "coordinates": [-132.874938,56.756918]}},
{ "type": "Feature", "properties": {"Name":"Petersville CDP","State":"Alaska","State_Abbrev":"AK"},
"geometry":{ "type": "Point", "coordinates": [-150.884124,62.453484]}},
{ "type": "Feature", "properties": {"Name":"Pilot Point city","State":"Alaska","State_Abbrev":"AK"},
"geometry":{ "type": "Point", "coordinates": [-157.722807,57.541137]}},
{ "type": "Feature", "properties": {"Name":"Pilot Station city","State":"Alaska","State_Abbrev":"AK"},
"geometry":{ "type": "Point", "coordinates": [-162.872648,61.948167]}},
{ "type": "Feature", "properties": {"Name":"Pitkas Point CDP","State":"Alaska","State_Abbrev":"AK"},
"geometry":{ "type": "Point", "coordinates": [-163.268128,62.037403]}},
{ "type": "Feature", "properties": {"Name":"Platinum city","State":"Alaska","State_Abbrev":"AK"},
"geometry":{ "type": "Point", "coordinates": [-161.747032,58.952583]}},
{ "type": "Feature", "properties": {"Name":"Pleasant Valley CDP","State":"Alaska","State_Abbrev":"AK"},
"geometry":{ "type": "Point", "coordinates": [-146.89855,64.885468]}},
{ "type": "Feature", "properties": {"Name":"Point Baker CDP","State":"Alaska","State_Abbrev":"AK"},
"geometry":{ "type": "Point", "coordinates": [-133.616794,56.348132]}},
{ "type": "Feature", "properties": {"Name":"Point Hope city","State":"Alaska","State_Abbrev":"AK"},
"geometry":{ "type": "Point", "coordinates": [-166.681159,68.34421]}},
{ "type": "Feature", "properties": {"Name":"Point Lay CDP","State":"Alaska","State_Abbrev":"AK"},
"geometry":{ "type": "Point", "coordinates": [-162.83412,69.737117]}},
{ "type": "Feature", "properties": {"Name":"Point MacKenzie CDP","State":"Alaska","State_Abbrev":"AK"},
"geometry":{ "type": "Point", "coordinates": [-150.048525,61.3427]}},
{ "type": "Feature", "properties": {"Name":"Point Possession CDP","State":"Alaska","State_Abbrev":"AK"},
"geometry":{ "type": "Point", "coordinates": [-150.688844,60.923081]}},
{ "type": "Feature", "properties": {"Name":"Pope-Vannoy Landing CDP","State":"Alaska","State_Abbrev":"AK"},
"geometry":{ "type": "Point", "coordinates": [-154.447236,59.570602]}},
{ "type": "Feature", "properties": {"Name":"Portage Creek CDP","State":"Alaska","State_Abbrev":"AK"},
"geometry":{ "type": "Point", "coordinates": [-157.669817,58.90542]}},
{ "type": "Feature", "properties": {"Name":"Port Alexander city","State":"Alaska","State_Abbrev":"AK"},
"geometry":{ "type": "Point", "coordinates": [-134.65275,56.237593]}},
{ "type": "Feature", "properties": {"Name":"Port Alsworth CDP","State":"Alaska","State_Abbrev":"AK"},
"geometry":{ "type": "Point", "coordinates": [-154.33961,60.15673]}},
{ "type": "Feature", "properties": {"Name":"Port Clarence CDP","State":"Alaska","State_Abbrev":"AK"},
"geometry":{ "type": "Point", "coordinates": [-166.764338,65.108965]}},
{ "type": "Feature", "properties": {"Name":"Port Graham CDP","State":"Alaska","State_Abbrev":"AK"},
"geometry":{ "type": "Point", "coordinates": [-151.846498,59.339803]}},
{ "type": "Feature", "properties": {"Name":"Port Heiden city","State":"Alaska","State_Abbrev":"AK"},
"geometry":{ "type": "Point", "coordinates": [-158.586416,56.965241]}},
{ "type": "Feature", "properties": {"Name":"Port Lions city","State":"Alaska","State_Abbrev":"AK"},
"geometry":{ "type": "Point", "coordinates": [-152.856248,57.867012]}},
{ "type": "Feature", "properties": {"Name":"Port Protection CDP","State":"Alaska","State_Abbrev":"AK"},
"geometry":{ "type": "Point", "coordinates": [-133.60642,56.331881]}},
{ "type": "Feature", "properties": {"Name":"Primrose CDP","State":"Alaska","State_Abbrev":"AK"},
"geometry":{ "type": "Point", "coordinates": [-149.296448,60.341624]}},
{ "type": "Feature", "properties": {"Name":"Prudhoe Bay CDP","State":"Alaska","State_Abbrev":"AK"},
"geometry":{ "type": "Point", "coordinates": [-148.749374,70.365868]}},
{ "type": "Feature", "properties": {"Name":"Quinhagak city","State":"Alaska","State_Abbrev":"AK"},
"geometry":{ "type": "Point", "coordinates": [-161.897243,59.751279]}},
{ "type": "Feature", "properties": {"Name":"Rampart CDP","State":"Alaska","State_Abbrev":"AK"},
"geometry":{ "type": "Point", "coordinates": [-149.921015,65.404915]}},
{ "type": "Feature", "properties": {"Name":"Red Devil CDP","State":"Alaska","State_Abbrev":"AK"},
"geometry":{ "type": "Point", "coordinates": [-157.358521,61.75746]}},
{ "type": "Feature", "properties": {"Name":"Red Dog Mine CDP","State":"Alaska","State_Abbrev":"AK"},
"geometry":{ "type": "Point", "coordinates": [-162.866869,68.064411]}},
{ "type": "Feature", "properties": {"Name":"Ridgeway CDP","State":"Alaska","State_Abbrev":"AK"},
"geometry":{ "type": "Point", "coordinates": [-151.052101,60.530833]}},
{ "type": "Feature", "properties": {"Name":"Ruby city","State":"Alaska","State_Abbrev":"AK"},
"geometry":{ "type": "Point", "coordinates": [-155.50054,64.72329]}},
{ "type": "Feature", "properties": {"Name":"Russian Mission city","State":"Alaska","State_Abbrev":"AK"},
"geometry":{ "type": "Point", "coordinates": [-161.362911,61.778664]}},
{ "type": "Feature", "properties": {"Name":"St. George city","State":"Alaska","State_Abbrev":"AK"},
"geometry":{ "type": "Point", "coordinates": [-169.65994,56.571044]}},
{ "type": "Feature", "properties": {"Name":"St. Mary's city","State":"Alaska","State_Abbrev":"AK"},
"geometry":{ "type": "Point", "coordinates": [-163.244257,62.062775]}},
{ "type": "Feature", "properties": {"Name":"St. Michael city","State":"Alaska","State_Abbrev":"AK"},
"geometry":{ "type": "Point", "coordinates": [-162.134486,63.458499]}},
{ "type": "Feature", "properties": {"Name":"St. Paul city","State":"Alaska","State_Abbrev":"AK"},
"geometry":{ "type": "Point", "coordinates": [-170.322824,57.179076]}},
{ "type": "Feature", "properties": {"Name":"Salamatof CDP","State":"Alaska","State_Abbrev":"AK"},
"geometry":{ "type": "Point", "coordinates": [-151.311289,60.604212]}},
{ "type": "Feature", "properties": {"Name":"Salcha CDP","State":"Alaska","State_Abbrev":"AK"},
"geometry":{ "type": "Point", "coordinates": [-146.88362,64.534103]}},
{ "type": "Feature", "properties": {"Name":"Sand Point city","State":"Alaska","State_Abbrev":"AK"},
"geometry":{ "type": "Point", "coordinates": [-160.484344,55.31347]}},
{ "type": "Feature", "properties": {"Name":"Savoonga city","State":"Alaska","State_Abbrev":"AK"},
"geometry":{ "type": "Point", "coordinates": [-170.483324,63.679706]}},
{ "type": "Feature", "properties": {"Name":"Saxman city","State":"Alaska","State_Abbrev":"AK"},
"geometry":{ "type": "Point", "coordinates": [-131.58915,55.323165]}},
{ "type": "Feature", "properties": {"Name":"Scammon Bay city","State":"Alaska","State_Abbrev":"AK"},
"geometry":{ "type": "Point", "coordinates": [-165.583279,61.841929]}},
{ "type": "Feature", "properties": {"Name":"Selawik city","State":"Alaska","State_Abbrev":"AK"},
"geometry":{ "type": "Point", "coordinates": [-160.000766,66.598061]}},
{ "type": "Feature", "properties": {"Name":"Seldovia city","State":"Alaska","State_Abbrev":"AK"},
"geometry":{ "type": "Point", "coordinates": [-151.710387,59.43948]}},
{ "type": "Feature", "properties": {"Name":"Seldovia Village CDP","State":"Alaska","State_Abbrev":"AK"},
"geometry":{ "type": "Point", "coordinates": [-151.588755,59.46127]}},
{ "type": "Feature", "properties": {"Name":"Seward city","State":"Alaska","State_Abbrev":"AK"},
"geometry":{ "type": "Point", "coordinates": [-149.391581,60.124786]}},
{ "type": "Feature", "properties": {"Name":"Shageluk city","State":"Alaska","State_Abbrev":"AK"},
"geometry":{ "type": "Point", "coordinates": [-159.551368,62.661586]}},
{ "type": "Feature", "properties": {"Name":"Shaktoolik city","State":"Alaska","State_Abbrev":"AK"},
"geometry":{ "type": "Point", "coordinates": [-161.193514,64.354481]}},
{ "type": "Feature", "properties": {"Name":"Shishmaref city","State":"Alaska","State_Abbrev":"AK"},
"geometry":{ "type": "Point", "coordinates": [-166.12533,66.232966]}},
{ "type": "Feature", "properties": {"Name":"Shungnak city","State":"Alaska","State_Abbrev":"AK"},
"geometry":{ "type": "Point", "coordinates": [-157.149979,66.880505]}},
{ "type": "Feature", "properties": {"Name":"Silver Springs CDP","State":"Alaska","State_Abbrev":"AK"},
"geometry":{ "type": "Point", "coordinates": [-145.358311,62.019311]}},
{ "type": "Feature", "properties": {"Name":"Sitka city and borough","State":"Alaska","State_Abbrev":"AK"},
"geometry":{ "type": "Point", "coordinates": [-135.367396,57.193204]}},
{ "type": "Feature", "properties": {"Name":"Skagway CDP","State":"Alaska","State_Abbrev":"AK"},
"geometry":{ "type": "Point", "coordinates": [-135.27572,59.464431]}},
{ "type": "Feature", "properties": {"Name":"Skwentna CDP","State":"Alaska","State_Abbrev":"AK"},
"geometry":{ "type": "Point", "coordinates": [-151.199994,61.888689]}},
{ "type": "Feature", "properties": {"Name":"Slana CDP","State":"Alaska","State_Abbrev":"AK"},
"geometry":{ "type": "Point", "coordinates": [-143.522398,62.61786]}},
{ "type": "Feature", "properties": {"Name":"Sleetmute CDP","State":"Alaska","State_Abbrev":"AK"},
"geometry":{ "type": "Point", "coordinates": [-157.10302,61.653861]}},
{ "type": "Feature", "properties": {"Name":"Soldotna city","State":"Alaska","State_Abbrev":"AK"},
"geometry":{ "type": "Point", "coordinates": [-151.069014,60.485318]}},
{ "type": "Feature", "properties": {"Name":"South Lakes CDP","State":"Alaska","State_Abbrev":"AK"},
"geometry":{ "type": "Point", "coordinates": [-149.315544,61.587561]}},
{ "type": "Feature", "properties": {"Name":"South Naknek CDP","State":"Alaska","State_Abbrev":"AK"},
"geometry":{ "type": "Point", "coordinates": [-156.994126,58.675534]}},
{ "type": "Feature", "properties": {"Name":"South Van Horn CDP","State":"Alaska","State_Abbrev":"AK"},
"geometry":{ "type": "Point", "coordinates": [-147.787752,64.809734]}},
{ "type": "Feature", "properties": {"Name":"Stebbins city","State":"Alaska","State_Abbrev":"AK"},
"geometry":{ "type": "Point", "coordinates": [-162.259981,63.473394]}},
{ "type": "Feature", "properties": {"Name":"Steele Creek CDP","State":"Alaska","State_Abbrev":"AK"},
"geometry":{ "type": "Point", "coordinates": [-147.435058,64.925613]}},
{ "type": "Feature", "properties": {"Name":"Sterling CDP","State":"Alaska","State_Abbrev":"AK"},
"geometry":{ "type": "Point", "coordinates": [-150.80526,60.540148]}},
{ "type": "Feature", "properties": {"Name":"Stevens Village CDP","State":"Alaska","State_Abbrev":"AK"},
"geometry":{ "type": "Point", "coordinates": [-149.080307,66.023711]}},
{ "type": "Feature", "properties": {"Name":"Stony River CDP","State":"Alaska","State_Abbrev":"AK"},
"geometry":{ "type": "Point", "coordinates": [-156.590509,61.79201]}},
{ "type": "Feature", "properties": {"Name":"Sunrise CDP","State":"Alaska","State_Abbrev":"AK"},
"geometry":{ "type": "Point", "coordinates": [-149.467798,60.870068]}},
{ "type": "Feature", "properties": {"Name":"Susitna CDP","State":"Alaska","State_Abbrev":"AK"},
"geometry":{ "type": "Point", "coordinates": [-150.588063,61.546558]}},
{ "type": "Feature", "properties": {"Name":"Susitna North CDP","State":"Alaska","State_Abbrev":"AK"},
"geometry":{ "type": "Point", "coordinates": [-149.728432,62.153515]}},
{ "type": "Feature", "properties": {"Name":"Sutton-Alpine CDP","State":"Alaska","State_Abbrev":"AK"},
"geometry":{ "type": "Point", "coordinates": [-148.874181,61.741436]}},
{ "type": "Feature", "properties": {"Name":"Takotna CDP","State":"Alaska","State_Abbrev":"AK"},
"geometry":{ "type": "Point", "coordinates": [-156.083829,62.982698]}},
{ "type": "Feature", "properties": {"Name":"Talkeetna CDP","State":"Alaska","State_Abbrev":"AK"},
"geometry":{ "type": "Point", "coordinates": [-149.923928,62.309515]}},
{ "type": "Feature", "properties": {"Name":"Tanacross CDP","State":"Alaska","State_Abbrev":"AK"},
"geometry":{ "type": "Point", "coordinates": [-143.486599,63.328691]}},
{ "type": "Feature", "properties": {"Name":"Tanaina CDP","State":"Alaska","State_Abbrev":"AK"},
"geometry":{ "type": "Point", "coordinates": [-149.42774,61.657244]}},
{ "type": "Feature", "properties": {"Name":"Tanana city","State":"Alaska","State_Abbrev":"AK"},
"geometry":{ "type": "Point", "coordinates": [-152.055102,65.184004]}},
{ "type": "Feature", "properties": {"Name":"Tatitlek CDP","State":"Alaska","State_Abbrev":"AK"},
"geometry":{ "type": "Point", "coordinates": [-146.668561,60.894438]}},
{ "type": "Feature", "properties": {"Name":"Tazlina CDP","State":"Alaska","State_Abbrev":"AK"},
"geometry":{ "type": "Point", "coordinates": [-145.443031,62.050272]}},
{ "type": "Feature", "properties": {"Name":"Teller city","State":"Alaska","State_Abbrev":"AK"},
"geometry":{ "type": "Point", "coordinates": [-166.352133,65.252359]}},
{ "type": "Feature", "properties": {"Name":"Tenakee Springs city","State":"Alaska","State_Abbrev":"AK"},
"geometry":{ "type": "Point", "coordinates": [-135.135446,57.790054]}},
{ "type": "Feature", "properties": {"Name":"Tetlin CDP","State":"Alaska","State_Abbrev":"AK"},
"geometry":{ "type": "Point", "coordinates": [-142.504418,63.181865]}},
{ "type": "Feature", "properties": {"Name":"Thorne Bay city","State":"Alaska","State_Abbrev":"AK"},
"geometry":{ "type": "Point", "coordinates": [-132.535653,55.667027]}},
{ "type": "Feature", "properties": {"Name":"Togiak city","State":"Alaska","State_Abbrev":"AK"},
"geometry":{ "type": "Point", "coordinates": [-160.397583,59.049859]}},
{ "type": "Feature", "properties": {"Name":"Tok CDP","State":"Alaska","State_Abbrev":"AK"},
"geometry":{ "type": "Point", "coordinates": [-143.037871,63.328894]}},
{ "type": "Feature", "properties": {"Name":"Toksook Bay city","State":"Alaska","State_Abbrev":"AK"},
"geometry":{ "type": "Point", "coordinates": [-165.106923,60.527412]}},
{ "type": "Feature", "properties": {"Name":"Tolsona CDP","State":"Alaska","State_Abbrev":"AK"},
"geometry":{ "type": "Point", "coordinates": [-146.12031,62.067821]}},
{ "type": "Feature", "properties": {"Name":"Tonsina CDP","State":"Alaska","State_Abbrev":"AK"},
"geometry":{ "type": "Point", "coordinates": [-145.110079,61.530342]}},
{ "type": "Feature", "properties": {"Name":"Trapper Creek CDP","State":"Alaska","State_Abbrev":"AK"},
"geometry":{ "type": "Point", "coordinates": [-150.407836,62.415358]}},
{ "type": "Feature", "properties": {"Name":"Tuluksak CDP","State":"Alaska","State_Abbrev":"AK"},
"geometry":{ "type": "Point", "coordinates": [-160.937231,61.10435]}},
{ "type": "Feature", "properties": {"Name":"Tuntutuliak CDP","State":"Alaska","State_Abbrev":"AK"},
"geometry":{ "type": "Point", "coordinates": [-162.669682,60.410269]}},
{ "type": "Feature", "properties": {"Name":"Tununak CDP","State":"Alaska","State_Abbrev":"AK"},
"geometry":{ "type": "Point", "coordinates": [-165.128009,60.60713]}},
{ "type": "Feature", "properties": {"Name":"Twin Hills CDP","State":"Alaska","State_Abbrev":"AK"},
"geometry":{ "type": "Point", "coordinates": [-160.280615,59.081816]}},
{ "type": "Feature", "properties": {"Name":"Two Rivers CDP","State":"Alaska","State_Abbrev":"AK"},
"geometry":{ "type": "Point", "coordinates": [-147.089884,64.890845]}},
{ "type": "Feature", "properties": {"Name":"Tyonek CDP","State":"Alaska","State_Abbrev":"AK"},
"geometry":{ "type": "Point", "coordinates": [-151.338909,61.099425]}},
{ "type": "Feature", "properties": {"Name":"Ugashik CDP","State":"Alaska","State_Abbrev":"AK"},
"geometry":{ "type": "Point", "coordinates": [-156.994926,57.64738]}},
{ "type": "Feature", "properties": {"Name":"Unalakleet city","State":"Alaska","State_Abbrev":"AK"},
"geometry":{ "type": "Point", "coordinates": [-160.796775,63.894206]}},
{ "type": "Feature", "properties": {"Name":"Unalaska city","State":"Alaska","State_Abbrev":"AK"},
"geometry":{ "type": "Point", "coordinates": [-166.529029,53.910255]}},
{ "type": "Feature", "properties": {"Name":"Upper Kalskag city","State":"Alaska","State_Abbrev":"AK"},
"geometry":{ "type": "Point", "coordinates": [-160.348983,61.54027]}},
{ "type": "Feature", "properties": {"Name":"Utqiagvik city","State":"Alaska","State_Abbrev":"AK"},
"geometry":{ "type": "Point", "coordinates": [-156.798246,71.253861]}},
{ "type": "Feature", "properties": {"Name":"Valdez city","State":"Alaska","State_Abbrev":"AK"},
"geometry":{ "type": "Point", "coordinates": [-146.317179,61.083621]}},
{ "type": "Feature", "properties": {"Name":"Venetie CDP","State":"Alaska","State_Abbrev":"AK"},
"geometry":{ "type": "Point", "coordinates": [-146.374273,67.020691]}},
{ "type": "Feature", "properties": {"Name":"Wainwright city","State":"Alaska","State_Abbrev":"AK"},
"geometry":{ "type": "Point", "coordinates": [-159.985214,70.658232]}},
{ "type": "Feature", "properties": {"Name":"Wales city","State":"Alaska","State_Abbrev":"AK"},
"geometry":{ "type": "Point", "coordinates": [-168.068313,65.613232]}},
{ "type": "Feature", "properties": {"Name":"Wasilla city","State":"Alaska","State_Abbrev":"AK"},
"geometry":{ "type": "Point", "coordinates": [-149.46079,61.581136]}},
{ "type": "Feature", "properties": {"Name":"Whale Pass city","State":"Alaska","State_Abbrev":"AK"},
"geometry":{ "type": "Point", "coordinates": [-133.067469,56.082115]}},
{ "type": "Feature", "properties": {"Name":"White Mountain city","State":"Alaska","State_Abbrev":"AK"},
"geometry":{ "type": "Point", "coordinates": [-163.412753,64.682359]}},
{ "type": "Feature", "properties": {"Name":"Whitestone CDP","State":"Alaska","State_Abbrev":"AK"},
"geometry":{ "type": "Point", "coordinates": [-145.906413,64.152772]}},
{ "type": "Feature", "properties": {"Name":"Whitestone Logging Camp CDP","State":"Alaska","State_Abbrev":"AK"},
"geometry":{ "type": "Point", "coordinates": [-135.409332,58.058337]}},
{ "type": "Feature", "properties": {"Name":"Whittier city","State":"Alaska","State_Abbrev":"AK"},
"geometry":{ "type": "Point", "coordinates": [-148.663713,60.777318]}},
{ "type": "Feature", "properties": {"Name":"Willow CDP","State":"Alaska","State_Abbrev":"AK"},
"geometry":{ "type": "Point", "coordinates": [-149.620229,61.886957]}},
{ "type": "Feature", "properties": {"Name":"Willow Creek CDP","State":"Alaska","State_Abbrev":"AK"},
"geometry":{ "type": "Point", "coordinates": [-145.198597,61.830234]}},
{ "type": "Feature", "properties": {"Name":"Wiseman CDP","State":"Alaska","State_Abbrev":"AK"},
"geometry":{ "type": "Point", "coordinates": [-150.15408,67.480919]}},
{ "type": "Feature", "properties": {"Name":"Womens Bay CDP","State":"Alaska","State_Abbrev":"AK"},
"geometry":{ "type": "Point", "coordinates": [-152.684656,57.687002]}},
{ "type": "Feature", "properties": {"Name":"Wrangell city and borough","State":"Alaska","State_Abbrev":"AK"},
"geometry":{ "type": "Point", "coordinates": [-132.026788,56.180779]}},
{ "type": "Feature", "properties": {"Name":"Yakutat CDP","State":"Alaska","State_Abbrev":"AK"},
"geometry":{ "type": "Point", "coordinates": [-139.606191,59.563588]}}]}
