{"type":"FeatureCollection","features":[
{ "type": "Feature", "properties": {"Name":"Aguila CDP","State":"Arizona","State_Abbrev":"AZ"},
"geometry":{ "type": "Point", "coordinates": [-113.167329,33.9374]}},
{ "type": "Feature", "properties": {"Name":"Ajo CDP","State":"Arizona","State_Abbrev":"AZ"},
"geometry":{ "type": "Point", "coordinates": [-112.883874,32.392279]}},
{ "type": "Feature", "properties": {"Name":"Ak Chin CDP","State":"Arizona","State_Abbrev":"AZ"},
"geometry":{ "type": "Point", "coordinates": [-112.009078,32.287326]}},
{ "type": "Feature", "properties": {"Name":"Ak-Chin Village CDP","State":"Arizona","State_Abbrev":"AZ"},
"geometry":{ "type": "Point", "coordinates": [-112.080875,33.019602]}},
{ "type": "Feature", "properties": {"Name":"Alamo Lake CDP","State":"Arizona","State_Abbrev":"AZ"},
"geometry":{ "type": "Point", "coordinates": [-113.500313,34.255851]}},
{ "type": "Feature", "properties": {"Name":"Ali Chuk CDP","State":"Arizona","State_Abbrev":"AZ"},
"geometry":{ "type": "Point", "coordinates": [-112.558394,31.816919]}},
{ "type": "Feature", "properties": {"Name":"Ali Chukson CDP","State":"Arizona","State_Abbrev":"AZ"},
"geometry":{ "type": "Point", "coordinates": [-111.801625,31.911528]}},
{ "type": "Feature", "properties": {"Name":"Ali Molina CDP","State":"Arizona","State_Abbrev":"AZ"},
"geometry":{ "type": "Point", "coordinates": [-111.780387,31.902547]}},
{ "type": "Feature", "properties": {"Name":"Alpine CDP","State":"Arizona","State_Abbrev":"AZ"},
"geometry":{ "type": "Point", "coordinates": [-109.143696,33.845523]}},
{ "type": "Feature", "properties": {"Name":"Amado CDP","State":"Arizona","State_Abbrev":"AZ"},
"geometry":{ "type": "Point", "coordinates": [-111.060803,31.697358]}},
{ "type": "Feature", "properties": {"Name":"Anegam CDP","State":"Arizona","State_Abbrev":"AZ"},
"geometry":{ "type": "Point", "coordinates": [-112.034963,32.374193]}},
{ "type": "Feature", "properties": {"Name":"Antares CDP","State":"Arizona","State_Abbrev":"AZ"},
"geometry":{ "type": "Point", "coordinates": [-113.808288,35.422991]}},
{ "type": "Feature", "properties": {"Name":"Anthem CDP","State":"Arizona","State_Abbrev":"AZ"},
"geometry":{ "type": "Point", "coordinates": [-112.126999,33.846766]}},
{ "type": "Feature", "properties": {"Name":"Apache Junction city","State":"Arizona","State_Abbrev":"AZ"},
"geometry":{ "type": "Point", "coordinates": [-111.540509,33.382766]}},
{ "type": "Feature", "properties": {"Name":"Arivaca CDP","State":"Arizona","State_Abbrev":"AZ"},
"geometry":{ "type": "Point", "coordinates": [-111.292611,31.574938]}},
{ "type": "Feature", "properties": {"Name":"Arivaca Junction CDP","State":"Arizona","State_Abbrev":"AZ"},
"geometry":{ "type": "Point", "coordinates": [-111.073596,31.738891]}},
{ "type": "Feature", "properties": {"Name":"Arizona City CDP","State":"Arizona","State_Abbrev":"AZ"},
"geometry":{ "type": "Point", "coordinates": [-111.670514,32.750852]}},
{ "type": "Feature", "properties": {"Name":"Arizona Village CDP","State":"Arizona","State_Abbrev":"AZ"},
"geometry":{ "type": "Point", "coordinates": [-114.589339,34.854836]}},
{ "type": "Feature", "properties": {"Name":"Arlington CDP","State":"Arizona","State_Abbrev":"AZ"},
"geometry":{ "type": "Point", "coordinates": [-112.77475,33.334622]}},
{ "type": "Feature", "properties": {"Name":"Ash Fork CDP","State":"Arizona","State_Abbrev":"AZ"},
"geometry":{ "type": "Point", "coordinates": [-112.4913,35.217187]}},
{ "type": "Feature", "properties": {"Name":"Avenue B and C CDP","State":"Arizona","State_Abbrev":"AZ"},
"geometry":{ "type": "Point", "coordinates": [-114.660049,32.719042]}},
{ "type": "Feature", "properties": {"Name":"Avondale city","State":"Arizona","State_Abbrev":"AZ"},
"geometry":{ "type": "Point", "coordinates": [-112.328928,33.313236]}},
{ "type": "Feature", "properties": {"Name":"Avra Valley CDP","State":"Arizona","State_Abbrev":"AZ"},
"geometry":{ "type": "Point", "coordinates": [-111.339442,32.419132]}},
{ "type": "Feature", "properties": {"Name":"Aztec CDP","State":"Arizona","State_Abbrev":"AZ"},
"geometry":{ "type": "Point", "coordinates": [-113.442477,32.807567]}},
{ "type": "Feature", "properties": {"Name":"Bagdad CDP","State":"Arizona","State_Abbrev":"AZ"},
"geometry":{ "type": "Point", "coordinates": [-113.176818,34.577199]}},
{ "type": "Feature", "properties": {"Name":"Bear Flat CDP","State":"Arizona","State_Abbrev":"AZ"},
"geometry":{ "type": "Point", "coordinates": [-111.067426,34.291313]}},
{ "type": "Feature", "properties": {"Name":"Beaver Dam CDP","State":"Arizona","State_Abbrev":"AZ"},
"geometry":{ "type": "Point", "coordinates": [-113.936181,36.906981]}},
{ "type": "Feature", "properties": {"Name":"Beaver Valley CDP","State":"Arizona","State_Abbrev":"AZ"},
"geometry":{ "type": "Point", "coordinates": [-111.299928,34.342889]}},
{ "type": "Feature", "properties": {"Name":"Bellemont CDP","State":"Arizona","State_Abbrev":"AZ"},
"geometry":{ "type": "Point", "coordinates": [-111.813807,35.242474]}},
{ "type": "Feature", "properties": {"Name":"Benson city","State":"Arizona","State_Abbrev":"AZ"},
"geometry":{ "type": "Point", "coordinates": [-110.328552,31.914497]}},
{ "type": "Feature", "properties": {"Name":"Beyerville CDP","State":"Arizona","State_Abbrev":"AZ"},
"geometry":{ "type": "Point", "coordinates": [-110.874917,31.392047]}},
{ "type": "Feature", "properties": {"Name":"Bisbee city","State":"Arizona","State_Abbrev":"AZ"},
"geometry":{ "type": "Point", "coordinates": [-109.931834,31.398036]}},
{ "type": "Feature", "properties": {"Name":"Bitter Springs CDP","State":"Arizona","State_Abbrev":"AZ"},
"geometry":{ "type": "Point", "coordinates": [-111.647483,36.611699]}},
{ "type": "Feature", "properties": {"Name":"Black Canyon City CDP","State":"Arizona","State_Abbrev":"AZ"},
"geometry":{ "type": "Point", "coordinates": [-112.122411,34.071413]}},
{ "type": "Feature", "properties": {"Name":"Blackwater CDP","State":"Arizona","State_Abbrev":"AZ"},
"geometry":{ "type": "Point", "coordinates": [-111.579932,33.039565]}},
{ "type": "Feature", "properties": {"Name":"Blue Ridge CDP","State":"Arizona","State_Abbrev":"AZ"},
"geometry":{ "type": "Point", "coordinates": [-111.107383,34.640739]}},
{ "type": "Feature", "properties": {"Name":"Bluewater CDP","State":"Arizona","State_Abbrev":"AZ"},
"geometry":{ "type": "Point", "coordinates": [-114.262886,34.170415]}},
{ "type": "Feature", "properties": {"Name":"Bouse CDP","State":"Arizona","State_Abbrev":"AZ"},
"geometry":{ "type": "Point", "coordinates": [-113.996364,33.898476]}},
{ "type": "Feature", "properties": {"Name":"Bowie CDP","State":"Arizona","State_Abbrev":"AZ"},
"geometry":{ "type": "Point", "coordinates": [-109.484456,32.32488]}},
{ "type": "Feature", "properties": {"Name":"Brenda CDP","State":"Arizona","State_Abbrev":"AZ"},
"geometry":{ "type": "Point", "coordinates": [-113.937883,33.672082]}},
{ "type": "Feature", "properties": {"Name":"Bryce CDP","State":"Arizona","State_Abbrev":"AZ"},
"geometry":{ "type": "Point", "coordinates": [-109.823078,32.925827]}},
{ "type": "Feature", "properties": {"Name":"Buckeye city","State":"Arizona","State_Abbrev":"AZ"},
"geometry":{ "type": "Point", "coordinates": [-112.641626,33.431573]}},
{ "type": "Feature", "properties": {"Name":"Buckshot CDP","State":"Arizona","State_Abbrev":"AZ"},
"geometry":{ "type": "Point", "coordinates": [-114.483064,32.740349]}},
{ "type": "Feature", "properties": {"Name":"Bullhead City city","State":"Arizona","State_Abbrev":"AZ"},
"geometry":{ "type": "Point", "coordinates": [-114.55599,35.127371]}},
{ "type": "Feature", "properties": {"Name":"Burnside CDP","State":"Arizona","State_Abbrev":"AZ"},
"geometry":{ "type": "Point", "coordinates": [-109.624792,35.75336]}},
{ "type": "Feature", "properties": {"Name":"Bylas CDP","State":"Arizona","State_Abbrev":"AZ"},
"geometry":{ "type": "Point", "coordinates": [-110.114922,33.127656]}},
{ "type": "Feature", "properties": {"Name":"Cactus Flats CDP","State":"Arizona","State_Abbrev":"AZ"},
"geometry":{ "type": "Point", "coordinates": [-109.721273,32.760507]}},
{ "type": "Feature", "properties": {"Name":"Cactus Forest CDP","State":"Arizona","State_Abbrev":"AZ"},
"geometry":{ "type": "Point", "coordinates": [-111.316922,32.957823]}},
{ "type": "Feature", "properties": {"Name":"Cameron CDP","State":"Arizona","State_Abbrev":"AZ"},
"geometry":{ "type": "Point", "coordinates": [-111.428585,35.853193]}},
{ "type": "Feature", "properties": {"Name":"Campo Bonito CDP","State":"Arizona","State_Abbrev":"AZ"},
"geometry":{ "type": "Point", "coordinates": [-110.69843,32.562885]}},
{ "type": "Feature", "properties": {"Name":"Camp Verde town","State":"Arizona","State_Abbrev":"AZ"},
"geometry":{ "type": "Point", "coordinates": [-111.857014,34.569405]}},
{ "type": "Feature", "properties": {"Name":"Cane Beds CDP","State":"Arizona","State_Abbrev":"AZ"},
"geometry":{ "type": "Point", "coordinates": [-112.911787,36.934154]}},
{ "type": "Feature", "properties": {"Name":"Canyon Day CDP","State":"Arizona","State_Abbrev":"AZ"},
"geometry":{ "type": "Point", "coordinates": [-110.038193,33.778891]}},
{ "type": "Feature", "properties": {"Name":"Carefree town","State":"Arizona","State_Abbrev":"AZ"},
"geometry":{ "type": "Point", "coordinates": [-111.913271,33.823214]}},
{ "type": "Feature", "properties": {"Name":"Carrizo CDP","State":"Arizona","State_Abbrev":"AZ"},
"geometry":{ "type": "Point", "coordinates": [-110.331096,33.979354]}},
{ "type": "Feature", "properties": {"Name":"Casa Blanca CDP","State":"Arizona","State_Abbrev":"AZ"},
"geometry":{ "type": "Point", "coordinates": [-111.908087,33.115452]}},
{ "type": "Feature", "properties": {"Name":"Casa Grande city","State":"Arizona","State_Abbrev":"AZ"},
"geometry":{ "type": "Point", "coordinates": [-111.763486,32.906922]}},
{ "type": "Feature", "properties": {"Name":"Casas Adobes CDP","State":"Arizona","State_Abbrev":"AZ"},
"geometry":{ "type": "Point", "coordinates": [-111.011593,32.341834]}},
{ "type": "Feature", "properties": {"Name":"Catalina CDP","State":"Arizona","State_Abbrev":"AZ"},
"geometry":{ "type": "Point", "coordinates": [-110.899712,32.484779]}},
{ "type": "Feature", "properties": {"Name":"Catalina Foothills CDP","State":"Arizona","State_Abbrev":"AZ"},
"geometry":{ "type": "Point", "coordinates": [-110.884843,32.301872]}},
{ "type": "Feature", "properties": {"Name":"Cave Creek town","State":"Arizona","State_Abbrev":"AZ"},
"geometry":{ "type": "Point", "coordinates": [-111.982084,33.836219]}},
{ "type": "Feature", "properties": {"Name":"Cedar Creek CDP","State":"Arizona","State_Abbrev":"AZ"},
"geometry":{ "type": "Point", "coordinates": [-110.195691,33.891395]}},
{ "type": "Feature", "properties": {"Name":"Centennial Park CDP","State":"Arizona","State_Abbrev":"AZ"},
"geometry":{ "type": "Point", "coordinates": [-112.981325,36.953807]}},
{ "type": "Feature", "properties": {"Name":"Central CDP","State":"Arizona","State_Abbrev":"AZ"},
"geometry":{ "type": "Point", "coordinates": [-109.790772,32.86916]}},
{ "type": "Feature", "properties": {"Name":"Central Heights-Midland City CDP","State":"Arizona","State_Abbrev":"AZ"},
"geometry":{ "type": "Point", "coordinates": [-110.81519,33.400183]}},
{ "type": "Feature", "properties": {"Name":"Chandler city","State":"Arizona","State_Abbrev":"AZ"},
"geometry":{ "type": "Point", "coordinates": [-111.851819,33.282765]}},
{ "type": "Feature", "properties": {"Name":"Charco CDP","State":"Arizona","State_Abbrev":"AZ"},
"geometry":{ "type": "Point", "coordinates": [-112.600116,32.247321]}},
{ "type": "Feature", "properties": {"Name":"Chiawuli Tak CDP","State":"Arizona","State_Abbrev":"AZ"},
"geometry":{ "type": "Point", "coordinates": [-111.776473,31.940954]}},
{ "type": "Feature", "properties": {"Name":"Chilchinbito CDP","State":"Arizona","State_Abbrev":"AZ"},
"geometry":{ "type": "Point", "coordinates": [-110.049213,36.492002]}},
{ "type": "Feature", "properties": {"Name":"Chinle CDP","State":"Arizona","State_Abbrev":"AZ"},
"geometry":{ "type": "Point", "coordinates": [-109.578682,36.151148]}},
{ "type": "Feature", "properties": {"Name":"Chino Valley town","State":"Arizona","State_Abbrev":"AZ"},
"geometry":{ "type": "Point", "coordinates": [-112.40606,34.73989]}},
{ "type": "Feature", "properties": {"Name":"Chloride CDP","State":"Arizona","State_Abbrev":"AZ"},
"geometry":{ "type": "Point", "coordinates": [-114.197242,35.409702]}},
{ "type": "Feature", "properties": {"Name":"Christopher Creek CDP","State":"Arizona","State_Abbrev":"AZ"},
"geometry":{ "type": "Point", "coordinates": [-111.007245,34.321005]}},
{ "type": "Feature", "properties": {"Name":"Chuichu CDP","State":"Arizona","State_Abbrev":"AZ"},
"geometry":{ "type": "Point", "coordinates": [-111.78219,32.740329]}},
{ "type": "Feature", "properties": {"Name":"Cibecue CDP","State":"Arizona","State_Abbrev":"AZ"},
"geometry":{ "type": "Point", "coordinates": [-110.49196,34.030367]}},
{ "type": "Feature", "properties": {"Name":"Cibola CDP","State":"Arizona","State_Abbrev":"AZ"},
"geometry":{ "type": "Point", "coordinates": [-114.676283,33.374084]}},
{ "type": "Feature", "properties": {"Name":"Cienega Springs CDP","State":"Arizona","State_Abbrev":"AZ"},
"geometry":{ "type": "Point", "coordinates": [-114.212713,34.19974]}},
{ "type": "Feature", "properties": {"Name":"Circle City CDP","State":"Arizona","State_Abbrev":"AZ"},
"geometry":{ "type": "Point", "coordinates": [-112.580993,33.814877]}},
{ "type": "Feature", "properties": {"Name":"Citrus Park CDP","State":"Arizona","State_Abbrev":"AZ"},
"geometry":{ "type": "Point", "coordinates": [-112.446326,33.533598]}},
{ "type": "Feature", "properties": {"Name":"Clacks Canyon CDP","State":"Arizona","State_Abbrev":"AZ"},
"geometry":{ "type": "Point", "coordinates": [-114.072299,35.220358]}},
{ "type": "Feature", "properties": {"Name":"Clarkdale town","State":"Arizona","State_Abbrev":"AZ"},
"geometry":{ "type": "Point", "coordinates": [-112.058699,34.747979]}},
{ "type": "Feature", "properties": {"Name":"Claypool CDP","State":"Arizona","State_Abbrev":"AZ"},
"geometry":{ "type": "Point", "coordinates": [-110.841873,33.406101]}},
{ "type": "Feature", "properties": {"Name":"Clay Springs CDP","State":"Arizona","State_Abbrev":"AZ"},
"geometry":{ "type": "Point", "coordinates": [-110.304334,34.359259]}},
{ "type": "Feature", "properties": {"Name":"Clifton town","State":"Arizona","State_Abbrev":"AZ"},
"geometry":{ "type": "Point", "coordinates": [-109.284037,33.029568]}},
{ "type": "Feature", "properties": {"Name":"Colorado City town","State":"Arizona","State_Abbrev":"AZ"},
"geometry":{ "type": "Point", "coordinates": [-112.985312,36.970109]}},
{ "type": "Feature", "properties": {"Name":"Comobabi CDP","State":"Arizona","State_Abbrev":"AZ"},
"geometry":{ "type": "Point", "coordinates": [-111.798824,32.055397]}},
{ "type": "Feature", "properties": {"Name":"Concho CDP","State":"Arizona","State_Abbrev":"AZ"},
"geometry":{ "type": "Point", "coordinates": [-109.608266,34.473838]}},
{ "type": "Feature", "properties": {"Name":"Congress CDP","State":"Arizona","State_Abbrev":"AZ"},
"geometry":{ "type": "Point", "coordinates": [-112.865555,34.153356]}},
{ "type": "Feature", "properties": {"Name":"Coolidge city","State":"Arizona","State_Abbrev":"AZ"},
"geometry":{ "type": "Point", "coordinates": [-111.523585,32.933616]}},
{ "type": "Feature", "properties": {"Name":"Copper Hill CDP","State":"Arizona","State_Abbrev":"AZ"},
"geometry":{ "type": "Point", "coordinates": [-110.746483,33.430941]}},
{ "type": "Feature", "properties": {"Name":"Cordes Lakes CDP","State":"Arizona","State_Abbrev":"AZ"},
"geometry":{ "type": "Point", "coordinates": [-112.107334,34.3103]}},
{ "type": "Feature", "properties": {"Name":"Cornfields CDP","State":"Arizona","State_Abbrev":"AZ"},
"geometry":{ "type": "Point", "coordinates": [-109.675658,35.651242]}},
{ "type": "Feature", "properties": {"Name":"Cornville CDP","State":"Arizona","State_Abbrev":"AZ"},
"geometry":{ "type": "Point", "coordinates": [-111.90683,34.739244]}},
{ "type": "Feature", "properties": {"Name":"Corona de Tucson CDP","State":"Arizona","State_Abbrev":"AZ"},
"geometry":{ "type": "Point", "coordinates": [-110.781868,31.948571]}},
{ "type": "Feature", "properties": {"Name":"Cottonwood CDP","State":"Arizona","State_Abbrev":"AZ"},
"geometry":{ "type": "Point", "coordinates": [-109.890109,36.072152]}},
{ "type": "Feature", "properties": {"Name":"Cottonwood city","State":"Arizona","State_Abbrev":"AZ"},
"geometry":{ "type": "Point", "coordinates": [-111.984001,34.750844]}},
{ "type": "Feature", "properties": {"Name":"Cowlic CDP","State":"Arizona","State_Abbrev":"AZ"},
"geometry":{ "type": "Point", "coordinates": [-111.987629,31.804747]}},
{ "type": "Feature", "properties": {"Name":"Crozier CDP","State":"Arizona","State_Abbrev":"AZ"},
"geometry":{ "type": "Point", "coordinates": [-113.648641,35.422807]}},
{ "type": "Feature", "properties": {"Name":"Crystal Beach CDP","State":"Arizona","State_Abbrev":"AZ"},
"geometry":{ "type": "Point", "coordinates": [-114.392634,34.571382]}},
{ "type": "Feature", "properties": {"Name":"Cutter CDP","State":"Arizona","State_Abbrev":"AZ"},
"geometry":{ "type": "Point", "coordinates": [-110.659327,33.35838]}},
{ "type": "Feature", "properties": {"Name":"Dateland CDP","State":"Arizona","State_Abbrev":"AZ"},
"geometry":{ "type": "Point", "coordinates": [-113.542177,32.820903]}},
{ "type": "Feature", "properties": {"Name":"Deer Creek CDP","State":"Arizona","State_Abbrev":"AZ"},
"geometry":{ "type": "Point", "coordinates": [-111.35185,34.068786]}},
{ "type": "Feature", "properties": {"Name":"Del Muerto CDP","State":"Arizona","State_Abbrev":"AZ"},
"geometry":{ "type": "Point", "coordinates": [-109.435935,36.187393]}},
{ "type": "Feature", "properties": {"Name":"Dennehotso CDP","State":"Arizona","State_Abbrev":"AZ"},
"geometry":{ "type": "Point", "coordinates": [-109.875694,36.828998]}},
{ "type": "Feature", "properties": {"Name":"Desert Hills CDP","State":"Arizona","State_Abbrev":"AZ"},
"geometry":{ "type": "Point", "coordinates": [-114.377956,34.546463]}},
{ "type": "Feature", "properties": {"Name":"Dewey-Humboldt town","State":"Arizona","State_Abbrev":"AZ"},
"geometry":{ "type": "Point", "coordinates": [-112.24965,34.517396]}},
{ "type": "Feature", "properties": {"Name":"Dilkon CDP","State":"Arizona","State_Abbrev":"AZ"},
"geometry":{ "type": "Point", "coordinates": [-110.307232,35.352905]}},
{ "type": "Feature", "properties": {"Name":"Dolan Springs CDP","State":"Arizona","State_Abbrev":"AZ"},
"geometry":{ "type": "Point", "coordinates": [-114.285179,35.590453]}},
{ "type": "Feature", "properties": {"Name":"Doney Park CDP","State":"Arizona","State_Abbrev":"AZ"},
"geometry":{ "type": "Point", "coordinates": [-111.518994,35.265616]}},
{ "type": "Feature", "properties": {"Name":"Donovan Estates CDP","State":"Arizona","State_Abbrev":"AZ"},
"geometry":{ "type": "Point", "coordinates": [-114.678145,32.709359]}},
{ "type": "Feature", "properties": {"Name":"Douglas city","State":"Arizona","State_Abbrev":"AZ"},
"geometry":{ "type": "Point", "coordinates": [-109.541292,31.399274]}},
{ "type": "Feature", "properties": {"Name":"Dragoon CDP","State":"Arizona","State_Abbrev":"AZ"},
"geometry":{ "type": "Point", "coordinates": [-110.034657,32.021545]}},
{ "type": "Feature", "properties": {"Name":"Drexel Heights CDP","State":"Arizona","State_Abbrev":"AZ"},
"geometry":{ "type": "Point", "coordinates": [-111.048061,32.14526]}},
{ "type": "Feature", "properties": {"Name":"Dripping Springs CDP","State":"Arizona","State_Abbrev":"AZ"},
"geometry":{ "type": "Point", "coordinates": [-110.754943,33.104917]}},
{ "type": "Feature", "properties": {"Name":"Drysdale CDP","State":"Arizona","State_Abbrev":"AZ"},
"geometry":{ "type": "Point", "coordinates": [-114.706769,32.645241]}},
{ "type": "Feature", "properties": {"Name":"Dudleyville CDP","State":"Arizona","State_Abbrev":"AZ"},
"geometry":{ "type": "Point", "coordinates": [-110.716494,32.860011]}},
{ "type": "Feature", "properties": {"Name":"Duncan town","State":"Arizona","State_Abbrev":"AZ"},
"geometry":{ "type": "Point", "coordinates": [-109.0884,32.749981]}},
{ "type": "Feature", "properties": {"Name":"Eagar town","State":"Arizona","State_Abbrev":"AZ"},
"geometry":{ "type": "Point", "coordinates": [-109.301221,34.10678]}},
{ "type": "Feature", "properties": {"Name":"East Fork CDP","State":"Arizona","State_Abbrev":"AZ"},
"geometry":{ "type": "Point", "coordinates": [-109.920953,33.810682]}},
{ "type": "Feature", "properties": {"Name":"East Globe CDP","State":"Arizona","State_Abbrev":"AZ"},
"geometry":{ "type": "Point", "coordinates": [-110.706186,33.351132]}},
{ "type": "Feature", "properties": {"Name":"East Verde Estates CDP","State":"Arizona","State_Abbrev":"AZ"},
"geometry":{ "type": "Point", "coordinates": [-111.364552,34.298272]}},
{ "type": "Feature", "properties": {"Name":"Ehrenberg CDP","State":"Arizona","State_Abbrev":"AZ"},
"geometry":{ "type": "Point", "coordinates": [-114.483007,33.614208]}},
{ "type": "Feature", "properties": {"Name":"El Capitan CDP","State":"Arizona","State_Abbrev":"AZ"},
"geometry":{ "type": "Point", "coordinates": [-110.78327,33.238318]}},
{ "type": "Feature", "properties": {"Name":"Elephant Head CDP","State":"Arizona","State_Abbrev":"AZ"},
"geometry":{ "type": "Point", "coordinates": [-110.991286,31.766786]}},
{ "type": "Feature", "properties": {"Name":"Elfrida CDP","State":"Arizona","State_Abbrev":"AZ"},
"geometry":{ "type": "Point", "coordinates": [-109.686879,31.679238]}},
{ "type": "Feature", "properties": {"Name":"Elgin CDP","State":"Arizona","State_Abbrev":"AZ"},
"geometry":{ "type": "Point", "coordinates": [-110.532704,31.666552]}},
{ "type": "Feature", "properties": {"Name":"El Mirage city","State":"Arizona","State_Abbrev":"AZ"},
"geometry":{ "type": "Point", "coordinates": [-112.327102,33.590224]}},
{ "type": "Feature", "properties": {"Name":"Eloy city","State":"Arizona","State_Abbrev":"AZ"},
"geometry":{ "type": "Point", "coordinates": [-111.594015,32.741255]}},
{ "type": "Feature", "properties": {"Name":"El Prado Estates CDP","State":"Arizona","State_Abbrev":"AZ"},
"geometry":{ "type": "Point", "coordinates": [-114.521481,32.706214]}},
{ "type": "Feature", "properties": {"Name":"First Mesa CDP","State":"Arizona","State_Abbrev":"AZ"},
"geometry":{ "type": "Point", "coordinates": [-110.368892,35.831663]}},
{ "type": "Feature", "properties": {"Name":"Flagstaff city","State":"Arizona","State_Abbrev":"AZ"},
"geometry":{ "type": "Point", "coordinates": [-111.620698,35.185212]}},
{ "type": "Feature", "properties": {"Name":"Florence town","State":"Arizona","State_Abbrev":"AZ"},
"geometry":{ "type": "Point", "coordinates": [-111.413992,33.069367]}},
{ "type": "Feature", "properties": {"Name":"Flowing Springs CDP","State":"Arizona","State_Abbrev":"AZ"},
"geometry":{ "type": "Point", "coordinates": [-111.334731,34.309304]}},
{ "type": "Feature", "properties": {"Name":"Flowing Wells CDP","State":"Arizona","State_Abbrev":"AZ"},
"geometry":{ "type": "Point", "coordinates": [-111.011055,32.293767]}},
{ "type": "Feature", "properties": {"Name":"Forest Lakes CDP","State":"Arizona","State_Abbrev":"AZ"},
"geometry":{ "type": "Point", "coordinates": [-110.810653,34.329935]}},
{ "type": "Feature", "properties": {"Name":"Fort Apache CDP","State":"Arizona","State_Abbrev":"AZ"},
"geometry":{ "type": "Point", "coordinates": [-109.988614,33.790071]}},
{ "type": "Feature", "properties": {"Name":"Fort Defiance CDP","State":"Arizona","State_Abbrev":"AZ"},
"geometry":{ "type": "Point", "coordinates": [-109.068018,35.747502]}},
{ "type": "Feature", "properties": {"Name":"Fort Mohave CDP","State":"Arizona","State_Abbrev":"AZ"},
"geometry":{ "type": "Point", "coordinates": [-114.574864,35.000432]}},
{ "type": "Feature", "properties": {"Name":"Fort Thomas CDP","State":"Arizona","State_Abbrev":"AZ"},
"geometry":{ "type": "Point", "coordinates": [-109.961258,33.030364]}},
{ "type": "Feature", "properties": {"Name":"Fortuna Foothills CDP","State":"Arizona","State_Abbrev":"AZ"},
"geometry":{ "type": "Point", "coordinates": [-114.397378,32.661583]}},
{ "type": "Feature", "properties": {"Name":"Fort Valley CDP","State":"Arizona","State_Abbrev":"AZ"},
"geometry":{ "type": "Point", "coordinates": [-111.739777,35.322667]}},
{ "type": "Feature", "properties": {"Name":"Fountain Hills town","State":"Arizona","State_Abbrev":"AZ"},
"geometry":{ "type": "Point", "coordinates": [-111.738398,33.607799]}},
{ "type": "Feature", "properties": {"Name":"Franklin CDP","State":"Arizona","State_Abbrev":"AZ"},
"geometry":{ "type": "Point", "coordinates": [-109.072064,32.677031]}},
{ "type": "Feature", "properties": {"Name":"Fredonia town","State":"Arizona","State_Abbrev":"AZ"},
"geometry":{ "type": "Point", "coordinates": [-112.516363,36.961626]}},
{ "type": "Feature", "properties": {"Name":"Freedom Acres CDP","State":"Arizona","State_Abbrev":"AZ"},
"geometry":{ "type": "Point", "coordinates": [-111.305152,34.319886]}},
{ "type": "Feature", "properties": {"Name":"Gadsden CDP","State":"Arizona","State_Abbrev":"AZ"},
"geometry":{ "type": "Point", "coordinates": [-114.781032,32.556359]}},
{ "type": "Feature", "properties": {"Name":"Ganado CDP","State":"Arizona","State_Abbrev":"AZ"},
"geometry":{ "type": "Point", "coordinates": [-109.555727,35.691875]}},
{ "type": "Feature", "properties": {"Name":"Geronimo Estates CDP","State":"Arizona","State_Abbrev":"AZ"},
"geometry":{ "type": "Point", "coordinates": [-111.361802,34.369106]}},
{ "type": "Feature", "properties": {"Name":"Gila Bend town","State":"Arizona","State_Abbrev":"AZ"},
"geometry":{ "type": "Point", "coordinates": [-112.715465,32.966242]}},
{ "type": "Feature", "properties": {"Name":"Gila Crossing CDP","State":"Arizona","State_Abbrev":"AZ"},
"geometry":{ "type": "Point", "coordinates": [-112.162668,33.273015]}},
{ "type": "Feature", "properties": {"Name":"Gilbert town","State":"Arizona","State_Abbrev":"AZ"},
"geometry":{ "type": "Point", "coordinates": [-111.743224,33.310225]}},
{ "type": "Feature", "properties": {"Name":"Gisela CDP","State":"Arizona","State_Abbrev":"AZ"},
"geometry":{ "type": "Point", "coordinates": [-111.288021,34.101818]}},
{ "type": "Feature", "properties": {"Name":"Glendale city","State":"Arizona","State_Abbrev":"AZ"},
"geometry":{ "type": "Point", "coordinates": [-112.189901,33.533111]}},
{ "type": "Feature", "properties": {"Name":"Globe city","State":"Arizona","State_Abbrev":"AZ"},
"geometry":{ "type": "Point", "coordinates": [-110.741106,33.393642]}},
{ "type": "Feature", "properties": {"Name":"Gold Canyon CDP","State":"Arizona","State_Abbrev":"AZ"},
"geometry":{ "type": "Point", "coordinates": [-111.42298,33.363903]}},
{ "type": "Feature", "properties": {"Name":"Golden Shores CDP","State":"Arizona","State_Abbrev":"AZ"},
"geometry":{ "type": "Point", "coordinates": [-114.477749,34.781881]}},
{ "type": "Feature", "properties": {"Name":"Golden Valley CDP","State":"Arizona","State_Abbrev":"AZ"},
"geometry":{ "type": "Point", "coordinates": [-114.232753,35.206066]}},
{ "type": "Feature", "properties": {"Name":"Goodyear city","State":"Arizona","State_Abbrev":"AZ"},
"geometry":{ "type": "Point", "coordinates": [-112.366472,33.254031]}},
{ "type": "Feature", "properties": {"Name":"Goodyear Village CDP","State":"Arizona","State_Abbrev":"AZ"},
"geometry":{ "type": "Point", "coordinates": [-111.872344,33.197313]}},
{ "type": "Feature", "properties": {"Name":"Grand Canyon Village CDP","State":"Arizona","State_Abbrev":"AZ"},
"geometry":{ "type": "Point", "coordinates": [-112.157912,36.059483]}},
{ "type": "Feature", "properties": {"Name":"Grand Canyon West CDP","State":"Arizona","State_Abbrev":"AZ"},
"geometry":{ "type": "Point", "coordinates": [-113.804103,36.004418]}},
{ "type": "Feature", "properties": {"Name":"Greasewood CDP","State":"Arizona","State_Abbrev":"AZ"},
"geometry":{ "type": "Point", "coordinates": [-109.860867,35.52864]}},
{ "type": "Feature", "properties": {"Name":"Greenehaven CDP","State":"Arizona","State_Abbrev":"AZ"},
"geometry":{ "type": "Point", "coordinates": [-111.556564,36.99597]}},
{ "type": "Feature", "properties": {"Name":"Green Valley CDP","State":"Arizona","State_Abbrev":"AZ"},
"geometry":{ "type": "Point", "coordinates": [-111.004482,31.840843]}},
{ "type": "Feature", "properties": {"Name":"Greer CDP","State":"Arizona","State_Abbrev":"AZ"},
"geometry":{ "type": "Point", "coordinates": [-109.460586,34.005751]}},
{ "type": "Feature", "properties": {"Name":"Guadalupe town","State":"Arizona","State_Abbrev":"AZ"},
"geometry":{ "type": "Point", "coordinates": [-111.963156,33.366453]}},
{ "type": "Feature", "properties": {"Name":"Gu Oidak CDP","State":"Arizona","State_Abbrev":"AZ"},
"geometry":{ "type": "Point", "coordinates": [-112.024057,31.920289]}},
{ "type": "Feature", "properties": {"Name":"Hackberry CDP","State":"Arizona","State_Abbrev":"AZ"},
"geometry":{ "type": "Point", "coordinates": [-113.725629,35.340096]}},
{ "type": "Feature", "properties": {"Name":"Haigler Creek CDP","State":"Arizona","State_Abbrev":"AZ"},
"geometry":{ "type": "Point", "coordinates": [-110.971427,34.219634]}},
{ "type": "Feature", "properties": {"Name":"Haivana Nakya CDP","State":"Arizona","State_Abbrev":"AZ"},
"geometry":{ "type": "Point", "coordinates": [-111.712418,32.005154]}},
{ "type": "Feature", "properties": {"Name":"Hard Rock CDP","State":"Arizona","State_Abbrev":"AZ"},
"geometry":{ "type": "Point", "coordinates": [-110.504157,36.030238]}},
{ "type": "Feature", "properties": {"Name":"Hayden town","State":"Arizona","State_Abbrev":"AZ"},
"geometry":{ "type": "Point", "coordinates": [-110.779872,32.994887]}},
{ "type": "Feature", "properties": {"Name":"Heber-Overgaard CDP","State":"Arizona","State_Abbrev":"AZ"},
"geometry":{ "type": "Point", "coordinates": [-110.569561,34.414141]}},
{ "type": "Feature", "properties": {"Name":"Holbrook city","State":"Arizona","State_Abbrev":"AZ"},
"geometry":{ "type": "Point", "coordinates": [-110.16721,34.904624]}},
{ "type": "Feature", "properties": {"Name":"Hondah CDP","State":"Arizona","State_Abbrev":"AZ"},
"geometry":{ "type": "Point", "coordinates": [-109.934383,34.094297]}},
{ "type": "Feature", "properties": {"Name":"Hotevilla-Bacavi CDP","State":"Arizona","State_Abbrev":"AZ"},
"geometry":{ "type": "Point", "coordinates": [-110.640714,35.920744]}},
{ "type": "Feature", "properties": {"Name":"Houck CDP","State":"Arizona","State_Abbrev":"AZ"},
"geometry":{ "type": "Point", "coordinates": [-109.22344,35.269308]}},
{ "type": "Feature", "properties": {"Name":"Huachuca City town","State":"Arizona","State_Abbrev":"AZ"},
"geometry":{ "type": "Point", "coordinates": [-110.342193,31.630804]}},
{ "type": "Feature", "properties": {"Name":"Hunter Creek CDP","State":"Arizona","State_Abbrev":"AZ"},
"geometry":{ "type": "Point", "coordinates": [-111.016516,34.306974]}},
{ "type": "Feature", "properties": {"Name":"Icehouse Canyon CDP","State":"Arizona","State_Abbrev":"AZ"},
"geometry":{ "type": "Point", "coordinates": [-110.801154,33.34613]}},
{ "type": "Feature", "properties": {"Name":"Indian Wells CDP","State":"Arizona","State_Abbrev":"AZ"},
"geometry":{ "type": "Point", "coordinates": [-110.114439,35.40925]}},
{ "type": "Feature", "properties": {"Name":"Jakes Corner CDP","State":"Arizona","State_Abbrev":"AZ"},
"geometry":{ "type": "Point", "coordinates": [-111.320226,34.008227]}},
{ "type": "Feature", "properties": {"Name":"Jeddito CDP","State":"Arizona","State_Abbrev":"AZ"},
"geometry":{ "type": "Point", "coordinates": [-110.12782,35.768199]}},
{ "type": "Feature", "properties": {"Name":"Jerome town","State":"Arizona","State_Abbrev":"AZ"},
"geometry":{ "type": "Point", "coordinates": [-112.107515,34.747088]}},
{ "type": "Feature", "properties": {"Name":"Joseph City CDP","State":"Arizona","State_Abbrev":"AZ"},
"geometry":{ "type": "Point", "coordinates": [-110.329039,34.963693]}},
{ "type": "Feature", "properties": {"Name":"J-Six Ranchettes CDP","State":"Arizona","State_Abbrev":"AZ"},
"geometry":{ "type": "Point", "coordinates": [-110.466357,31.9666]}},
{ "type": "Feature", "properties": {"Name":"Kachina Village CDP","State":"Arizona","State_Abbrev":"AZ"},
"geometry":{ "type": "Point", "coordinates": [-111.695974,35.092432]}},
{ "type": "Feature", "properties": {"Name":"Kaibab CDP","State":"Arizona","State_Abbrev":"AZ"},
"geometry":{ "type": "Point", "coordinates": [-112.725597,36.879665]}},
{ "type": "Feature", "properties": {"Name":"Kaibab Estates West CDP","State":"Arizona","State_Abbrev":"AZ"},
"geometry":{ "type": "Point", "coordinates": [-112.498543,35.274797]}},
{ "type": "Feature", "properties": {"Name":"Kaibito CDP","State":"Arizona","State_Abbrev":"AZ"},
"geometry":{ "type": "Point", "coordinates": [-111.107135,36.592003]}},
{ "type": "Feature", "properties": {"Name":"Kaka CDP","State":"Arizona","State_Abbrev":"AZ"},
"geometry":{ "type": "Point", "coordinates": [-112.313845,32.512294]}},
{ "type": "Feature", "properties": {"Name":"Katherine CDP","State":"Arizona","State_Abbrev":"AZ"},
"geometry":{ "type": "Point", "coordinates": [-114.561326,35.22077]}},
{ "type": "Feature", "properties": {"Name":"Kayenta CDP","State":"Arizona","State_Abbrev":"AZ"},
"geometry":{ "type": "Point", "coordinates": [-110.260459,36.717169]}},
{ "type": "Feature", "properties": {"Name":"Keams Canyon CDP","State":"Arizona","State_Abbrev":"AZ"},
"geometry":{ "type": "Point", "coordinates": [-110.203743,35.820837]}},
{ "type": "Feature", "properties": {"Name":"Kearny town","State":"Arizona","State_Abbrev":"AZ"},
"geometry":{ "type": "Point", "coordinates": [-110.907091,33.056392]}},
{ "type": "Feature", "properties": {"Name":"Kingman city","State":"Arizona","State_Abbrev":"AZ"},
"geometry":{ "type": "Point", "coordinates": [-114.010529,35.216992]}},
{ "type": "Feature", "properties": {"Name":"Kino Springs CDP","State":"Arizona","State_Abbrev":"AZ"},
"geometry":{ "type": "Point", "coordinates": [-110.809745,31.364128]}},
{ "type": "Feature", "properties": {"Name":"Klagetoh CDP","State":"Arizona","State_Abbrev":"AZ"},
"geometry":{ "type": "Point", "coordinates": [-109.530457,35.499997]}},
{ "type": "Feature", "properties": {"Name":"Kleindale CDP","State":"Arizona","State_Abbrev":"AZ"},
"geometry":{ "type": "Point", "coordinates": [-110.91458,32.268112]}},
{ "type": "Feature", "properties": {"Name":"Kohatk CDP","State":"Arizona","State_Abbrev":"AZ"},
"geometry":{ "type": "Point", "coordinates": [-112.003013,32.578281]}},
{ "type": "Feature", "properties": {"Name":"Kohls Ranch CDP","State":"Arizona","State_Abbrev":"AZ"},
"geometry":{ "type": "Point", "coordinates": [-111.083889,34.321053]}},
{ "type": "Feature", "properties": {"Name":"Komatke CDP","State":"Arizona","State_Abbrev":"AZ"},
"geometry":{ "type": "Point", "coordinates": [-112.162475,33.296773]}},
{ "type": "Feature", "properties": {"Name":"Ko Vaya CDP","State":"Arizona","State_Abbrev":"AZ"},
"geometry":{ "type": "Point", "coordinates": [-111.895875,32.081502]}},
{ "type": "Feature", "properties": {"Name":"Kykotsmovi Village CDP","State":"Arizona","State_Abbrev":"AZ"},
"geometry":{ "type": "Point", "coordinates": [-110.656849,35.810245]}},
{ "type": "Feature", "properties": {"Name":"Lake Havasu City city","State":"Arizona","State_Abbrev":"AZ"},
"geometry":{ "type": "Point", "coordinates": [-114.310943,34.499809]}},
{ "type": "Feature", "properties": {"Name":"Lake Montezuma CDP","State":"Arizona","State_Abbrev":"AZ"},
"geometry":{ "type": "Point", "coordinates": [-111.800945,34.636908]}},
{ "type": "Feature", "properties": {"Name":"Lake of the Woods CDP","State":"Arizona","State_Abbrev":"AZ"},
"geometry":{ "type": "Point", "coordinates": [-109.994275,34.152635]}},
{ "type": "Feature", "properties": {"Name":"La Paz Valley CDP","State":"Arizona","State_Abbrev":"AZ"},
"geometry":{ "type": "Point", "coordinates": [-114.243451,33.558215]}},
{ "type": "Feature", "properties": {"Name":"Lazy Y U CDP","State":"Arizona","State_Abbrev":"AZ"},
"geometry":{ "type": "Point", "coordinates": [-113.968463,35.136913]}},
{ "type": "Feature", "properties": {"Name":"LeChee CDP","State":"Arizona","State_Abbrev":"AZ"},
"geometry":{ "type": "Point", "coordinates": [-111.424438,36.860892]}},
{ "type": "Feature", "properties": {"Name":"Leupp CDP","State":"Arizona","State_Abbrev":"AZ"},
"geometry":{ "type": "Point", "coordinates": [-111.003626,35.296609]}},
{ "type": "Feature", "properties": {"Name":"Linden CDP","State":"Arizona","State_Abbrev":"AZ"},
"geometry":{ "type": "Point", "coordinates": [-110.136392,34.269579]}},
{ "type": "Feature", "properties": {"Name":"Litchfield Park city","State":"Arizona","State_Abbrev":"AZ"},
"geometry":{ "type": "Point", "coordinates": [-112.35947,33.501761]}},
{ "type": "Feature", "properties": {"Name":"Littlefield CDP","State":"Arizona","State_Abbrev":"AZ"},
"geometry":{ "type": "Point", "coordinates": [-113.935976,36.865925]}},
{ "type": "Feature", "properties": {"Name":"Lower Santan Village CDP","State":"Arizona","State_Abbrev":"AZ"},
"geometry":{ "type": "Point", "coordinates": [-111.785293,33.142817]}},
{ "type": "Feature", "properties": {"Name":"Low Mountain CDP","State":"Arizona","State_Abbrev":"AZ"},
"geometry":{ "type": "Point", "coordinates": [-110.100455,35.948058]}},
{ "type": "Feature", "properties": {"Name":"Lukachukai CDP","State":"Arizona","State_Abbrev":"AZ"},
"geometry":{ "type": "Point", "coordinates": [-109.225538,36.411233]}},
{ "type": "Feature", "properties": {"Name":"Lupton CDP","State":"Arizona","State_Abbrev":"AZ"},
"geometry":{ "type": "Point", "coordinates": [-109.052817,35.354743]}},
{ "type": "Feature", "properties": {"Name":"McConnico CDP","State":"Arizona","State_Abbrev":"AZ"},
"geometry":{ "type": "Point", "coordinates": [-114.089738,35.163594]}},
{ "type": "Feature", "properties": {"Name":"McNary CDP","State":"Arizona","State_Abbrev":"AZ"},
"geometry":{ "type": "Point", "coordinates": [-109.851376,34.092153]}},
{ "type": "Feature", "properties": {"Name":"McNeal CDP","State":"Arizona","State_Abbrev":"AZ"},
"geometry":{ "type": "Point", "coordinates": [-109.658267,31.610078]}},
{ "type": "Feature", "properties": {"Name":"Maish Vaya CDP","State":"Arizona","State_Abbrev":"AZ"},
"geometry":{ "type": "Point", "coordinates": [-112.134196,32.170295]}},
{ "type": "Feature", "properties": {"Name":"Mammoth town","State":"Arizona","State_Abbrev":"AZ"},
"geometry":{ "type": "Point", "coordinates": [-110.729279,32.685174]}},
{ "type": "Feature", "properties": {"Name":"Many Farms CDP","State":"Arizona","State_Abbrev":"AZ"},
"geometry":{ "type": "Point", "coordinates": [-109.637623,36.342893]}},
{ "type": "Feature", "properties": {"Name":"Marana town","State":"Arizona","State_Abbrev":"AZ"},
"geometry":{ "type": "Point", "coordinates": [-111.135401,32.465939]}},
{ "type": "Feature", "properties": {"Name":"Maricopa city","State":"Arizona","State_Abbrev":"AZ"},
"geometry":{ "type": "Point", "coordinates": [-111.999259,33.041942]}},
{ "type": "Feature", "properties": {"Name":"Maricopa Colony CDP","State":"Arizona","State_Abbrev":"AZ"},
"geometry":{ "type": "Point", "coordinates": [-112.226809,33.36259]}},
{ "type": "Feature", "properties": {"Name":"Martinez Lake CDP","State":"Arizona","State_Abbrev":"AZ"},
"geometry":{ "type": "Point", "coordinates": [-114.468228,32.975468]}},
{ "type": "Feature", "properties": {"Name":"Mayer CDP","State":"Arizona","State_Abbrev":"AZ"},
"geometry":{ "type": "Point", "coordinates": [-112.240747,34.423271]}},
{ "type": "Feature", "properties": {"Name":"Mead Ranch CDP","State":"Arizona","State_Abbrev":"AZ"},
"geometry":{ "type": "Point", "coordinates": [-111.142799,34.346131]}},
{ "type": "Feature", "properties": {"Name":"Meadview CDP","State":"Arizona","State_Abbrev":"AZ"},
"geometry":{ "type": "Point", "coordinates": [-114.078871,35.953156]}},
{ "type": "Feature", "properties": {"Name":"Mesa city","State":"Arizona","State_Abbrev":"AZ"},
"geometry":{ "type": "Point", "coordinates": [-111.716487,33.400626]}},
{ "type": "Feature", "properties": {"Name":"Mesa del Caballo CDP","State":"Arizona","State_Abbrev":"AZ"},
"geometry":{ "type": "Point", "coordinates": [-111.295227,34.285904]}},
{ "type": "Feature", "properties": {"Name":"Mescal CDP","State":"Arizona","State_Abbrev":"AZ"},
"geometry":{ "type": "Point", "coordinates": [-110.436582,31.96743]}},
{ "type": "Feature", "properties": {"Name":"Mesquite Creek CDP","State":"Arizona","State_Abbrev":"AZ"},
"geometry":{ "type": "Point", "coordinates": [-114.571402,34.960658]}},
{ "type": "Feature", "properties": {"Name":"Miami town","State":"Arizona","State_Abbrev":"AZ"},
"geometry":{ "type": "Point", "coordinates": [-110.872382,33.395065]}},
{ "type": "Feature", "properties": {"Name":"Miracle Valley CDP","State":"Arizona","State_Abbrev":"AZ"},
"geometry":{ "type": "Point", "coordinates": [-110.14853,31.382924]}},
{ "type": "Feature", "properties": {"Name":"Moccasin CDP","State":"Arizona","State_Abbrev":"AZ"},
"geometry":{ "type": "Point", "coordinates": [-112.754507,36.909836]}},
{ "type": "Feature", "properties": {"Name":"Moenkopi CDP","State":"Arizona","State_Abbrev":"AZ"},
"geometry":{ "type": "Point", "coordinates": [-111.221242,36.112484]}},
{ "type": "Feature", "properties": {"Name":"Mohave Valley CDP","State":"Arizona","State_Abbrev":"AZ"},
"geometry":{ "type": "Point", "coordinates": [-114.571389,34.902431]}},
{ "type": "Feature", "properties": {"Name":"Mojave Ranch Estates CDP","State":"Arizona","State_Abbrev":"AZ"},
"geometry":{ "type": "Point", "coordinates": [-114.590643,34.944901]}},
{ "type": "Feature", "properties": {"Name":"Morenci CDP","State":"Arizona","State_Abbrev":"AZ"},
"geometry":{ "type": "Point", "coordinates": [-109.333094,33.058238]}},
{ "type": "Feature", "properties": {"Name":"Mormon Lake CDP","State":"Arizona","State_Abbrev":"AZ"},
"geometry":{ "type": "Point", "coordinates": [-111.455151,34.911054]}},
{ "type": "Feature", "properties": {"Name":"Morristown CDP","State":"Arizona","State_Abbrev":"AZ"},
"geometry":{ "type": "Point", "coordinates": [-112.612886,33.855895]}},
{ "type": "Feature", "properties": {"Name":"Mountainaire CDP","State":"Arizona","State_Abbrev":"AZ"},
"geometry":{ "type": "Point", "coordinates": [-111.645195,35.093767]}},
{ "type": "Feature", "properties": {"Name":"Mountain View Ranches CDP","State":"Arizona","State_Abbrev":"AZ"},
"geometry":{ "type": "Point", "coordinates": [-111.472767,35.233569]}},
{ "type": "Feature", "properties": {"Name":"Munds Park CDP","State":"Arizona","State_Abbrev":"AZ"},
"geometry":{ "type": "Point", "coordinates": [-111.628983,34.938261]}},
{ "type": "Feature", "properties": {"Name":"Naco CDP","State":"Arizona","State_Abbrev":"AZ"},
"geometry":{ "type": "Point", "coordinates": [-109.927089,31.345999]}},
{ "type": "Feature", "properties": {"Name":"Nazlini CDP","State":"Arizona","State_Abbrev":"AZ"},
"geometry":{ "type": "Point", "coordinates": [-109.474672,35.911225]}},
{ "type": "Feature", "properties": {"Name":"Nelson CDP","State":"Arizona","State_Abbrev":"AZ"},
"geometry":{ "type": "Point", "coordinates": [-111.26489,32.429828]}},
{ "type": "Feature", "properties": {"Name":"New Kingman-Butler CDP","State":"Arizona","State_Abbrev":"AZ"},
"geometry":{ "type": "Point", "coordinates": [-114.009073,35.264487]}},
{ "type": "Feature", "properties": {"Name":"New River CDP","State":"Arizona","State_Abbrev":"AZ"},
"geometry":{ "type": "Point", "coordinates": [-112.086107,33.882591]}},
{ "type": "Feature", "properties": {"Name":"Nogales city","State":"Arizona","State_Abbrev":"AZ"},
"geometry":{ "type": "Point", "coordinates": [-110.93482,31.361928]}},
{ "type": "Feature", "properties": {"Name":"Nolic CDP","State":"Arizona","State_Abbrev":"AZ"},
"geometry":{ "type": "Point", "coordinates": [-111.955021,32.034183]}},
{ "type": "Feature", "properties": {"Name":"North Fork CDP","State":"Arizona","State_Abbrev":"AZ"},
"geometry":{ "type": "Point", "coordinates": [-109.959543,34.01057]}},
{ "type": "Feature", "properties": {"Name":"Nutrioso CDP","State":"Arizona","State_Abbrev":"AZ"},
"geometry":{ "type": "Point", "coordinates": [-109.206202,33.95127]}},
{ "type": "Feature", "properties": {"Name":"Oak Creek Canyon CDP","State":"Arizona","State_Abbrev":"AZ"},
"geometry":{ "type": "Point", "coordinates": [-111.750429,34.948928]}},
{ "type": "Feature", "properties": {"Name":"Oak Springs CDP","State":"Arizona","State_Abbrev":"AZ"},
"geometry":{ "type": "Point", "coordinates": [-109.13182,35.47602]}},
{ "type": "Feature", "properties": {"Name":"Oatman CDP","State":"Arizona","State_Abbrev":"AZ"},
"geometry":{ "type": "Point", "coordinates": [-114.38386,35.027375]}},
{ "type": "Feature", "properties": {"Name":"Oljato-Monument Valley CDP","State":"Arizona","State_Abbrev":"AZ"},
"geometry":{ "type": "Point", "coordinates": [-110.209642,36.987248]}},
{ "type": "Feature", "properties": {"Name":"Oracle CDP","State":"Arizona","State_Abbrev":"AZ"},
"geometry":{ "type": "Point", "coordinates": [-110.782344,32.608424]}},
{ "type": "Feature", "properties": {"Name":"Orange Grove Mobile Manor CDP","State":"Arizona","State_Abbrev":"AZ"},
"geometry":{ "type": "Point", "coordinates": [-114.660588,32.598451]}},
{ "type": "Feature", "properties": {"Name":"Oro Valley town","State":"Arizona","State_Abbrev":"AZ"},
"geometry":{ "type": "Point", "coordinates": [-110.977,32.420713]}},
{ "type": "Feature", "properties": {"Name":"Oxbow Estates CDP","State":"Arizona","State_Abbrev":"AZ"},
"geometry":{ "type": "Point", "coordinates": [-111.343015,34.18035]}},
{ "type": "Feature", "properties": {"Name":"Padre Ranchitos CDP","State":"Arizona","State_Abbrev":"AZ"},
"geometry":{ "type": "Point", "coordinates": [-114.641584,32.649591]}},
{ "type": "Feature", "properties": {"Name":"Page city","State":"Arizona","State_Abbrev":"AZ"},
"geometry":{ "type": "Point", "coordinates": [-111.513283,36.941815]}},
{ "type": "Feature", "properties": {"Name":"Palominas CDP","State":"Arizona","State_Abbrev":"AZ"},
"geometry":{ "type": "Point", "coordinates": [-110.115065,31.387556]}},
{ "type": "Feature", "properties": {"Name":"Paradise Valley town","State":"Arizona","State_Abbrev":"AZ"},
"geometry":{ "type": "Point", "coordinates": [-111.96133,33.552157]}},
{ "type": "Feature", "properties": {"Name":"Parker town","State":"Arizona","State_Abbrev":"AZ"},
"geometry":{ "type": "Point", "coordinates": [-114.228159,34.033963]}},
{ "type": "Feature", "properties": {"Name":"Parker Strip CDP","State":"Arizona","State_Abbrev":"AZ"},
"geometry":{ "type": "Point", "coordinates": [-114.129689,34.270721]}},
{ "type": "Feature", "properties": {"Name":"Parks CDP","State":"Arizona","State_Abbrev":"AZ"},
"geometry":{ "type": "Point", "coordinates": [-111.967182,35.285249]}},
{ "type": "Feature", "properties": {"Name":"Patagonia town","State":"Arizona","State_Abbrev":"AZ"},
"geometry":{ "type": "Point", "coordinates": [-110.745463,31.544744]}},
{ "type": "Feature", "properties": {"Name":"Paulden CDP","State":"Arizona","State_Abbrev":"AZ"},
"geometry":{ "type": "Point", "coordinates": [-112.493724,34.889655]}},
{ "type": "Feature", "properties": {"Name":"Payson town","State":"Arizona","State_Abbrev":"AZ"},
"geometry":{ "type": "Point", "coordinates": [-111.318964,34.243841]}},
{ "type": "Feature", "properties": {"Name":"Peach Springs CDP","State":"Arizona","State_Abbrev":"AZ"},
"geometry":{ "type": "Point", "coordinates": [-113.43198,35.53145]}},
{ "type": "Feature", "properties": {"Name":"Peeples Valley CDP","State":"Arizona","State_Abbrev":"AZ"},
"geometry":{ "type": "Point", "coordinates": [-112.765341,34.277224]}},
{ "type": "Feature", "properties": {"Name":"Peoria city","State":"Arizona","State_Abbrev":"AZ"},
"geometry":{ "type": "Point", "coordinates": [-112.308042,33.786186]}},
{ "type": "Feature", "properties": {"Name":"Peridot CDP","State":"Arizona","State_Abbrev":"AZ"},
"geometry":{ "type": "Point", "coordinates": [-110.459033,33.303346]}},
{ "type": "Feature", "properties": {"Name":"Phoenix city","State":"Arizona","State_Abbrev":"AZ"},
"geometry":{ "type": "Point", "coordinates": [-112.090132,33.572154]}},
{ "type": "Feature", "properties": {"Name":"Picacho CDP","State":"Arizona","State_Abbrev":"AZ"},
"geometry":{ "type": "Point", "coordinates": [-111.494188,32.710189]}},
{ "type": "Feature", "properties": {"Name":"Picture Rocks CDP","State":"Arizona","State_Abbrev":"AZ"},
"geometry":{ "type": "Point", "coordinates": [-111.259861,32.324713]}},
{ "type": "Feature", "properties": {"Name":"Pima town","State":"Arizona","State_Abbrev":"AZ"},
"geometry":{ "type": "Point", "coordinates": [-109.844268,32.891886]}},
{ "type": "Feature", "properties": {"Name":"Pinal CDP","State":"Arizona","State_Abbrev":"AZ"},
"geometry":{ "type": "Point", "coordinates": [-110.757245,33.380145]}},
{ "type": "Feature", "properties": {"Name":"Pine CDP","State":"Arizona","State_Abbrev":"AZ"},
"geometry":{ "type": "Point", "coordinates": [-111.460476,34.380348]}},
{ "type": "Feature", "properties": {"Name":"Pinedale CDP","State":"Arizona","State_Abbrev":"AZ"},
"geometry":{ "type": "Point", "coordinates": [-110.259901,34.320724]}},
{ "type": "Feature", "properties": {"Name":"Pine Lake CDP","State":"Arizona","State_Abbrev":"AZ"},
"geometry":{ "type": "Point", "coordinates": [-113.873928,35.088699]}},
{ "type": "Feature", "properties": {"Name":"Pinetop Country Club CDP","State":"Arizona","State_Abbrev":"AZ"},
"geometry":{ "type": "Point", "coordinates": [-109.891009,34.116435]}},
{ "type": "Feature", "properties": {"Name":"Pinetop-Lakeside town","State":"Arizona","State_Abbrev":"AZ"},
"geometry":{ "type": "Point", "coordinates": [-109.965998,34.148424]}},
{ "type": "Feature", "properties": {"Name":"Pinion Pines CDP","State":"Arizona","State_Abbrev":"AZ"},
"geometry":{ "type": "Point", "coordinates": [-113.905814,35.14663]}},
{ "type": "Feature", "properties": {"Name":"Pinon CDP","State":"Arizona","State_Abbrev":"AZ"},
"geometry":{ "type": "Point", "coordinates": [-110.219116,36.098856]}},
{ "type": "Feature", "properties": {"Name":"Pirtleville CDP","State":"Arizona","State_Abbrev":"AZ"},
"geometry":{ "type": "Point", "coordinates": [-109.566052,31.360894]}},
{ "type": "Feature", "properties": {"Name":"Pisinemo CDP","State":"Arizona","State_Abbrev":"AZ"},
"geometry":{ "type": "Point", "coordinates": [-112.319228,32.034917]}},
{ "type": "Feature", "properties": {"Name":"Poston CDP","State":"Arizona","State_Abbrev":"AZ"},
"geometry":{ "type": "Point", "coordinates": [-114.404454,33.99209]}},
{ "type": "Feature", "properties": {"Name":"Prescott city","State":"Arizona","State_Abbrev":"AZ"},
"geometry":{ "type": "Point", "coordinates": [-112.446241,34.585842]}},
{ "type": "Feature", "properties": {"Name":"Prescott Valley town","State":"Arizona","State_Abbrev":"AZ"},
"geometry":{ "type": "Point", "coordinates": [-112.318532,34.597921]}},
{ "type": "Feature", "properties": {"Name":"Quartzsite town","State":"Arizona","State_Abbrev":"AZ"},
"geometry":{ "type": "Point", "coordinates": [-114.217041,33.667507]}},
{ "type": "Feature", "properties": {"Name":"Queen Creek town","State":"Arizona","State_Abbrev":"AZ"},
"geometry":{ "type": "Point", "coordinates": [-111.613319,33.239425]}},
{ "type": "Feature", "properties": {"Name":"Queen Valley CDP","State":"Arizona","State_Abbrev":"AZ"},
"geometry":{ "type": "Point", "coordinates": [-111.304973,33.283043]}},
{ "type": "Feature", "properties": {"Name":"Rainbow City CDP","State":"Arizona","State_Abbrev":"AZ"},
"geometry":{ "type": "Point", "coordinates": [-109.976277,33.873031]}},
{ "type": "Feature", "properties": {"Name":"Rancho Mesa Verde CDP","State":"Arizona","State_Abbrev":"AZ"},
"geometry":{ "type": "Point", "coordinates": [-114.655084,32.594385]}},
{ "type": "Feature", "properties": {"Name":"Red Lake CDP","State":"Arizona","State_Abbrev":"AZ"},
"geometry":{ "type": "Point", "coordinates": [-112.172127,35.361487]}},
{ "type": "Feature", "properties": {"Name":"Red Mesa CDP","State":"Arizona","State_Abbrev":"AZ"},
"geometry":{ "type": "Point", "coordinates": [-109.36982,36.971111]}},
{ "type": "Feature", "properties": {"Name":"Red Rock CDP","State":"Arizona","State_Abbrev":"AZ"},
"geometry":{ "type": "Point", "coordinates": [-109.064539,36.601117]}},
{ "type": "Feature", "properties": {"Name":"Red Rock CDP","State":"Arizona","State_Abbrev":"AZ"},
"geometry":{ "type": "Point", "coordinates": [-111.374004,32.561182]}},
{ "type": "Feature", "properties": {"Name":"Rillito CDP","State":"Arizona","State_Abbrev":"AZ"},
"geometry":{ "type": "Point", "coordinates": [-111.154822,32.415531]}},
{ "type": "Feature", "properties": {"Name":"Rincon Valley CDP","State":"Arizona","State_Abbrev":"AZ"},
"geometry":{ "type": "Point", "coordinates": [-110.688976,32.109993]}},
{ "type": "Feature", "properties": {"Name":"Rio Rico CDP","State":"Arizona","State_Abbrev":"AZ"},
"geometry":{ "type": "Point", "coordinates": [-110.987798,31.498168]}},
{ "type": "Feature", "properties": {"Name":"Rio Verde CDP","State":"Arizona","State_Abbrev":"AZ"},
"geometry":{ "type": "Point", "coordinates": [-111.675849,33.726592]}},
{ "type": "Feature", "properties": {"Name":"Rock House CDP","State":"Arizona","State_Abbrev":"AZ"},
"geometry":{ "type": "Point", "coordinates": [-110.941078,33.630654]}},
{ "type": "Feature", "properties": {"Name":"Rock Point CDP","State":"Arizona","State_Abbrev":"AZ"},
"geometry":{ "type": "Point", "coordinates": [-109.619491,36.696848]}},
{ "type": "Feature", "properties": {"Name":"Roosevelt CDP","State":"Arizona","State_Abbrev":"AZ"},
"geometry":{ "type": "Point", "coordinates": [-111.127051,33.657393]}},
{ "type": "Feature", "properties": {"Name":"Roosevelt Estates CDP","State":"Arizona","State_Abbrev":"AZ"},
"geometry":{ "type": "Point", "coordinates": [-110.999784,33.62019]}},
{ "type": "Feature", "properties": {"Name":"Rough Rock CDP","State":"Arizona","State_Abbrev":"AZ"},
"geometry":{ "type": "Point", "coordinates": [-109.868403,36.409489]}},
{ "type": "Feature", "properties": {"Name":"Round Rock CDP","State":"Arizona","State_Abbrev":"AZ"},
"geometry":{ "type": "Point", "coordinates": [-109.463156,36.504256]}},
{ "type": "Feature", "properties": {"Name":"Round Valley CDP","State":"Arizona","State_Abbrev":"AZ"},
"geometry":{ "type": "Point", "coordinates": [-111.301801,34.187758]}},
{ "type": "Feature", "properties": {"Name":"Rye CDP","State":"Arizona","State_Abbrev":"AZ"},
"geometry":{ "type": "Point", "coordinates": [-111.354263,34.097775]}},
{ "type": "Feature", "properties": {"Name":"Sacate Village CDP","State":"Arizona","State_Abbrev":"AZ"},
"geometry":{ "type": "Point", "coordinates": [-111.977566,33.13986]}},
{ "type": "Feature", "properties": {"Name":"Sacaton CDP","State":"Arizona","State_Abbrev":"AZ"},
"geometry":{ "type": "Point", "coordinates": [-111.762914,33.077548]}},
{ "type": "Feature", "properties": {"Name":"Sacaton Flats Village CDP","State":"Arizona","State_Abbrev":"AZ"},
"geometry":{ "type": "Point", "coordinates": [-111.661002,33.05664]}},
{ "type": "Feature", "properties": {"Name":"Saddlebrooke CDP","State":"Arizona","State_Abbrev":"AZ"},
"geometry":{ "type": "Point", "coordinates": [-110.874676,32.556421]}},
{ "type": "Feature", "properties": {"Name":"Safford city","State":"Arizona","State_Abbrev":"AZ"},
"geometry":{ "type": "Point", "coordinates": [-109.697418,32.833298]}},
{ "type": "Feature", "properties": {"Name":"Sahuarita town","State":"Arizona","State_Abbrev":"AZ"},
"geometry":{ "type": "Point", "coordinates": [-110.965395,31.932238]}},
{ "type": "Feature", "properties": {"Name":"St. David CDP","State":"Arizona","State_Abbrev":"AZ"},
"geometry":{ "type": "Point", "coordinates": [-110.221485,31.886037]}},
{ "type": "Feature", "properties": {"Name":"St. Johns city","State":"Arizona","State_Abbrev":"AZ"},
"geometry":{ "type": "Point", "coordinates": [-109.37691,34.500368]}},
{ "type": "Feature", "properties": {"Name":"St. Johns CDP","State":"Arizona","State_Abbrev":"AZ"},
"geometry":{ "type": "Point", "coordinates": [-112.197381,33.308487]}},
{ "type": "Feature", "properties": {"Name":"St. Michaels CDP","State":"Arizona","State_Abbrev":"AZ"},
"geometry":{ "type": "Point", "coordinates": [-109.096174,35.660559]}},
{ "type": "Feature", "properties": {"Name":"Salome CDP","State":"Arizona","State_Abbrev":"AZ"},
"geometry":{ "type": "Point", "coordinates": [-113.606047,33.777771]}},
{ "type": "Feature", "properties": {"Name":"San Carlos CDP","State":"Arizona","State_Abbrev":"AZ"},
"geometry":{ "type": "Point", "coordinates": [-110.477712,33.344561]}},
{ "type": "Feature", "properties": {"Name":"Sanders CDP","State":"Arizona","State_Abbrev":"AZ"},
"geometry":{ "type": "Point", "coordinates": [-109.319118,35.209217]}},
{ "type": "Feature", "properties": {"Name":"San Jose CDP","State":"Arizona","State_Abbrev":"AZ"},
"geometry":{ "type": "Point", "coordinates": [-109.5948,32.817963]}},
{ "type": "Feature", "properties": {"Name":"San Luis city","State":"Arizona","State_Abbrev":"AZ"},
"geometry":{ "type": "Point", "coordinates": [-114.723414,32.486181]}},
{ "type": "Feature", "properties": {"Name":"San Manuel CDP","State":"Arizona","State_Abbrev":"AZ"},
"geometry":{ "type": "Point", "coordinates": [-110.641508,32.609133]}},
{ "type": "Feature", "properties": {"Name":"San Miguel CDP","State":"Arizona","State_Abbrev":"AZ"},
"geometry":{ "type": "Point", "coordinates": [-111.780134,31.629493]}},
{ "type": "Feature", "properties": {"Name":"San Simon CDP","State":"Arizona","State_Abbrev":"AZ"},
"geometry":{ "type": "Point", "coordinates": [-109.2302,32.268169]}},
{ "type": "Feature", "properties": {"Name":"Santa Cruz CDP","State":"Arizona","State_Abbrev":"AZ"},
"geometry":{ "type": "Point", "coordinates": [-112.159368,33.232701]}},
{ "type": "Feature", "properties": {"Name":"San Tan Valley CDP","State":"Arizona","State_Abbrev":"AZ"},
"geometry":{ "type": "Point", "coordinates": [-111.562823,33.178592]}},
{ "type": "Feature", "properties": {"Name":"Santa Rosa CDP","State":"Arizona","State_Abbrev":"AZ"},
"geometry":{ "type": "Point", "coordinates": [-112.046255,32.332488]}},
{ "type": "Feature", "properties": {"Name":"Sawmill CDP","State":"Arizona","State_Abbrev":"AZ"},
"geometry":{ "type": "Point", "coordinates": [-109.158016,35.886227]}},
{ "type": "Feature", "properties": {"Name":"Scenic CDP","State":"Arizona","State_Abbrev":"AZ"},
"geometry":{ "type": "Point", "coordinates": [-114.012752,36.793589]}},
{ "type": "Feature", "properties": {"Name":"Scottsdale city","State":"Arizona","State_Abbrev":"AZ"},
"geometry":{ "type": "Point", "coordinates": [-111.861448,33.684272]}},
{ "type": "Feature", "properties": {"Name":"Seba Dalkai CDP","State":"Arizona","State_Abbrev":"AZ"},
"geometry":{ "type": "Point", "coordinates": [-110.4511,35.478933]}},
{ "type": "Feature", "properties": {"Name":"Second Mesa CDP","State":"Arizona","State_Abbrev":"AZ"},
"geometry":{ "type": "Point", "coordinates": [-110.49799,35.851387]}},
{ "type": "Feature", "properties": {"Name":"Sedona city","State":"Arizona","State_Abbrev":"AZ"},
"geometry":{ "type": "Point", "coordinates": [-111.793057,34.858517]}},
{ "type": "Feature", "properties": {"Name":"Sehili CDP","State":"Arizona","State_Abbrev":"AZ"},
"geometry":{ "type": "Point", "coordinates": [-109.185521,36.280772]}},
{ "type": "Feature", "properties": {"Name":"Seligman CDP","State":"Arizona","State_Abbrev":"AZ"},
"geometry":{ "type": "Point", "coordinates": [-112.857247,35.325613]}},
{ "type": "Feature", "properties": {"Name":"Sells CDP","State":"Arizona","State_Abbrev":"AZ"},
"geometry":{ "type": "Point", "coordinates": [-111.87087,31.920874]}},
{ "type": "Feature", "properties": {"Name":"Seven Mile CDP","State":"Arizona","State_Abbrev":"AZ"},
"geometry":{ "type": "Point", "coordinates": [-109.958554,33.788181]}},
{ "type": "Feature", "properties": {"Name":"Shongopovi CDP","State":"Arizona","State_Abbrev":"AZ"},
"geometry":{ "type": "Point", "coordinates": [-110.533441,35.809701]}},
{ "type": "Feature", "properties": {"Name":"Shonto CDP","State":"Arizona","State_Abbrev":"AZ"},
"geometry":{ "type": "Point", "coordinates": [-110.662477,36.587043]}},
{ "type": "Feature", "properties": {"Name":"Show Low city","State":"Arizona","State_Abbrev":"AZ"},
"geometry":{ "type": "Point", "coordinates": [-110.038321,34.265053]}},
{ "type": "Feature", "properties": {"Name":"Shumway CDP","State":"Arizona","State_Abbrev":"AZ"},
"geometry":{ "type": "Point", "coordinates": [-110.064907,34.414544]}},
{ "type": "Feature", "properties": {"Name":"Sierra Vista city","State":"Arizona","State_Abbrev":"AZ"},
"geometry":{ "type": "Point", "coordinates": [-110.314508,31.56541]}},
{ "type": "Feature", "properties": {"Name":"Sierra Vista Southeast CDP","State":"Arizona","State_Abbrev":"AZ"},
"geometry":{ "type": "Point", "coordinates": [-110.218977,31.452512]}},
{ "type": "Feature", "properties": {"Name":"Six Shooter Canyon CDP","State":"Arizona","State_Abbrev":"AZ"},
"geometry":{ "type": "Point", "coordinates": [-110.774601,33.366782]}},
{ "type": "Feature", "properties": {"Name":"Snowflake town","State":"Arizona","State_Abbrev":"AZ"},
"geometry":{ "type": "Point", "coordinates": [-110.091182,34.521459]}},
{ "type": "Feature", "properties": {"Name":"So-Hi CDP","State":"Arizona","State_Abbrev":"AZ"},
"geometry":{ "type": "Point", "coordinates": [-114.141482,35.252725]}},
{ "type": "Feature", "properties": {"Name":"Solomon CDP","State":"Arizona","State_Abbrev":"AZ"},
"geometry":{ "type": "Point", "coordinates": [-109.62893,32.813811]}},
{ "type": "Feature", "properties": {"Name":"Somerton city","State":"Arizona","State_Abbrev":"AZ"},
"geometry":{ "type": "Point", "coordinates": [-114.696344,32.601816]}},
{ "type": "Feature", "properties": {"Name":"Sonoita CDP","State":"Arizona","State_Abbrev":"AZ"},
"geometry":{ "type": "Point", "coordinates": [-110.639105,31.66561]}},
{ "type": "Feature", "properties": {"Name":"South Komelik CDP","State":"Arizona","State_Abbrev":"AZ"},
"geometry":{ "type": "Point", "coordinates": [-111.774415,31.714472]}},
{ "type": "Feature", "properties": {"Name":"South Tucson city","State":"Arizona","State_Abbrev":"AZ"},
"geometry":{ "type": "Point", "coordinates": [-110.969154,32.195474]}},
{ "type": "Feature", "properties": {"Name":"Springerville town","State":"Arizona","State_Abbrev":"AZ"},
"geometry":{ "type": "Point", "coordinates": [-109.306892,34.171921]}},
{ "type": "Feature", "properties": {"Name":"Spring Valley CDP","State":"Arizona","State_Abbrev":"AZ"},
"geometry":{ "type": "Point", "coordinates": [-112.159168,34.345185]}},
{ "type": "Feature", "properties": {"Name":"Stanfield CDP","State":"Arizona","State_Abbrev":"AZ"},
"geometry":{ "type": "Point", "coordinates": [-111.962771,32.879365]}},
{ "type": "Feature", "properties": {"Name":"Star Valley town","State":"Arizona","State_Abbrev":"AZ"},
"geometry":{ "type": "Point", "coordinates": [-111.220709,34.254685]}},
{ "type": "Feature", "properties": {"Name":"Steamboat CDP","State":"Arizona","State_Abbrev":"AZ"},
"geometry":{ "type": "Point", "coordinates": [-109.850583,35.752636]}},
{ "type": "Feature", "properties": {"Name":"Stotonic Village CDP","State":"Arizona","State_Abbrev":"AZ"},
"geometry":{ "type": "Point", "coordinates": [-111.817043,33.153223]}},
{ "type": "Feature", "properties": {"Name":"Strawberry CDP","State":"Arizona","State_Abbrev":"AZ"},
"geometry":{ "type": "Point", "coordinates": [-111.502656,34.390929]}},
{ "type": "Feature", "properties": {"Name":"Summerhaven CDP","State":"Arizona","State_Abbrev":"AZ"},
"geometry":{ "type": "Point", "coordinates": [-110.775031,32.442172]}},
{ "type": "Feature", "properties": {"Name":"Summit CDP","State":"Arizona","State_Abbrev":"AZ"},
"geometry":{ "type": "Point", "coordinates": [-110.94863,32.062084]}},
{ "type": "Feature", "properties": {"Name":"Sun City CDP","State":"Arizona","State_Abbrev":"AZ"},
"geometry":{ "type": "Point", "coordinates": [-112.283108,33.6155]}},
{ "type": "Feature", "properties": {"Name":"Sun City West CDP","State":"Arizona","State_Abbrev":"AZ"},
"geometry":{ "type": "Point", "coordinates": [-112.357187,33.671383]}},
{ "type": "Feature", "properties": {"Name":"Sunizona CDP","State":"Arizona","State_Abbrev":"AZ"},
"geometry":{ "type": "Point", "coordinates": [-109.63322,31.885494]}},
{ "type": "Feature", "properties": {"Name":"Sun Lakes CDP","State":"Arizona","State_Abbrev":"AZ"},
"geometry":{ "type": "Point", "coordinates": [-111.869973,33.214955]}},
{ "type": "Feature", "properties": {"Name":"Sunsites CDP","State":"Arizona","State_Abbrev":"AZ"},
"geometry":{ "type": "Point", "coordinates": [-109.840825,31.941654]}},
{ "type": "Feature", "properties": {"Name":"Sun Valley CDP","State":"Arizona","State_Abbrev":"AZ"},
"geometry":{ "type": "Point", "coordinates": [-110.031971,34.982905]}},
{ "type": "Feature", "properties": {"Name":"Sunwest CDP","State":"Arizona","State_Abbrev":"AZ"},
"geometry":{ "type": "Point", "coordinates": [-113.409131,33.650984]}},
{ "type": "Feature", "properties": {"Name":"Supai CDP","State":"Arizona","State_Abbrev":"AZ"},
"geometry":{ "type": "Point", "coordinates": [-112.692579,36.229865]}},
{ "type": "Feature", "properties": {"Name":"Superior town","State":"Arizona","State_Abbrev":"AZ"},
"geometry":{ "type": "Point", "coordinates": [-111.124161,33.27162]}},
{ "type": "Feature", "properties": {"Name":"Surprise city","State":"Arizona","State_Abbrev":"AZ"},
"geometry":{ "type": "Point", "coordinates": [-112.452546,33.670801]}},
{ "type": "Feature", "properties": {"Name":"Sweet Water Village CDP","State":"Arizona","State_Abbrev":"AZ"},
"geometry":{ "type": "Point", "coordinates": [-111.837866,33.12]}},
{ "type": "Feature", "properties": {"Name":"Swift Trail Junction CDP","State":"Arizona","State_Abbrev":"AZ"},
"geometry":{ "type": "Point", "coordinates": [-109.718114,32.727193]}},
{ "type": "Feature", "properties": {"Name":"Tacna CDP","State":"Arizona","State_Abbrev":"AZ"},
"geometry":{ "type": "Point", "coordinates": [-113.961785,32.700435]}},
{ "type": "Feature", "properties": {"Name":"Tanque Verde CDP","State":"Arizona","State_Abbrev":"AZ"},
"geometry":{ "type": "Point", "coordinates": [-110.743681,32.268765]}},
{ "type": "Feature", "properties": {"Name":"Tat Momoli CDP","State":"Arizona","State_Abbrev":"AZ"},
"geometry":{ "type": "Point", "coordinates": [-111.886129,32.601195]}},
{ "type": "Feature", "properties": {"Name":"Taylor town","State":"Arizona","State_Abbrev":"AZ"},
"geometry":{ "type": "Point", "coordinates": [-110.098534,34.442748]}},
{ "type": "Feature", "properties": {"Name":"Teec Nos Pos CDP","State":"Arizona","State_Abbrev":"AZ"},
"geometry":{ "type": "Point", "coordinates": [-109.064115,36.933289]}},
{ "type": "Feature", "properties": {"Name":"Tees Toh CDP","State":"Arizona","State_Abbrev":"AZ"},
"geometry":{ "type": "Point", "coordinates": [-110.405576,35.486023]}},
{ "type": "Feature", "properties": {"Name":"Tempe city","State":"Arizona","State_Abbrev":"AZ"},
"geometry":{ "type": "Point", "coordinates": [-111.931782,33.388414]}},
{ "type": "Feature", "properties": {"Name":"Thatcher town","State":"Arizona","State_Abbrev":"AZ"},
"geometry":{ "type": "Point", "coordinates": [-109.766516,32.812708]}},
{ "type": "Feature", "properties": {"Name":"Theba CDP","State":"Arizona","State_Abbrev":"AZ"},
"geometry":{ "type": "Point", "coordinates": [-112.889776,32.918231]}},
{ "type": "Feature", "properties": {"Name":"Three Points CDP","State":"Arizona","State_Abbrev":"AZ"},
"geometry":{ "type": "Point", "coordinates": [-111.286595,32.05931]}},
{ "type": "Feature", "properties": {"Name":"Timberline-Fernwood CDP","State":"Arizona","State_Abbrev":"AZ"},
"geometry":{ "type": "Point", "coordinates": [-111.550715,35.316759]}},
{ "type": "Feature", "properties": {"Name":"Tolani Lake CDP","State":"Arizona","State_Abbrev":"AZ"},
"geometry":{ "type": "Point", "coordinates": [-110.841172,35.429788]}},
{ "type": "Feature", "properties": {"Name":"Tolleson city","State":"Arizona","State_Abbrev":"AZ"},
"geometry":{ "type": "Point", "coordinates": [-112.256012,33.44837]}},
{ "type": "Feature", "properties": {"Name":"Tombstone city","State":"Arizona","State_Abbrev":"AZ"},
"geometry":{ "type": "Point", "coordinates": [-110.076701,31.720772]}},
{ "type": "Feature", "properties": {"Name":"Tonalea CDP","State":"Arizona","State_Abbrev":"AZ"},
"geometry":{ "type": "Point", "coordinates": [-110.966665,36.321734]}},
{ "type": "Feature", "properties": {"Name":"Tonopah CDP","State":"Arizona","State_Abbrev":"AZ"},
"geometry":{ "type": "Point", "coordinates": [-112.930811,33.487986]}},
{ "type": "Feature", "properties": {"Name":"Tonto Basin CDP","State":"Arizona","State_Abbrev":"AZ"},
"geometry":{ "type": "Point", "coordinates": [-111.30094,33.841322]}},
{ "type": "Feature", "properties": {"Name":"Tonto Village CDP","State":"Arizona","State_Abbrev":"AZ"},
"geometry":{ "type": "Point", "coordinates": [-111.139313,34.319808]}},
{ "type": "Feature", "properties": {"Name":"Topawa CDP","State":"Arizona","State_Abbrev":"AZ"},
"geometry":{ "type": "Point", "coordinates": [-111.830472,31.807835]}},
{ "type": "Feature", "properties": {"Name":"Topock CDP","State":"Arizona","State_Abbrev":"AZ"},
"geometry":{ "type": "Point", "coordinates": [-114.478792,34.719972]}},
{ "type": "Feature", "properties": {"Name":"Top-of-the-World CDP","State":"Arizona","State_Abbrev":"AZ"},
"geometry":{ "type": "Point", "coordinates": [-110.999724,33.347668]}},
{ "type": "Feature", "properties": {"Name":"Toyei CDP","State":"Arizona","State_Abbrev":"AZ"},
"geometry":{ "type": "Point", "coordinates": [-109.938174,35.703817]}},
{ "type": "Feature", "properties": {"Name":"Truxton CDP","State":"Arizona","State_Abbrev":"AZ"},
"geometry":{ "type": "Point", "coordinates": [-113.563011,35.490372]}},
{ "type": "Feature", "properties": {"Name":"Tsaile CDP","State":"Arizona","State_Abbrev":"AZ"},
"geometry":{ "type": "Point", "coordinates": [-109.218666,36.302418]}},
{ "type": "Feature", "properties": {"Name":"Tubac CDP","State":"Arizona","State_Abbrev":"AZ"},
"geometry":{ "type": "Point", "coordinates": [-111.057047,31.610681]}},
{ "type": "Feature", "properties": {"Name":"Tuba City CDP","State":"Arizona","State_Abbrev":"AZ"},
"geometry":{ "type": "Point", "coordinates": [-111.246654,36.125076]}},
{ "type": "Feature", "properties": {"Name":"Tucson city","State":"Arizona","State_Abbrev":"AZ"},
"geometry":{ "type": "Point", "coordinates": [-110.870773,32.153036]}},
{ "type": "Feature", "properties": {"Name":"Tucson Estates CDP","State":"Arizona","State_Abbrev":"AZ"},
"geometry":{ "type": "Point", "coordinates": [-111.126627,32.179223]}},
{ "type": "Feature", "properties": {"Name":"Tucson Mountains CDP","State":"Arizona","State_Abbrev":"AZ"},
"geometry":{ "type": "Point", "coordinates": [-111.077367,32.282291]}},
{ "type": "Feature", "properties": {"Name":"Tumacacori-Carmen CDP","State":"Arizona","State_Abbrev":"AZ"},
"geometry":{ "type": "Point", "coordinates": [-111.047652,31.57099]}},
{ "type": "Feature", "properties": {"Name":"Turkey Creek CDP","State":"Arizona","State_Abbrev":"AZ"},
"geometry":{ "type": "Point", "coordinates": [-109.9461,33.801088]}},
{ "type": "Feature", "properties": {"Name":"Tusayan town","State":"Arizona","State_Abbrev":"AZ"},
"geometry":{ "type": "Point", "coordinates": [-112.120195,35.954961]}},
{ "type": "Feature", "properties": {"Name":"Upper Santan Village CDP","State":"Arizona","State_Abbrev":"AZ"},
"geometry":{ "type": "Point", "coordinates": [-111.744131,33.11641]}},
{ "type": "Feature", "properties": {"Name":"Utting CDP","State":"Arizona","State_Abbrev":"AZ"},
"geometry":{ "type": "Point", "coordinates": [-113.912865,33.854583]}},
{ "type": "Feature", "properties": {"Name":"Vail CDP","State":"Arizona","State_Abbrev":"AZ"},
"geometry":{ "type": "Point", "coordinates": [-110.693687,32.021706]}},
{ "type": "Feature", "properties": {"Name":"Vaiva Vo CDP","State":"Arizona","State_Abbrev":"AZ"},
"geometry":{ "type": "Point", "coordinates": [-111.926902,32.716654]}},
{ "type": "Feature", "properties": {"Name":"Valencia West CDP","State":"Arizona","State_Abbrev":"AZ"},
"geometry":{ "type": "Point", "coordinates": [-111.110619,32.135423]}},
{ "type": "Feature", "properties": {"Name":"Valentine CDP","State":"Arizona","State_Abbrev":"AZ"},
"geometry":{ "type": "Point", "coordinates": [-113.659115,35.38853]}},
{ "type": "Feature", "properties": {"Name":"Valle CDP","State":"Arizona","State_Abbrev":"AZ"},
"geometry":{ "type": "Point", "coordinates": [-112.152886,35.675239]}},
{ "type": "Feature", "properties": {"Name":"Valle Vista CDP","State":"Arizona","State_Abbrev":"AZ"},
"geometry":{ "type": "Point", "coordinates": [-113.862688,35.410944]}},
{ "type": "Feature", "properties": {"Name":"Ventana CDP","State":"Arizona","State_Abbrev":"AZ"},
"geometry":{ "type": "Point", "coordinates": [-112.243447,32.468048]}},
{ "type": "Feature", "properties": {"Name":"Verde Village CDP","State":"Arizona","State_Abbrev":"AZ"},
"geometry":{ "type": "Point", "coordinates": [-111.994122,34.711888]}},
{ "type": "Feature", "properties": {"Name":"Vernon CDP","State":"Arizona","State_Abbrev":"AZ"},
"geometry":{ "type": "Point", "coordinates": [-109.689942,34.247901]}},
{ "type": "Feature", "properties": {"Name":"Vicksburg CDP","State":"Arizona","State_Abbrev":"AZ"},
"geometry":{ "type": "Point", "coordinates": [-113.825404,33.729271]}},
{ "type": "Feature", "properties": {"Name":"Village of Oak Creek (Big Park) CDP","State":"Arizona","State_Abbrev":"AZ"},
"geometry":{ "type": "Point", "coordinates": [-111.7606,34.781269]}},
{ "type": "Feature", "properties": {"Name":"Wagon Wheel CDP","State":"Arizona","State_Abbrev":"AZ"},
"geometry":{ "type": "Point", "coordinates": [-110.027132,34.197524]}},
{ "type": "Feature", "properties": {"Name":"Wahak Hotrontk CDP","State":"Arizona","State_Abbrev":"AZ"},
"geometry":{ "type": "Point", "coordinates": [-112.366291,32.174739]}},
{ "type": "Feature", "properties": {"Name":"Wall Lane CDP","State":"Arizona","State_Abbrev":"AZ"},
"geometry":{ "type": "Point", "coordinates": [-114.710529,32.657309]}},
{ "type": "Feature", "properties": {"Name":"Walnut Creek CDP","State":"Arizona","State_Abbrev":"AZ"},
"geometry":{ "type": "Point", "coordinates": [-114.126631,35.131243]}},
{ "type": "Feature", "properties": {"Name":"Washington Park CDP","State":"Arizona","State_Abbrev":"AZ"},
"geometry":{ "type": "Point", "coordinates": [-111.271003,34.400354]}},
{ "type": "Feature", "properties": {"Name":"Wellton town","State":"Arizona","State_Abbrev":"AZ"},
"geometry":{ "type": "Point", "coordinates": [-114.215152,32.640128]}},
{ "type": "Feature", "properties": {"Name":"Wellton Hills CDP","State":"Arizona","State_Abbrev":"AZ"},
"geometry":{ "type": "Point", "coordinates": [-114.145234,32.623189]}},
{ "type": "Feature", "properties": {"Name":"Wenden CDP","State":"Arizona","State_Abbrev":"AZ"},
"geometry":{ "type": "Point", "coordinates": [-113.543239,33.83245]}},
{ "type": "Feature", "properties": {"Name":"Wet Camp Village CDP","State":"Arizona","State_Abbrev":"AZ"},
"geometry":{ "type": "Point", "coordinates": [-111.901662,33.141223]}},
{ "type": "Feature", "properties": {"Name":"Wheatfields CDP","State":"Arizona","State_Abbrev":"AZ"},
"geometry":{ "type": "Point", "coordinates": [-110.816135,33.470937]}},
{ "type": "Feature", "properties": {"Name":"Whetstone CDP","State":"Arizona","State_Abbrev":"AZ"},
"geometry":{ "type": "Point", "coordinates": [-110.291996,31.718947]}},
{ "type": "Feature", "properties": {"Name":"Whispering Pines CDP","State":"Arizona","State_Abbrev":"AZ"},
"geometry":{ "type": "Point", "coordinates": [-111.281223,34.372721]}},
{ "type": "Feature", "properties": {"Name":"Whitecone CDP","State":"Arizona","State_Abbrev":"AZ"},
"geometry":{ "type": "Point", "coordinates": [-110.080022,35.604666]}},
{ "type": "Feature", "properties": {"Name":"White Hills CDP","State":"Arizona","State_Abbrev":"AZ"},
"geometry":{ "type": "Point", "coordinates": [-114.400368,35.724209]}},
{ "type": "Feature", "properties": {"Name":"White Mountain Lake CDP","State":"Arizona","State_Abbrev":"AZ"},
"geometry":{ "type": "Point", "coordinates": [-109.986811,34.344046]}},
{ "type": "Feature", "properties": {"Name":"Whiteriver CDP","State":"Arizona","State_Abbrev":"AZ"},
"geometry":{ "type": "Point", "coordinates": [-109.96077,33.83976]}},
{ "type": "Feature", "properties": {"Name":"Why CDP","State":"Arizona","State_Abbrev":"AZ"},
"geometry":{ "type": "Point", "coordinates": [-112.730634,32.258973]}},
{ "type": "Feature", "properties": {"Name":"Wickenburg town","State":"Arizona","State_Abbrev":"AZ"},
"geometry":{ "type": "Point", "coordinates": [-112.758908,33.994799]}},
{ "type": "Feature", "properties": {"Name":"Wide Ruins CDP","State":"Arizona","State_Abbrev":"AZ"},
"geometry":{ "type": "Point", "coordinates": [-109.499551,35.417387]}},
{ "type": "Feature", "properties": {"Name":"Wikieup CDP","State":"Arizona","State_Abbrev":"AZ"},
"geometry":{ "type": "Point", "coordinates": [-113.599504,34.693034]}},
{ "type": "Feature", "properties": {"Name":"Wilhoit CDP","State":"Arizona","State_Abbrev":"AZ"},
"geometry":{ "type": "Point", "coordinates": [-112.615635,34.408233]}},
{ "type": "Feature", "properties": {"Name":"Willcox city","State":"Arizona","State_Abbrev":"AZ"},
"geometry":{ "type": "Point", "coordinates": [-109.835698,32.251804]}},
{ "type": "Feature", "properties": {"Name":"Williams city","State":"Arizona","State_Abbrev":"AZ"},
"geometry":{ "type": "Point", "coordinates": [-112.183296,35.24664]}},
{ "type": "Feature", "properties": {"Name":"Williamson CDP","State":"Arizona","State_Abbrev":"AZ"},
"geometry":{ "type": "Point", "coordinates": [-112.53373,34.708293]}},
{ "type": "Feature", "properties": {"Name":"Willow Canyon CDP","State":"Arizona","State_Abbrev":"AZ"},
"geometry":{ "type": "Point", "coordinates": [-110.700842,32.387689]}},
{ "type": "Feature", "properties": {"Name":"Willow Valley CDP","State":"Arizona","State_Abbrev":"AZ"},
"geometry":{ "type": "Point", "coordinates": [-114.626599,34.927658]}},
{ "type": "Feature", "properties": {"Name":"Window Rock CDP","State":"Arizona","State_Abbrev":"AZ"},
"geometry":{ "type": "Point", "coordinates": [-109.063037,35.670505]}},
{ "type": "Feature", "properties": {"Name":"Winkelman town","State":"Arizona","State_Abbrev":"AZ"},
"geometry":{ "type": "Point", "coordinates": [-110.761687,32.981677]}},
{ "type": "Feature", "properties": {"Name":"Winslow city","State":"Arizona","State_Abbrev":"AZ"},
"geometry":{ "type": "Point", "coordinates": [-110.709331,35.024236]}},
{ "type": "Feature", "properties": {"Name":"Winslow West CDP","State":"Arizona","State_Abbrev":"AZ"},
"geometry":{ "type": "Point", "coordinates": [-110.706847,34.992554]}},
{ "type": "Feature", "properties": {"Name":"Wintersburg CDP","State":"Arizona","State_Abbrev":"AZ"},
"geometry":{ "type": "Point", "coordinates": [-112.86765,33.41963]}},
{ "type": "Feature", "properties": {"Name":"Wittmann CDP","State":"Arizona","State_Abbrev":"AZ"},
"geometry":{ "type": "Point", "coordinates": [-112.525091,33.774957]}},
{ "type": "Feature", "properties": {"Name":"Woodruff CDP","State":"Arizona","State_Abbrev":"AZ"},
"geometry":{ "type": "Point", "coordinates": [-110.025944,34.791876]}},
{ "type": "Feature", "properties": {"Name":"Yarnell CDP","State":"Arizona","State_Abbrev":"AZ"},
"geometry":{ "type": "Point", "coordinates": [-112.76292,34.228202]}},
{ "type": "Feature", "properties": {"Name":"York CDP","State":"Arizona","State_Abbrev":"AZ"},
"geometry":{ "type": "Point", "coordinates": [-109.195402,32.916258]}},
{ "type": "Feature", "properties": {"Name":"Young CDP","State":"Arizona","State_Abbrev":"AZ"},
"geometry":{ "type": "Point", "coordinates": [-110.938324,34.124091]}},
{ "type": "Feature", "properties": {"Name":"Youngtown town","State":"Arizona","State_Abbrev":"AZ"},
"geometry":{ "type": "Point", "coordinates": [-112.304916,33.584969]}},
{ "type": "Feature", "properties": {"Name":"Yucca CDP","State":"Arizona","State_Abbrev":"AZ"},
"geometry":{ "type": "Point", "coordinates": [-114.146145,34.862993]}},
{ "type": "Feature", "properties": {"Name":"Yuma city","State":"Arizona","State_Abbrev":"AZ"},
"geometry":{ "type": "Point", "coordinates": [-114.521782,32.516286]}},
{ "type": "Feature", "properties": {"Name":"Yuma Proving Ground CDP","State":"Arizona","State_Abbrev":"AZ"},
"geometry":{ "type": "Point", "coordinates": [-114.436923,32.865186]}}]}
