{"type":"FeatureCollection","features":[
{ "type": "Feature", "properties": {"Name":"Acorn CDP","State":"Arkansas","State_Abbrev":"AR"},
"geometry":{ "type": "Point", "coordinates": [-94.200112,34.638786]}},
{ "type": "Feature", "properties": {"Name":"Adona city","State":"Arkansas","State_Abbrev":"AR"},
"geometry":{ "type": "Point", "coordinates": [-92.899132,35.03993]}},
{ "type": "Feature", "properties": {"Name":"Alexander city","State":"Arkansas","State_Abbrev":"AR"},
"geometry":{ "type": "Point", "coordinates": [-92.451217,34.618588]}},
{ "type": "Feature", "properties": {"Name":"Alicia town","State":"Arkansas","State_Abbrev":"AR"},
"geometry":{ "type": "Point", "coordinates": [-91.08345,35.892907]}},
{ "type": "Feature", "properties": {"Name":"Alix CDP","State":"Arkansas","State_Abbrev":"AR"},
"geometry":{ "type": "Point", "coordinates": [-93.728784,35.422002]}},
{ "type": "Feature", "properties": {"Name":"Alleene CDP","State":"Arkansas","State_Abbrev":"AR"},
"geometry":{ "type": "Point", "coordinates": [-94.262198,33.764823]}},
{ "type": "Feature", "properties": {"Name":"Allport town","State":"Arkansas","State_Abbrev":"AR"},
"geometry":{ "type": "Point", "coordinates": [-91.783886,34.539866]}},
{ "type": "Feature", "properties": {"Name":"Alma city","State":"Arkansas","State_Abbrev":"AR"},
"geometry":{ "type": "Point", "coordinates": [-94.213745,35.492388]}},
{ "type": "Feature", "properties": {"Name":"Almyra town","State":"Arkansas","State_Abbrev":"AR"},
"geometry":{ "type": "Point", "coordinates": [-91.410847,34.405689]}},
{ "type": "Feature", "properties": {"Name":"Alpena town","State":"Arkansas","State_Abbrev":"AR"},
"geometry":{ "type": "Point", "coordinates": [-93.30371,36.292752]}},
{ "type": "Feature", "properties": {"Name":"Alpine CDP","State":"Arkansas","State_Abbrev":"AR"},
"geometry":{ "type": "Point", "coordinates": [-93.378321,34.226886]}},
{ "type": "Feature", "properties": {"Name":"Altheimer city","State":"Arkansas","State_Abbrev":"AR"},
"geometry":{ "type": "Point", "coordinates": [-91.847282,34.327434]}},
{ "type": "Feature", "properties": {"Name":"Altus city","State":"Arkansas","State_Abbrev":"AR"},
"geometry":{ "type": "Point", "coordinates": [-93.764388,35.44676]}},
{ "type": "Feature", "properties": {"Name":"Amagon town","State":"Arkansas","State_Abbrev":"AR"},
"geometry":{ "type": "Point", "coordinates": [-91.109415,35.563173]}},
{ "type": "Feature", "properties": {"Name":"Amity city","State":"Arkansas","State_Abbrev":"AR"},
"geometry":{ "type": "Point", "coordinates": [-93.463423,34.26619]}},
{ "type": "Feature", "properties": {"Name":"Anthonyville town","State":"Arkansas","State_Abbrev":"AR"},
"geometry":{ "type": "Point", "coordinates": [-90.340328,35.039831]}},
{ "type": "Feature", "properties": {"Name":"Antoine town","State":"Arkansas","State_Abbrev":"AR"},
"geometry":{ "type": "Point", "coordinates": [-93.421361,34.034536]}},
{ "type": "Feature", "properties": {"Name":"Aplin CDP","State":"Arkansas","State_Abbrev":"AR"},
"geometry":{ "type": "Point", "coordinates": [-92.981271,34.967483]}},
{ "type": "Feature", "properties": {"Name":"Appleton CDP","State":"Arkansas","State_Abbrev":"AR"},
"geometry":{ "type": "Point", "coordinates": [-92.875276,35.410823]}},
{ "type": "Feature", "properties": {"Name":"Arkadelphia city","State":"Arkansas","State_Abbrev":"AR"},
"geometry":{ "type": "Point", "coordinates": [-93.070851,34.12738]}},
{ "type": "Feature", "properties": {"Name":"Arkansas City city","State":"Arkansas","State_Abbrev":"AR"},
"geometry":{ "type": "Point", "coordinates": [-91.204896,33.608876]}},
{ "type": "Feature", "properties": {"Name":"Armorel CDP","State":"Arkansas","State_Abbrev":"AR"},
"geometry":{ "type": "Point", "coordinates": [-89.797959,35.925571]}},
{ "type": "Feature", "properties": {"Name":"Ashdown city","State":"Arkansas","State_Abbrev":"AR"},
"geometry":{ "type": "Point", "coordinates": [-94.126627,33.674529]}},
{ "type": "Feature", "properties": {"Name":"Ash Flat city","State":"Arkansas","State_Abbrev":"AR"},
"geometry":{ "type": "Point", "coordinates": [-91.606512,36.236559]}},
{ "type": "Feature", "properties": {"Name":"Atkins city","State":"Arkansas","State_Abbrev":"AR"},
"geometry":{ "type": "Point", "coordinates": [-92.949643,35.240863]}},
{ "type": "Feature", "properties": {"Name":"Aubrey town","State":"Arkansas","State_Abbrev":"AR"},
"geometry":{ "type": "Point", "coordinates": [-90.897981,34.719817]}},
{ "type": "Feature", "properties": {"Name":"Augusta city","State":"Arkansas","State_Abbrev":"AR"},
"geometry":{ "type": "Point", "coordinates": [-91.36086,35.28655]}},
{ "type": "Feature", "properties": {"Name":"Austin city","State":"Arkansas","State_Abbrev":"AR"},
"geometry":{ "type": "Point", "coordinates": [-91.989609,35.005912]}},
{ "type": "Feature", "properties": {"Name":"Avilla CDP","State":"Arkansas","State_Abbrev":"AR"},
"geometry":{ "type": "Point", "coordinates": [-92.586141,34.694843]}},
{ "type": "Feature", "properties": {"Name":"Avoca town","State":"Arkansas","State_Abbrev":"AR"},
"geometry":{ "type": "Point", "coordinates": [-94.06577,36.394697]}},
{ "type": "Feature", "properties": {"Name":"Bald Knob city","State":"Arkansas","State_Abbrev":"AR"},
"geometry":{ "type": "Point", "coordinates": [-91.571253,35.312539]}},
{ "type": "Feature", "properties": {"Name":"Banks town","State":"Arkansas","State_Abbrev":"AR"},
"geometry":{ "type": "Point", "coordinates": [-92.267101,33.575796]}},
{ "type": "Feature", "properties": {"Name":"Barling city","State":"Arkansas","State_Abbrev":"AR"},
"geometry":{ "type": "Point", "coordinates": [-94.275195,35.331286]}},
{ "type": "Feature", "properties": {"Name":"Bassett town","State":"Arkansas","State_Abbrev":"AR"},
"geometry":{ "type": "Point", "coordinates": [-90.129434,35.535577]}},
{ "type": "Feature", "properties": {"Name":"Batavia CDP","State":"Arkansas","State_Abbrev":"AR"},
"geometry":{ "type": "Point", "coordinates": [-93.215771,36.247852]}},
{ "type": "Feature", "properties": {"Name":"Batesville city","State":"Arkansas","State_Abbrev":"AR"},
"geometry":{ "type": "Point", "coordinates": [-91.622652,35.768572]}},
{ "type": "Feature", "properties": {"Name":"Bauxite town","State":"Arkansas","State_Abbrev":"AR"},
"geometry":{ "type": "Point", "coordinates": [-92.499656,34.559861]}},
{ "type": "Feature", "properties": {"Name":"Bay city","State":"Arkansas","State_Abbrev":"AR"},
"geometry":{ "type": "Point", "coordinates": [-90.552143,35.746057]}},
{ "type": "Feature", "properties": {"Name":"Bearden city","State":"Arkansas","State_Abbrev":"AR"},
"geometry":{ "type": "Point", "coordinates": [-92.618678,33.727651]}},
{ "type": "Feature", "properties": {"Name":"Beaver town","State":"Arkansas","State_Abbrev":"AR"},
"geometry":{ "type": "Point", "coordinates": [-93.777335,36.473994]}},
{ "type": "Feature", "properties": {"Name":"Beebe city","State":"Arkansas","State_Abbrev":"AR"},
"geometry":{ "type": "Point", "coordinates": [-91.901059,35.072433]}},
{ "type": "Feature", "properties": {"Name":"Bee Branch CDP","State":"Arkansas","State_Abbrev":"AR"},
"geometry":{ "type": "Point", "coordinates": [-92.401023,35.462622]}},
{ "type": "Feature", "properties": {"Name":"Beedeville town","State":"Arkansas","State_Abbrev":"AR"},
"geometry":{ "type": "Point", "coordinates": [-91.110738,35.429169]}},
{ "type": "Feature", "properties": {"Name":"Beirne CDP","State":"Arkansas","State_Abbrev":"AR"},
"geometry":{ "type": "Point", "coordinates": [-93.206223,33.888208]}},
{ "type": "Feature", "properties": {"Name":"Bella Vista city","State":"Arkansas","State_Abbrev":"AR"},
"geometry":{ "type": "Point", "coordinates": [-94.266317,36.466641]}},
{ "type": "Feature", "properties": {"Name":"Bellefonte town","State":"Arkansas","State_Abbrev":"AR"},
"geometry":{ "type": "Point", "coordinates": [-93.047039,36.199864]}},
{ "type": "Feature", "properties": {"Name":"Belleville city","State":"Arkansas","State_Abbrev":"AR"},
"geometry":{ "type": "Point", "coordinates": [-93.445774,35.09153]}},
{ "type": "Feature", "properties": {"Name":"Ben Lomond town","State":"Arkansas","State_Abbrev":"AR"},
"geometry":{ "type": "Point", "coordinates": [-94.123319,33.829113]}},
{ "type": "Feature", "properties": {"Name":"Benton city","State":"Arkansas","State_Abbrev":"AR"},
"geometry":{ "type": "Point", "coordinates": [-92.572583,34.577424]}},
{ "type": "Feature", "properties": {"Name":"Bentonville city","State":"Arkansas","State_Abbrev":"AR"},
"geometry":{ "type": "Point", "coordinates": [-94.231181,36.352662]}},
{ "type": "Feature", "properties": {"Name":"Bergman town","State":"Arkansas","State_Abbrev":"AR"},
"geometry":{ "type": "Point", "coordinates": [-93.011221,36.312786]}},
{ "type": "Feature", "properties": {"Name":"Berryville city","State":"Arkansas","State_Abbrev":"AR"},
"geometry":{ "type": "Point", "coordinates": [-93.570387,36.371028]}},
{ "type": "Feature", "properties": {"Name":"Bethesda CDP","State":"Arkansas","State_Abbrev":"AR"},
"geometry":{ "type": "Point", "coordinates": [-91.792711,35.787096]}},
{ "type": "Feature", "properties": {"Name":"Bigelow town","State":"Arkansas","State_Abbrev":"AR"},
"geometry":{ "type": "Point", "coordinates": [-92.631175,34.997795]}},
{ "type": "Feature", "properties": {"Name":"Big Flat town","State":"Arkansas","State_Abbrev":"AR"},
"geometry":{ "type": "Point", "coordinates": [-92.41022,36.003394]}},
{ "type": "Feature", "properties": {"Name":"Biggers town","State":"Arkansas","State_Abbrev":"AR"},
"geometry":{ "type": "Point", "coordinates": [-90.800701,36.331361]}},
{ "type": "Feature", "properties": {"Name":"Birdsong town","State":"Arkansas","State_Abbrev":"AR"},
"geometry":{ "type": "Point", "coordinates": [-90.259761,35.461161]}},
{ "type": "Feature", "properties": {"Name":"Bismarck CDP","State":"Arkansas","State_Abbrev":"AR"},
"geometry":{ "type": "Point", "coordinates": [-93.178139,34.321836]}},
{ "type": "Feature", "properties": {"Name":"Black Oak town","State":"Arkansas","State_Abbrev":"AR"},
"geometry":{ "type": "Point", "coordinates": [-90.367568,35.836485]}},
{ "type": "Feature", "properties": {"Name":"Black Rock city","State":"Arkansas","State_Abbrev":"AR"},
"geometry":{ "type": "Point", "coordinates": [-91.10748,36.106237]}},
{ "type": "Feature", "properties": {"Name":"Black Springs town","State":"Arkansas","State_Abbrev":"AR"},
"geometry":{ "type": "Point", "coordinates": [-93.713115,34.455977]}},
{ "type": "Feature", "properties": {"Name":"Blevins city","State":"Arkansas","State_Abbrev":"AR"},
"geometry":{ "type": "Point", "coordinates": [-93.578187,33.871251]}},
{ "type": "Feature", "properties": {"Name":"Blue Eye town","State":"Arkansas","State_Abbrev":"AR"},
"geometry":{ "type": "Point", "coordinates": [-93.39771,36.496667]}},
{ "type": "Feature", "properties": {"Name":"Blue Mountain town","State":"Arkansas","State_Abbrev":"AR"},
"geometry":{ "type": "Point", "coordinates": [-93.716666,35.131796]}},
{ "type": "Feature", "properties": {"Name":"Bluff City town","State":"Arkansas","State_Abbrev":"AR"},
"geometry":{ "type": "Point", "coordinates": [-93.124564,33.735118]}},
{ "type": "Feature", "properties": {"Name":"Blytheville city","State":"Arkansas","State_Abbrev":"AR"},
"geometry":{ "type": "Point", "coordinates": [-89.905133,35.934066]}},
{ "type": "Feature", "properties": {"Name":"Board Camp CDP","State":"Arkansas","State_Abbrev":"AR"},
"geometry":{ "type": "Point", "coordinates": [-94.079674,34.532519]}},
{ "type": "Feature", "properties": {"Name":"Bodcaw town","State":"Arkansas","State_Abbrev":"AR"},
"geometry":{ "type": "Point", "coordinates": [-93.393036,33.56364]}},
{ "type": "Feature", "properties": {"Name":"Boles CDP","State":"Arkansas","State_Abbrev":"AR"},
"geometry":{ "type": "Point", "coordinates": [-94.049397,34.788119]}},
{ "type": "Feature", "properties": {"Name":"Bonanza city","State":"Arkansas","State_Abbrev":"AR"},
"geometry":{ "type": "Point", "coordinates": [-94.416133,35.231794]}},
{ "type": "Feature", "properties": {"Name":"Bono city","State":"Arkansas","State_Abbrev":"AR"},
"geometry":{ "type": "Point", "coordinates": [-90.800821,35.911102]}},
{ "type": "Feature", "properties": {"Name":"Booneville city","State":"Arkansas","State_Abbrev":"AR"},
"geometry":{ "type": "Point", "coordinates": [-93.9175,35.139329]}},
{ "type": "Feature", "properties": {"Name":"Bowman CDP","State":"Arkansas","State_Abbrev":"AR"},
"geometry":{ "type": "Point", "coordinates": [-90.496228,35.816835]}},
{ "type": "Feature", "properties": {"Name":"Bradford city","State":"Arkansas","State_Abbrev":"AR"},
"geometry":{ "type": "Point", "coordinates": [-91.455232,35.422004]}},
{ "type": "Feature", "properties": {"Name":"Bradley city","State":"Arkansas","State_Abbrev":"AR"},
"geometry":{ "type": "Point", "coordinates": [-93.656895,33.100106]}},
{ "type": "Feature", "properties": {"Name":"Branch city","State":"Arkansas","State_Abbrev":"AR"},
"geometry":{ "type": "Point", "coordinates": [-93.95537,35.308303]}},
{ "type": "Feature", "properties": {"Name":"Briarcliff city","State":"Arkansas","State_Abbrev":"AR"},
"geometry":{ "type": "Point", "coordinates": [-92.28209,36.271968]}},
{ "type": "Feature", "properties": {"Name":"Brinkley city","State":"Arkansas","State_Abbrev":"AR"},
"geometry":{ "type": "Point", "coordinates": [-91.189819,34.889781]}},
{ "type": "Feature", "properties": {"Name":"Brookland city","State":"Arkansas","State_Abbrev":"AR"},
"geometry":{ "type": "Point", "coordinates": [-90.571657,35.897051]}},
{ "type": "Feature", "properties": {"Name":"Bryant city","State":"Arkansas","State_Abbrev":"AR"},
"geometry":{ "type": "Point", "coordinates": [-92.491338,34.615059]}},
{ "type": "Feature", "properties": {"Name":"Buckner city","State":"Arkansas","State_Abbrev":"AR"},
"geometry":{ "type": "Point", "coordinates": [-93.435556,33.35727]}},
{ "type": "Feature", "properties": {"Name":"Buffalo City CDP","State":"Arkansas","State_Abbrev":"AR"},
"geometry":{ "type": "Point", "coordinates": [-92.438068,36.16912]}},
{ "type": "Feature", "properties": {"Name":"Bull Shoals city","State":"Arkansas","State_Abbrev":"AR"},
"geometry":{ "type": "Point", "coordinates": [-92.591504,36.37357]}},
{ "type": "Feature", "properties": {"Name":"Burdette town","State":"Arkansas","State_Abbrev":"AR"},
"geometry":{ "type": "Point", "coordinates": [-89.946421,35.815273]}},
{ "type": "Feature", "properties": {"Name":"Cabot city","State":"Arkansas","State_Abbrev":"AR"},
"geometry":{ "type": "Point", "coordinates": [-92.028288,34.975106]}},
{ "type": "Feature", "properties": {"Name":"Caddo Gap CDP","State":"Arkansas","State_Abbrev":"AR"},
"geometry":{ "type": "Point", "coordinates": [-93.617881,34.402494]}},
{ "type": "Feature", "properties": {"Name":"Caddo Valley town","State":"Arkansas","State_Abbrev":"AR"},
"geometry":{ "type": "Point", "coordinates": [-93.084597,34.180746]}},
{ "type": "Feature", "properties": {"Name":"Caldwell town","State":"Arkansas","State_Abbrev":"AR"},
"geometry":{ "type": "Point", "coordinates": [-90.809455,35.074794]}},
{ "type": "Feature", "properties": {"Name":"Cale town","State":"Arkansas","State_Abbrev":"AR"},
"geometry":{ "type": "Point", "coordinates": [-93.232797,33.627888]}},
{ "type": "Feature", "properties": {"Name":"Calico Rock city","State":"Arkansas","State_Abbrev":"AR"},
"geometry":{ "type": "Point", "coordinates": [-92.125913,36.121965]}},
{ "type": "Feature", "properties": {"Name":"Calion city","State":"Arkansas","State_Abbrev":"AR"},
"geometry":{ "type": "Point", "coordinates": [-92.540187,33.328406]}},
{ "type": "Feature", "properties": {"Name":"Camden city","State":"Arkansas","State_Abbrev":"AR"},
"geometry":{ "type": "Point", "coordinates": [-92.849064,33.567672]}},
{ "type": "Feature", "properties": {"Name":"Cammack Village city","State":"Arkansas","State_Abbrev":"AR"},
"geometry":{ "type": "Point", "coordinates": [-92.344976,34.7808]}},
{ "type": "Feature", "properties": {"Name":"Campbell Station city","State":"Arkansas","State_Abbrev":"AR"},
"geometry":{ "type": "Point", "coordinates": [-91.253754,35.667799]}},
{ "type": "Feature", "properties": {"Name":"Canehill CDP","State":"Arkansas","State_Abbrev":"AR"},
"geometry":{ "type": "Point", "coordinates": [-94.397321,35.913765]}},
{ "type": "Feature", "properties": {"Name":"Caraway city","State":"Arkansas","State_Abbrev":"AR"},
"geometry":{ "type": "Point", "coordinates": [-90.322081,35.760222]}},
{ "type": "Feature", "properties": {"Name":"Carlisle city","State":"Arkansas","State_Abbrev":"AR"},
"geometry":{ "type": "Point", "coordinates": [-91.740494,34.795425]}},
{ "type": "Feature", "properties": {"Name":"Carthage city","State":"Arkansas","State_Abbrev":"AR"},
"geometry":{ "type": "Point", "coordinates": [-92.555312,34.072605]}},
{ "type": "Feature", "properties": {"Name":"Casa town","State":"Arkansas","State_Abbrev":"AR"},
"geometry":{ "type": "Point", "coordinates": [-93.045507,35.024966]}},
{ "type": "Feature", "properties": {"Name":"Cash town","State":"Arkansas","State_Abbrev":"AR"},
"geometry":{ "type": "Point", "coordinates": [-90.931648,35.801157]}},
{ "type": "Feature", "properties": {"Name":"Caulksville town","State":"Arkansas","State_Abbrev":"AR"},
"geometry":{ "type": "Point", "coordinates": [-93.867806,35.301849]}},
{ "type": "Feature", "properties": {"Name":"Cave City city","State":"Arkansas","State_Abbrev":"AR"},
"geometry":{ "type": "Point", "coordinates": [-91.54675,35.948169]}},
{ "type": "Feature", "properties": {"Name":"Cave Springs city","State":"Arkansas","State_Abbrev":"AR"},
"geometry":{ "type": "Point", "coordinates": [-94.219503,36.26843]}},
{ "type": "Feature", "properties": {"Name":"Cedarville city","State":"Arkansas","State_Abbrev":"AR"},
"geometry":{ "type": "Point", "coordinates": [-94.361897,35.58397]}},
{ "type": "Feature", "properties": {"Name":"Center Point CDP","State":"Arkansas","State_Abbrev":"AR"},
"geometry":{ "type": "Point", "coordinates": [-93.951166,34.031828]}},
{ "type": "Feature", "properties": {"Name":"Center Ridge CDP","State":"Arkansas","State_Abbrev":"AR"},
"geometry":{ "type": "Point", "coordinates": [-92.575626,35.380707]}},
{ "type": "Feature", "properties": {"Name":"Centerton city","State":"Arkansas","State_Abbrev":"AR"},
"geometry":{ "type": "Point", "coordinates": [-94.297692,36.355148]}},
{ "type": "Feature", "properties": {"Name":"Centerville CDP","State":"Arkansas","State_Abbrev":"AR"},
"geometry":{ "type": "Point", "coordinates": [-93.171461,35.115702]}},
{ "type": "Feature", "properties": {"Name":"Central City town","State":"Arkansas","State_Abbrev":"AR"},
"geometry":{ "type": "Point", "coordinates": [-94.238042,35.336381]}},
{ "type": "Feature", "properties": {"Name":"Charleston city","State":"Arkansas","State_Abbrev":"AR"},
"geometry":{ "type": "Point", "coordinates": [-94.04835,35.294515]}},
{ "type": "Feature", "properties": {"Name":"Cherokee City CDP","State":"Arkansas","State_Abbrev":"AR"},
"geometry":{ "type": "Point", "coordinates": [-94.576804,36.294698]}},
{ "type": "Feature", "properties": {"Name":"Cherokee Village city","State":"Arkansas","State_Abbrev":"AR"},
"geometry":{ "type": "Point", "coordinates": [-91.569368,36.291321]}},
{ "type": "Feature", "properties": {"Name":"Cherry Valley city","State":"Arkansas","State_Abbrev":"AR"},
"geometry":{ "type": "Point", "coordinates": [-90.753617,35.402762]}},
{ "type": "Feature", "properties": {"Name":"Chester town","State":"Arkansas","State_Abbrev":"AR"},
"geometry":{ "type": "Point", "coordinates": [-94.177828,35.677772]}},
{ "type": "Feature", "properties": {"Name":"Chidester city","State":"Arkansas","State_Abbrev":"AR"},
"geometry":{ "type": "Point", "coordinates": [-93.023799,33.701947]}},
{ "type": "Feature", "properties": {"Name":"Cincinnati CDP","State":"Arkansas","State_Abbrev":"AR"},
"geometry":{ "type": "Point", "coordinates": [-94.527314,36.045324]}},
{ "type": "Feature", "properties": {"Name":"Clarendon city","State":"Arkansas","State_Abbrev":"AR"},
"geometry":{ "type": "Point", "coordinates": [-91.306292,34.692974]}},
{ "type": "Feature", "properties": {"Name":"Clarkedale city","State":"Arkansas","State_Abbrev":"AR"},
"geometry":{ "type": "Point", "coordinates": [-90.21025,35.297028]}},
{ "type": "Feature", "properties": {"Name":"Clarksville city","State":"Arkansas","State_Abbrev":"AR"},
"geometry":{ "type": "Point", "coordinates": [-93.481558,35.453918]}},
{ "type": "Feature", "properties": {"Name":"Clinton city","State":"Arkansas","State_Abbrev":"AR"},
"geometry":{ "type": "Point", "coordinates": [-92.455735,35.578981]}},
{ "type": "Feature", "properties": {"Name":"Coal Hill city","State":"Arkansas","State_Abbrev":"AR"},
"geometry":{ "type": "Point", "coordinates": [-93.665193,35.436892]}},
{ "type": "Feature", "properties": {"Name":"College Station CDP","State":"Arkansas","State_Abbrev":"AR"},
"geometry":{ "type": "Point", "coordinates": [-92.228432,34.700535]}},
{ "type": "Feature", "properties": {"Name":"Collins CDP","State":"Arkansas","State_Abbrev":"AR"},
"geometry":{ "type": "Point", "coordinates": [-91.57244,33.532266]}},
{ "type": "Feature", "properties": {"Name":"Colt city","State":"Arkansas","State_Abbrev":"AR"},
"geometry":{ "type": "Point", "coordinates": [-90.812933,35.132897]}},
{ "type": "Feature", "properties": {"Name":"Concord town","State":"Arkansas","State_Abbrev":"AR"},
"geometry":{ "type": "Point", "coordinates": [-91.860623,35.66633]}},
{ "type": "Feature", "properties": {"Name":"Conway city","State":"Arkansas","State_Abbrev":"AR"},
"geometry":{ "type": "Point", "coordinates": [-92.467078,35.07435]}},
{ "type": "Feature", "properties": {"Name":"Corinth town","State":"Arkansas","State_Abbrev":"AR"},
"geometry":{ "type": "Point", "coordinates": [-93.420089,35.069508]}},
{ "type": "Feature", "properties": {"Name":"Corning city","State":"Arkansas","State_Abbrev":"AR"},
"geometry":{ "type": "Point", "coordinates": [-90.583609,36.413682]}},
{ "type": "Feature", "properties": {"Name":"Cotter city","State":"Arkansas","State_Abbrev":"AR"},
"geometry":{ "type": "Point", "coordinates": [-92.520821,36.281898]}},
{ "type": "Feature", "properties": {"Name":"Cotton Plant city","State":"Arkansas","State_Abbrev":"AR"},
"geometry":{ "type": "Point", "coordinates": [-91.25205,35.005918]}},
{ "type": "Feature", "properties": {"Name":"Cove town","State":"Arkansas","State_Abbrev":"AR"},
"geometry":{ "type": "Point", "coordinates": [-94.422321,34.438983]}},
{ "type": "Feature", "properties": {"Name":"Coy town","State":"Arkansas","State_Abbrev":"AR"},
"geometry":{ "type": "Point", "coordinates": [-91.871295,34.540484]}},
{ "type": "Feature", "properties": {"Name":"Crawfordsville town","State":"Arkansas","State_Abbrev":"AR"},
"geometry":{ "type": "Point", "coordinates": [-90.324168,35.226672]}},
{ "type": "Feature", "properties": {"Name":"Crossett city","State":"Arkansas","State_Abbrev":"AR"},
"geometry":{ "type": "Point", "coordinates": [-91.958081,33.122819]}},
{ "type": "Feature", "properties": {"Name":"Crystal Springs CDP","State":"Arkansas","State_Abbrev":"AR"},
"geometry":{ "type": "Point", "coordinates": [-93.333623,34.524828]}},
{ "type": "Feature", "properties": {"Name":"Cushman city","State":"Arkansas","State_Abbrev":"AR"},
"geometry":{ "type": "Point", "coordinates": [-91.778081,35.865844]}},
{ "type": "Feature", "properties": {"Name":"Daisy town","State":"Arkansas","State_Abbrev":"AR"},
"geometry":{ "type": "Point", "coordinates": [-93.739193,34.235924]}},
{ "type": "Feature", "properties": {"Name":"Damascus town","State":"Arkansas","State_Abbrev":"AR"},
"geometry":{ "type": "Point", "coordinates": [-92.410712,35.367092]}},
{ "type": "Feature", "properties": {"Name":"Danville city","State":"Arkansas","State_Abbrev":"AR"},
"geometry":{ "type": "Point", "coordinates": [-93.391199,35.052457]}},
{ "type": "Feature", "properties": {"Name":"Dardanelle city","State":"Arkansas","State_Abbrev":"AR"},
"geometry":{ "type": "Point", "coordinates": [-93.165909,35.226305]}},
{ "type": "Feature", "properties": {"Name":"Datto town","State":"Arkansas","State_Abbrev":"AR"},
"geometry":{ "type": "Point", "coordinates": [-90.728499,36.392471]}},
{ "type": "Feature", "properties": {"Name":"Decatur city","State":"Arkansas","State_Abbrev":"AR"},
"geometry":{ "type": "Point", "coordinates": [-94.451344,36.341103]}},
{ "type": "Feature", "properties": {"Name":"Deer CDP","State":"Arkansas","State_Abbrev":"AR"},
"geometry":{ "type": "Point", "coordinates": [-93.219622,35.828023]}},
{ "type": "Feature", "properties": {"Name":"Delaplaine town","State":"Arkansas","State_Abbrev":"AR"},
"geometry":{ "type": "Point", "coordinates": [-90.725646,36.230393]}},
{ "type": "Feature", "properties": {"Name":"Delight city","State":"Arkansas","State_Abbrev":"AR"},
"geometry":{ "type": "Point", "coordinates": [-93.508606,34.029054]}},
{ "type": "Feature", "properties": {"Name":"Dell town","State":"Arkansas","State_Abbrev":"AR"},
"geometry":{ "type": "Point", "coordinates": [-90.034076,35.857166]}},
{ "type": "Feature", "properties": {"Name":"Dennard CDP","State":"Arkansas","State_Abbrev":"AR"},
"geometry":{ "type": "Point", "coordinates": [-92.549999,35.747919]}},
{ "type": "Feature", "properties": {"Name":"Denning town","State":"Arkansas","State_Abbrev":"AR"},
"geometry":{ "type": "Point", "coordinates": [-93.756758,35.425153]}},
{ "type": "Feature", "properties": {"Name":"De Queen city","State":"Arkansas","State_Abbrev":"AR"},
"geometry":{ "type": "Point", "coordinates": [-94.342133,34.042245]}},
{ "type": "Feature", "properties": {"Name":"Dermott city","State":"Arkansas","State_Abbrev":"AR"},
"geometry":{ "type": "Point", "coordinates": [-91.432296,33.526206]}},
{ "type": "Feature", "properties": {"Name":"Des Arc city","State":"Arkansas","State_Abbrev":"AR"},
"geometry":{ "type": "Point", "coordinates": [-91.506835,34.978433]}},
{ "type": "Feature", "properties": {"Name":"Desha CDP","State":"Arkansas","State_Abbrev":"AR"},
"geometry":{ "type": "Point", "coordinates": [-91.685579,35.730455]}},
{ "type": "Feature", "properties": {"Name":"De Valls Bluff city","State":"Arkansas","State_Abbrev":"AR"},
"geometry":{ "type": "Point", "coordinates": [-91.461071,34.785865]}},
{ "type": "Feature", "properties": {"Name":"DeWitt city","State":"Arkansas","State_Abbrev":"AR"},
"geometry":{ "type": "Point", "coordinates": [-91.338326,34.287369]}},
{ "type": "Feature", "properties": {"Name":"Diamond City city","State":"Arkansas","State_Abbrev":"AR"},
"geometry":{ "type": "Point", "coordinates": [-92.910989,36.457609]}},
{ "type": "Feature", "properties": {"Name":"Diaz city","State":"Arkansas","State_Abbrev":"AR"},
"geometry":{ "type": "Point", "coordinates": [-91.258933,35.648773]}},
{ "type": "Feature", "properties": {"Name":"Dierks city","State":"Arkansas","State_Abbrev":"AR"},
"geometry":{ "type": "Point", "coordinates": [-94.017283,34.119961]}},
{ "type": "Feature", "properties": {"Name":"Donaldson town","State":"Arkansas","State_Abbrev":"AR"},
"geometry":{ "type": "Point", "coordinates": [-92.919517,34.234976]}},
{ "type": "Feature", "properties": {"Name":"Dora CDP","State":"Arkansas","State_Abbrev":"AR"},
"geometry":{ "type": "Point", "coordinates": [-94.429694,35.462853]}},
{ "type": "Feature", "properties": {"Name":"Dover city","State":"Arkansas","State_Abbrev":"AR"},
"geometry":{ "type": "Point", "coordinates": [-93.114241,35.390981]}},
{ "type": "Feature", "properties": {"Name":"Drasco CDP","State":"Arkansas","State_Abbrev":"AR"},
"geometry":{ "type": "Point", "coordinates": [-91.941776,35.633775]}},
{ "type": "Feature", "properties": {"Name":"Dumas city","State":"Arkansas","State_Abbrev":"AR"},
"geometry":{ "type": "Point", "coordinates": [-91.485632,33.883372]}},
{ "type": "Feature", "properties": {"Name":"Dyer city","State":"Arkansas","State_Abbrev":"AR"},
"geometry":{ "type": "Point", "coordinates": [-94.138805,35.494367]}},
{ "type": "Feature", "properties": {"Name":"Dyess town","State":"Arkansas","State_Abbrev":"AR"},
"geometry":{ "type": "Point", "coordinates": [-90.213293,35.589338]}},
{ "type": "Feature", "properties": {"Name":"Earle city","State":"Arkansas","State_Abbrev":"AR"},
"geometry":{ "type": "Point", "coordinates": [-90.464304,35.273379]}},
{ "type": "Feature", "properties": {"Name":"East Camden town","State":"Arkansas","State_Abbrev":"AR"},
"geometry":{ "type": "Point", "coordinates": [-92.744966,33.608421]}},
{ "type": "Feature", "properties": {"Name":"East End CDP","State":"Arkansas","State_Abbrev":"AR"},
"geometry":{ "type": "Point", "coordinates": [-92.327475,34.554505]}},
{ "type": "Feature", "properties": {"Name":"Edgemont CDP","State":"Arkansas","State_Abbrev":"AR"},
"geometry":{ "type": "Point", "coordinates": [-92.196371,35.600686]}},
{ "type": "Feature", "properties": {"Name":"Edmondson town","State":"Arkansas","State_Abbrev":"AR"},
"geometry":{ "type": "Point", "coordinates": [-90.305452,35.105035]}},
{ "type": "Feature", "properties": {"Name":"Egypt town","State":"Arkansas","State_Abbrev":"AR"},
"geometry":{ "type": "Point", "coordinates": [-90.945834,35.867775]}},
{ "type": "Feature", "properties": {"Name":"Elaine city","State":"Arkansas","State_Abbrev":"AR"},
"geometry":{ "type": "Point", "coordinates": [-90.853349,34.308603]}},
{ "type": "Feature", "properties": {"Name":"El Dorado city","State":"Arkansas","State_Abbrev":"AR"},
"geometry":{ "type": "Point", "coordinates": [-92.664071,33.218982]}},
{ "type": "Feature", "properties": {"Name":"Elkins city","State":"Arkansas","State_Abbrev":"AR"},
"geometry":{ "type": "Point", "coordinates": [-94.023497,36.017217]}},
{ "type": "Feature", "properties": {"Name":"Elm Springs city","State":"Arkansas","State_Abbrev":"AR"},
"geometry":{ "type": "Point", "coordinates": [-94.237904,36.206224]}},
{ "type": "Feature", "properties": {"Name":"El Paso CDP","State":"Arkansas","State_Abbrev":"AR"},
"geometry":{ "type": "Point", "coordinates": [-92.081189,35.115298]}},
{ "type": "Feature", "properties": {"Name":"Emerson town","State":"Arkansas","State_Abbrev":"AR"},
"geometry":{ "type": "Point", "coordinates": [-93.195976,33.097328]}},
{ "type": "Feature", "properties": {"Name":"Emmet city","State":"Arkansas","State_Abbrev":"AR"},
"geometry":{ "type": "Point", "coordinates": [-93.466156,33.722539]}},
{ "type": "Feature", "properties": {"Name":"England city","State":"Arkansas","State_Abbrev":"AR"},
"geometry":{ "type": "Point", "coordinates": [-91.967442,34.545431]}},
{ "type": "Feature", "properties": {"Name":"Enola town","State":"Arkansas","State_Abbrev":"AR"},
"geometry":{ "type": "Point", "coordinates": [-92.206581,35.195907]}},
{ "type": "Feature", "properties": {"Name":"Etowah town","State":"Arkansas","State_Abbrev":"AR"},
"geometry":{ "type": "Point", "coordinates": [-90.230682,35.715758]}},
{ "type": "Feature", "properties": {"Name":"Eudora city","State":"Arkansas","State_Abbrev":"AR"},
"geometry":{ "type": "Point", "coordinates": [-91.264033,33.118866]}},
{ "type": "Feature", "properties": {"Name":"Eureka Springs city","State":"Arkansas","State_Abbrev":"AR"},
"geometry":{ "type": "Point", "coordinates": [-93.744904,36.410774]}},
{ "type": "Feature", "properties": {"Name":"Evansville CDP","State":"Arkansas","State_Abbrev":"AR"},
"geometry":{ "type": "Point", "coordinates": [-94.488844,35.790635]}},
{ "type": "Feature", "properties": {"Name":"Evening Shade city","State":"Arkansas","State_Abbrev":"AR"},
"geometry":{ "type": "Point", "coordinates": [-91.621881,36.069933]}},
{ "type": "Feature", "properties": {"Name":"Everton town","State":"Arkansas","State_Abbrev":"AR"},
"geometry":{ "type": "Point", "coordinates": [-92.909538,36.15414]}},
{ "type": "Feature", "properties": {"Name":"Fairfield Bay city","State":"Arkansas","State_Abbrev":"AR"},
"geometry":{ "type": "Point", "coordinates": [-92.266208,35.601101]}},
{ "type": "Feature", "properties": {"Name":"Fair Oaks CDP","State":"Arkansas","State_Abbrev":"AR"},
"geometry":{ "type": "Point", "coordinates": [-91.036017,35.248002]}},
{ "type": "Feature", "properties": {"Name":"Fargo town","State":"Arkansas","State_Abbrev":"AR"},
"geometry":{ "type": "Point", "coordinates": [-91.179744,34.953995]}},
{ "type": "Feature", "properties": {"Name":"Farmington city","State":"Arkansas","State_Abbrev":"AR"},
"geometry":{ "type": "Point", "coordinates": [-94.252466,36.036581]}},
{ "type": "Feature", "properties": {"Name":"Fayetteville city","State":"Arkansas","State_Abbrev":"AR"},
"geometry":{ "type": "Point", "coordinates": [-94.166564,36.071455]}},
{ "type": "Feature", "properties": {"Name":"Felsenthal town","State":"Arkansas","State_Abbrev":"AR"},
"geometry":{ "type": "Point", "coordinates": [-92.148961,33.060826]}},
{ "type": "Feature", "properties": {"Name":"Fifty-Six city","State":"Arkansas","State_Abbrev":"AR"},
"geometry":{ "type": "Point", "coordinates": [-92.233355,35.96351]}},
{ "type": "Feature", "properties": {"Name":"Fisher city","State":"Arkansas","State_Abbrev":"AR"},
"geometry":{ "type": "Point", "coordinates": [-90.972494,35.491424]}},
{ "type": "Feature", "properties": {"Name":"Flippin city","State":"Arkansas","State_Abbrev":"AR"},
"geometry":{ "type": "Point", "coordinates": [-92.59353,36.27732]}},
{ "type": "Feature", "properties": {"Name":"Floral CDP","State":"Arkansas","State_Abbrev":"AR"},
"geometry":{ "type": "Point", "coordinates": [-91.758932,35.588939]}},
{ "type": "Feature", "properties": {"Name":"Floyd CDP","State":"Arkansas","State_Abbrev":"AR"},
"geometry":{ "type": "Point", "coordinates": [-91.96453,35.198879]}},
{ "type": "Feature", "properties": {"Name":"Fordyce city","State":"Arkansas","State_Abbrev":"AR"},
"geometry":{ "type": "Point", "coordinates": [-92.416972,33.818236]}},
{ "type": "Feature", "properties": {"Name":"Foreman city","State":"Arkansas","State_Abbrev":"AR"},
"geometry":{ "type": "Point", "coordinates": [-94.397668,33.719494]}},
{ "type": "Feature", "properties": {"Name":"Forrest City city","State":"Arkansas","State_Abbrev":"AR"},
"geometry":{ "type": "Point", "coordinates": [-90.793207,35.013599]}},
{ "type": "Feature", "properties": {"Name":"Fort Smith city","State":"Arkansas","State_Abbrev":"AR"},
"geometry":{ "type": "Point", "coordinates": [-94.370883,35.349276]}},
{ "type": "Feature", "properties": {"Name":"Fouke city","State":"Arkansas","State_Abbrev":"AR"},
"geometry":{ "type": "Point", "coordinates": [-93.88523,33.262235]}},
{ "type": "Feature", "properties": {"Name":"Fountain Hill town","State":"Arkansas","State_Abbrev":"AR"},
"geometry":{ "type": "Point", "coordinates": [-91.851141,33.357545]}},
{ "type": "Feature", "properties": {"Name":"Fountain Lake town","State":"Arkansas","State_Abbrev":"AR"},
"geometry":{ "type": "Point", "coordinates": [-92.919774,34.609848]}},
{ "type": "Feature", "properties": {"Name":"Fourche town","State":"Arkansas","State_Abbrev":"AR"},
"geometry":{ "type": "Point", "coordinates": [-92.618944,34.993128]}},
{ "type": "Feature", "properties": {"Name":"Fox CDP","State":"Arkansas","State_Abbrev":"AR"},
"geometry":{ "type": "Point", "coordinates": [-92.299626,35.784398]}},
{ "type": "Feature", "properties": {"Name":"Franklin town","State":"Arkansas","State_Abbrev":"AR"},
"geometry":{ "type": "Point", "coordinates": [-91.769724,36.1727]}},
{ "type": "Feature", "properties": {"Name":"Fredonia (Biscoe) town","State":"Arkansas","State_Abbrev":"AR"},
"geometry":{ "type": "Point", "coordinates": [-91.41016,34.81937]}},
{ "type": "Feature", "properties": {"Name":"Friendship town","State":"Arkansas","State_Abbrev":"AR"},
"geometry":{ "type": "Point", "coordinates": [-93.00366,34.224344]}},
{ "type": "Feature", "properties": {"Name":"Fulton town","State":"Arkansas","State_Abbrev":"AR"},
"geometry":{ "type": "Point", "coordinates": [-93.813795,33.612565]}},
{ "type": "Feature", "properties": {"Name":"Gamaliel CDP","State":"Arkansas","State_Abbrev":"AR"},
"geometry":{ "type": "Point", "coordinates": [-92.236928,36.45189]}},
{ "type": "Feature", "properties": {"Name":"Garfield town","State":"Arkansas","State_Abbrev":"AR"},
"geometry":{ "type": "Point", "coordinates": [-93.975782,36.455428]}},
{ "type": "Feature", "properties": {"Name":"Garland town","State":"Arkansas","State_Abbrev":"AR"},
"geometry":{ "type": "Point", "coordinates": [-93.71417,33.360958]}},
{ "type": "Feature", "properties": {"Name":"Garner town","State":"Arkansas","State_Abbrev":"AR"},
"geometry":{ "type": "Point", "coordinates": [-91.779184,35.142496]}},
{ "type": "Feature", "properties": {"Name":"Gassville city","State":"Arkansas","State_Abbrev":"AR"},
"geometry":{ "type": "Point", "coordinates": [-92.48683,36.284949]}},
{ "type": "Feature", "properties": {"Name":"Gateway town","State":"Arkansas","State_Abbrev":"AR"},
"geometry":{ "type": "Point", "coordinates": [-93.933087,36.488902]}},
{ "type": "Feature", "properties": {"Name":"Genoa CDP","State":"Arkansas","State_Abbrev":"AR"},
"geometry":{ "type": "Point", "coordinates": [-93.882415,33.377487]}},
{ "type": "Feature", "properties": {"Name":"Gentry city","State":"Arkansas","State_Abbrev":"AR"},
"geometry":{ "type": "Point", "coordinates": [-94.490876,36.259553]}},
{ "type": "Feature", "properties": {"Name":"Georgetown town","State":"Arkansas","State_Abbrev":"AR"},
"geometry":{ "type": "Point", "coordinates": [-91.453923,35.126678]}},
{ "type": "Feature", "properties": {"Name":"Gibson CDP","State":"Arkansas","State_Abbrev":"AR"},
"geometry":{ "type": "Point", "coordinates": [-92.240817,34.902228]}},
{ "type": "Feature", "properties": {"Name":"Gilbert town","State":"Arkansas","State_Abbrev":"AR"},
"geometry":{ "type": "Point", "coordinates": [-92.716181,35.990981]}},
{ "type": "Feature", "properties": {"Name":"Gillett city","State":"Arkansas","State_Abbrev":"AR"},
"geometry":{ "type": "Point", "coordinates": [-91.379133,34.119172]}},
{ "type": "Feature", "properties": {"Name":"Gillham town","State":"Arkansas","State_Abbrev":"AR"},
"geometry":{ "type": "Point", "coordinates": [-94.312977,34.168628]}},
{ "type": "Feature", "properties": {"Name":"Gilmore city","State":"Arkansas","State_Abbrev":"AR"},
"geometry":{ "type": "Point", "coordinates": [-90.29558,35.413994]}},
{ "type": "Feature", "properties": {"Name":"Glenwood city","State":"Arkansas","State_Abbrev":"AR"},
"geometry":{ "type": "Point", "coordinates": [-93.527255,34.328314]}},
{ "type": "Feature", "properties": {"Name":"Goodwin CDP","State":"Arkansas","State_Abbrev":"AR"},
"geometry":{ "type": "Point", "coordinates": [-91.003576,34.940726]}},
{ "type": "Feature", "properties": {"Name":"Goshen town","State":"Arkansas","State_Abbrev":"AR"},
"geometry":{ "type": "Point", "coordinates": [-94.001579,36.102458]}},
{ "type": "Feature", "properties": {"Name":"Gosnell city","State":"Arkansas","State_Abbrev":"AR"},
"geometry":{ "type": "Point", "coordinates": [-89.968577,35.964937]}},
{ "type": "Feature", "properties": {"Name":"Gould city","State":"Arkansas","State_Abbrev":"AR"},
"geometry":{ "type": "Point", "coordinates": [-91.564038,33.987194]}},
{ "type": "Feature", "properties": {"Name":"Grady city","State":"Arkansas","State_Abbrev":"AR"},
"geometry":{ "type": "Point", "coordinates": [-91.697637,34.072492]}},
{ "type": "Feature", "properties": {"Name":"Grannis city","State":"Arkansas","State_Abbrev":"AR"},
"geometry":{ "type": "Point", "coordinates": [-94.321995,34.240165]}},
{ "type": "Feature", "properties": {"Name":"Gravette city","State":"Arkansas","State_Abbrev":"AR"},
"geometry":{ "type": "Point", "coordinates": [-94.368529,36.428296]}},
{ "type": "Feature", "properties": {"Name":"Greenbrier city","State":"Arkansas","State_Abbrev":"AR"},
"geometry":{ "type": "Point", "coordinates": [-92.383568,35.228843]}},
{ "type": "Feature", "properties": {"Name":"Green Forest city","State":"Arkansas","State_Abbrev":"AR"},
"geometry":{ "type": "Point", "coordinates": [-93.430962,36.33471]}},
{ "type": "Feature", "properties": {"Name":"Greenland city","State":"Arkansas","State_Abbrev":"AR"},
"geometry":{ "type": "Point", "coordinates": [-94.19089,35.996194]}},
{ "type": "Feature", "properties": {"Name":"Greenway city","State":"Arkansas","State_Abbrev":"AR"},
"geometry":{ "type": "Point", "coordinates": [-90.222124,36.340577]}},
{ "type": "Feature", "properties": {"Name":"Greenwood city","State":"Arkansas","State_Abbrev":"AR"},
"geometry":{ "type": "Point", "coordinates": [-94.239444,35.211348]}},
{ "type": "Feature", "properties": {"Name":"Greers Ferry city","State":"Arkansas","State_Abbrev":"AR"},
"geometry":{ "type": "Point", "coordinates": [-92.165959,35.574966]}},
{ "type": "Feature", "properties": {"Name":"Gregory CDP","State":"Arkansas","State_Abbrev":"AR"},
"geometry":{ "type": "Point", "coordinates": [-91.334241,35.153332]}},
{ "type": "Feature", "properties": {"Name":"Griffithville town","State":"Arkansas","State_Abbrev":"AR"},
"geometry":{ "type": "Point", "coordinates": [-91.64497,35.123053]}},
{ "type": "Feature", "properties": {"Name":"Grubbs city","State":"Arkansas","State_Abbrev":"AR"},
"geometry":{ "type": "Point", "coordinates": [-91.075464,35.653999]}},
{ "type": "Feature", "properties": {"Name":"Guion town","State":"Arkansas","State_Abbrev":"AR"},
"geometry":{ "type": "Point", "coordinates": [-91.938927,35.926834]}},
{ "type": "Feature", "properties": {"Name":"Gum Springs town","State":"Arkansas","State_Abbrev":"AR"},
"geometry":{ "type": "Point", "coordinates": [-93.095709,34.063937]}},
{ "type": "Feature", "properties": {"Name":"Gurdon city","State":"Arkansas","State_Abbrev":"AR"},
"geometry":{ "type": "Point", "coordinates": [-93.15391,33.916032]}},
{ "type": "Feature", "properties": {"Name":"Guy city","State":"Arkansas","State_Abbrev":"AR"},
"geometry":{ "type": "Point", "coordinates": [-92.336661,35.327322]}},
{ "type": "Feature", "properties": {"Name":"Hackett city","State":"Arkansas","State_Abbrev":"AR"},
"geometry":{ "type": "Point", "coordinates": [-94.410341,35.188027]}},
{ "type": "Feature", "properties": {"Name":"Hagarville CDP","State":"Arkansas","State_Abbrev":"AR"},
"geometry":{ "type": "Point", "coordinates": [-93.332135,35.515017]}},
{ "type": "Feature", "properties": {"Name":"Halley CDP","State":"Arkansas","State_Abbrev":"AR"},
"geometry":{ "type": "Point", "coordinates": [-91.323651,33.536255]}},
{ "type": "Feature", "properties": {"Name":"Hamburg city","State":"Arkansas","State_Abbrev":"AR"},
"geometry":{ "type": "Point", "coordinates": [-91.797247,33.224755]}},
{ "type": "Feature", "properties": {"Name":"Hampton city","State":"Arkansas","State_Abbrev":"AR"},
"geometry":{ "type": "Point", "coordinates": [-92.466607,33.534763]}},
{ "type": "Feature", "properties": {"Name":"Hardy city","State":"Arkansas","State_Abbrev":"AR"},
"geometry":{ "type": "Point", "coordinates": [-91.481503,36.319645]}},
{ "type": "Feature", "properties": {"Name":"Harrell town","State":"Arkansas","State_Abbrev":"AR"},
"geometry":{ "type": "Point", "coordinates": [-92.400061,33.509869]}},
{ "type": "Feature", "properties": {"Name":"Harrisburg city","State":"Arkansas","State_Abbrev":"AR"},
"geometry":{ "type": "Point", "coordinates": [-90.721615,35.563772]}},
{ "type": "Feature", "properties": {"Name":"Harrison city","State":"Arkansas","State_Abbrev":"AR"},
"geometry":{ "type": "Point", "coordinates": [-93.11765,36.242592]}},
{ "type": "Feature", "properties": {"Name":"Hartford city","State":"Arkansas","State_Abbrev":"AR"},
"geometry":{ "type": "Point", "coordinates": [-94.379406,35.023433]}},
{ "type": "Feature", "properties": {"Name":"Hartman city","State":"Arkansas","State_Abbrev":"AR"},
"geometry":{ "type": "Point", "coordinates": [-93.628245,35.43525]}},
{ "type": "Feature", "properties": {"Name":"Haskell city","State":"Arkansas","State_Abbrev":"AR"},
"geometry":{ "type": "Point", "coordinates": [-92.641861,34.509238]}},
{ "type": "Feature", "properties": {"Name":"Hatfield town","State":"Arkansas","State_Abbrev":"AR"},
"geometry":{ "type": "Point", "coordinates": [-94.37991,34.484507]}},
{ "type": "Feature", "properties": {"Name":"Hattieville CDP","State":"Arkansas","State_Abbrev":"AR"},
"geometry":{ "type": "Point", "coordinates": [-92.775351,35.295226]}},
{ "type": "Feature", "properties": {"Name":"Havana city","State":"Arkansas","State_Abbrev":"AR"},
"geometry":{ "type": "Point", "coordinates": [-93.526022,35.109809]}},
{ "type": "Feature", "properties": {"Name":"Haynes town","State":"Arkansas","State_Abbrev":"AR"},
"geometry":{ "type": "Point", "coordinates": [-90.792662,34.890933]}},
{ "type": "Feature", "properties": {"Name":"Hazen city","State":"Arkansas","State_Abbrev":"AR"},
"geometry":{ "type": "Point", "coordinates": [-91.558058,34.781368]}},
{ "type": "Feature", "properties": {"Name":"Heber Springs city","State":"Arkansas","State_Abbrev":"AR"},
"geometry":{ "type": "Point", "coordinates": [-92.029339,35.499554]}},
{ "type": "Feature", "properties": {"Name":"Hector town","State":"Arkansas","State_Abbrev":"AR"},
"geometry":{ "type": "Point", "coordinates": [-92.97913,35.462913]}},
{ "type": "Feature", "properties": {"Name":"Helena-West Helena city","State":"Arkansas","State_Abbrev":"AR"},
"geometry":{ "type": "Point", "coordinates": [-90.620098,34.531363]}},
{ "type": "Feature", "properties": {"Name":"Henderson CDP","State":"Arkansas","State_Abbrev":"AR"},
"geometry":{ "type": "Point", "coordinates": [-92.218918,36.377214]}},
{ "type": "Feature", "properties": {"Name":"Hensley CDP","State":"Arkansas","State_Abbrev":"AR"},
"geometry":{ "type": "Point", "coordinates": [-92.209517,34.51041]}},
{ "type": "Feature", "properties": {"Name":"Hermitage city","State":"Arkansas","State_Abbrev":"AR"},
"geometry":{ "type": "Point", "coordinates": [-92.171455,33.447372]}},
{ "type": "Feature", "properties": {"Name":"Hickory Ridge city","State":"Arkansas","State_Abbrev":"AR"},
"geometry":{ "type": "Point", "coordinates": [-90.994458,35.402812]}},
{ "type": "Feature", "properties": {"Name":"Higden town","State":"Arkansas","State_Abbrev":"AR"},
"geometry":{ "type": "Point", "coordinates": [-92.20518,35.566406]}},
{ "type": "Feature", "properties": {"Name":"Higginson town","State":"Arkansas","State_Abbrev":"AR"},
"geometry":{ "type": "Point", "coordinates": [-91.715175,35.196813]}},
{ "type": "Feature", "properties": {"Name":"Highfill town","State":"Arkansas","State_Abbrev":"AR"},
"geometry":{ "type": "Point", "coordinates": [-94.323862,36.274375]}},
{ "type": "Feature", "properties": {"Name":"Highland city","State":"Arkansas","State_Abbrev":"AR"},
"geometry":{ "type": "Point", "coordinates": [-91.519824,36.26943]}},
{ "type": "Feature", "properties": {"Name":"Hindsville town","State":"Arkansas","State_Abbrev":"AR"},
"geometry":{ "type": "Point", "coordinates": [-93.86488,36.147719]}},
{ "type": "Feature", "properties": {"Name":"Holiday Island town","State":"Arkansas","State_Abbrev":"AR"},
"geometry":{ "type": "Point", "coordinates": [-93.736832,36.484211]}},
{ "type": "Feature", "properties": {"Name":"Holland city","State":"Arkansas","State_Abbrev":"AR"},
"geometry":{ "type": "Point", "coordinates": [-92.277049,35.166012]}},
{ "type": "Feature", "properties": {"Name":"Holly Grove city","State":"Arkansas","State_Abbrev":"AR"},
"geometry":{ "type": "Point", "coordinates": [-91.200255,34.601497]}},
{ "type": "Feature", "properties": {"Name":"Hope city","State":"Arkansas","State_Abbrev":"AR"},
"geometry":{ "type": "Point", "coordinates": [-93.588885,33.668164]}},
{ "type": "Feature", "properties": {"Name":"Horatio city","State":"Arkansas","State_Abbrev":"AR"},
"geometry":{ "type": "Point", "coordinates": [-94.356201,33.942739]}},
{ "type": "Feature", "properties": {"Name":"Horseshoe Bend city","State":"Arkansas","State_Abbrev":"AR"},
"geometry":{ "type": "Point", "coordinates": [-91.738324,36.218726]}},
{ "type": "Feature", "properties": {"Name":"Horseshoe Lake town","State":"Arkansas","State_Abbrev":"AR"},
"geometry":{ "type": "Point", "coordinates": [-90.307722,34.913753]}},
{ "type": "Feature", "properties": {"Name":"Hot Springs city","State":"Arkansas","State_Abbrev":"AR"},
"geometry":{ "type": "Point", "coordinates": [-93.050254,34.489442]}},
{ "type": "Feature", "properties": {"Name":"Hot Springs Village CDP","State":"Arkansas","State_Abbrev":"AR"},
"geometry":{ "type": "Point", "coordinates": [-92.968643,34.658069]}},
{ "type": "Feature", "properties": {"Name":"Houston town","State":"Arkansas","State_Abbrev":"AR"},
"geometry":{ "type": "Point", "coordinates": [-92.694525,35.034879]}},
{ "type": "Feature", "properties": {"Name":"Hoxie city","State":"Arkansas","State_Abbrev":"AR"},
"geometry":{ "type": "Point", "coordinates": [-90.973588,36.036041]}},
{ "type": "Feature", "properties": {"Name":"Hughes city","State":"Arkansas","State_Abbrev":"AR"},
"geometry":{ "type": "Point", "coordinates": [-90.471372,34.948109]}},
{ "type": "Feature", "properties": {"Name":"Humnoke city","State":"Arkansas","State_Abbrev":"AR"},
"geometry":{ "type": "Point", "coordinates": [-91.759656,34.542242]}},
{ "type": "Feature", "properties": {"Name":"Humphrey city","State":"Arkansas","State_Abbrev":"AR"},
"geometry":{ "type": "Point", "coordinates": [-91.702454,34.42237]}},
{ "type": "Feature", "properties": {"Name":"Hunter town","State":"Arkansas","State_Abbrev":"AR"},
"geometry":{ "type": "Point", "coordinates": [-91.122855,35.05456]}},
{ "type": "Feature", "properties": {"Name":"Huntington city","State":"Arkansas","State_Abbrev":"AR"},
"geometry":{ "type": "Point", "coordinates": [-94.266319,35.08171]}},
{ "type": "Feature", "properties": {"Name":"Huntsville city","State":"Arkansas","State_Abbrev":"AR"},
"geometry":{ "type": "Point", "coordinates": [-93.733244,36.098656]}},
{ "type": "Feature", "properties": {"Name":"Huttig city","State":"Arkansas","State_Abbrev":"AR"},
"geometry":{ "type": "Point", "coordinates": [-92.179678,33.04032]}},
{ "type": "Feature", "properties": {"Name":"Imboden town","State":"Arkansas","State_Abbrev":"AR"},
"geometry":{ "type": "Point", "coordinates": [-91.177386,36.199696]}},
{ "type": "Feature", "properties": {"Name":"Indian Bay CDP","State":"Arkansas","State_Abbrev":"AR"},
"geometry":{ "type": "Point", "coordinates": [-91.069561,34.38712]}},
{ "type": "Feature", "properties": {"Name":"Ivan CDP","State":"Arkansas","State_Abbrev":"AR"},
"geometry":{ "type": "Point", "coordinates": [-92.433196,33.901968]}},
{ "type": "Feature", "properties": {"Name":"Jacksonport town","State":"Arkansas","State_Abbrev":"AR"},
"geometry":{ "type": "Point", "coordinates": [-91.307914,35.642177]}},
{ "type": "Feature", "properties": {"Name":"Jacksonville city","State":"Arkansas","State_Abbrev":"AR"},
"geometry":{ "type": "Point", "coordinates": [-92.13059,34.880512]}},
{ "type": "Feature", "properties": {"Name":"Jasper city","State":"Arkansas","State_Abbrev":"AR"},
"geometry":{ "type": "Point", "coordinates": [-93.1875,36.012102]}},
{ "type": "Feature", "properties": {"Name":"Jennette town","State":"Arkansas","State_Abbrev":"AR"},
"geometry":{ "type": "Point", "coordinates": [-90.418765,35.158127]}},
{ "type": "Feature", "properties": {"Name":"Jericho town","State":"Arkansas","State_Abbrev":"AR"},
"geometry":{ "type": "Point", "coordinates": [-90.230466,35.287677]}},
{ "type": "Feature", "properties": {"Name":"Jerome CDP","State":"Arkansas","State_Abbrev":"AR"},
"geometry":{ "type": "Point", "coordinates": [-91.470514,33.397236]}},
{ "type": "Feature", "properties": {"Name":"Jerusalem CDP","State":"Arkansas","State_Abbrev":"AR"},
"geometry":{ "type": "Point", "coordinates": [-92.823013,35.40757]}},
{ "type": "Feature", "properties": {"Name":"Johnson city","State":"Arkansas","State_Abbrev":"AR"},
"geometry":{ "type": "Point", "coordinates": [-94.174269,36.133854]}},
{ "type": "Feature", "properties": {"Name":"Joiner city","State":"Arkansas","State_Abbrev":"AR"},
"geometry":{ "type": "Point", "coordinates": [-90.150706,35.50739]}},
{ "type": "Feature", "properties": {"Name":"Jonesboro city","State":"Arkansas","State_Abbrev":"AR"},
"geometry":{ "type": "Point", "coordinates": [-90.679033,35.819755]}},
{ "type": "Feature", "properties": {"Name":"Jones Mills CDP","State":"Arkansas","State_Abbrev":"AR"},
"geometry":{ "type": "Point", "coordinates": [-92.901539,34.444947]}},
{ "type": "Feature", "properties": {"Name":"Judsonia city","State":"Arkansas","State_Abbrev":"AR"},
"geometry":{ "type": "Point", "coordinates": [-91.641614,35.276431]}},
{ "type": "Feature", "properties": {"Name":"Junction City city","State":"Arkansas","State_Abbrev":"AR"},
"geometry":{ "type": "Point", "coordinates": [-92.723616,33.022091]}},
{ "type": "Feature", "properties": {"Name":"Keiser city","State":"Arkansas","State_Abbrev":"AR"},
"geometry":{ "type": "Point", "coordinates": [-90.095843,35.673984]}},
{ "type": "Feature", "properties": {"Name":"Kensett city","State":"Arkansas","State_Abbrev":"AR"},
"geometry":{ "type": "Point", "coordinates": [-91.671256,35.2352]}},
{ "type": "Feature", "properties": {"Name":"Keo town","State":"Arkansas","State_Abbrev":"AR"},
"geometry":{ "type": "Point", "coordinates": [-92.011566,34.609287]}},
{ "type": "Feature", "properties": {"Name":"Kibler city","State":"Arkansas","State_Abbrev":"AR"},
"geometry":{ "type": "Point", "coordinates": [-94.236145,35.425237]}},
{ "type": "Feature", "properties": {"Name":"Kingsland city","State":"Arkansas","State_Abbrev":"AR"},
"geometry":{ "type": "Point", "coordinates": [-92.297789,33.857975]}},
{ "type": "Feature", "properties": {"Name":"Kingston CDP","State":"Arkansas","State_Abbrev":"AR"},
"geometry":{ "type": "Point", "coordinates": [-93.514735,36.056744]}},
{ "type": "Feature", "properties": {"Name":"Kirby CDP","State":"Arkansas","State_Abbrev":"AR"},
"geometry":{ "type": "Point", "coordinates": [-93.654873,34.254291]}},
{ "type": "Feature", "properties": {"Name":"Knobel city","State":"Arkansas","State_Abbrev":"AR"},
"geometry":{ "type": "Point", "coordinates": [-90.602266,36.319986]}},
{ "type": "Feature", "properties": {"Name":"Knoxville town","State":"Arkansas","State_Abbrev":"AR"},
"geometry":{ "type": "Point", "coordinates": [-93.361839,35.377537]}},
{ "type": "Feature", "properties": {"Name":"Lacey CDP","State":"Arkansas","State_Abbrev":"AR"},
"geometry":{ "type": "Point", "coordinates": [-91.849554,33.450347]}},
{ "type": "Feature", "properties": {"Name":"Lafe town","State":"Arkansas","State_Abbrev":"AR"},
"geometry":{ "type": "Point", "coordinates": [-90.504292,36.209178]}},
{ "type": "Feature", "properties": {"Name":"LaGrange town","State":"Arkansas","State_Abbrev":"AR"},
"geometry":{ "type": "Point", "coordinates": [-90.734742,34.655757]}},
{ "type": "Feature", "properties": {"Name":"Lake City city","State":"Arkansas","State_Abbrev":"AR"},
"geometry":{ "type": "Point", "coordinates": [-90.453905,35.81937]}},
{ "type": "Feature", "properties": {"Name":"Lake Hamilton CDP","State":"Arkansas","State_Abbrev":"AR"},
"geometry":{ "type": "Point", "coordinates": [-93.076352,34.429621]}},
{ "type": "Feature", "properties": {"Name":"Lakeview city","State":"Arkansas","State_Abbrev":"AR"},
"geometry":{ "type": "Point", "coordinates": [-92.538735,36.373907]}},
{ "type": "Feature", "properties": {"Name":"Lake View city","State":"Arkansas","State_Abbrev":"AR"},
"geometry":{ "type": "Point", "coordinates": [-90.813314,34.42116]}},
{ "type": "Feature", "properties": {"Name":"Lake Village city","State":"Arkansas","State_Abbrev":"AR"},
"geometry":{ "type": "Point", "coordinates": [-91.284794,33.32918]}},
{ "type": "Feature", "properties": {"Name":"Lamar city","State":"Arkansas","State_Abbrev":"AR"},
"geometry":{ "type": "Point", "coordinates": [-93.394675,35.444425]}},
{ "type": "Feature", "properties": {"Name":"Landmark CDP","State":"Arkansas","State_Abbrev":"AR"},
"geometry":{ "type": "Point", "coordinates": [-92.316045,34.610352]}},
{ "type": "Feature", "properties": {"Name":"Lavaca city","State":"Arkansas","State_Abbrev":"AR"},
"geometry":{ "type": "Point", "coordinates": [-94.182885,35.330199]}},
{ "type": "Feature", "properties": {"Name":"Lawson CDP","State":"Arkansas","State_Abbrev":"AR"},
"geometry":{ "type": "Point", "coordinates": [-92.487896,33.19996]}},
{ "type": "Feature", "properties": {"Name":"Leachville city","State":"Arkansas","State_Abbrev":"AR"},
"geometry":{ "type": "Point", "coordinates": [-90.254955,35.911468]}},
{ "type": "Feature", "properties": {"Name":"Lead Hill town","State":"Arkansas","State_Abbrev":"AR"},
"geometry":{ "type": "Point", "coordinates": [-92.907167,36.413611]}},
{ "type": "Feature", "properties": {"Name":"Leola town","State":"Arkansas","State_Abbrev":"AR"},
"geometry":{ "type": "Point", "coordinates": [-92.591412,34.170087]}},
{ "type": "Feature", "properties": {"Name":"Lepanto city","State":"Arkansas","State_Abbrev":"AR"},
"geometry":{ "type": "Point", "coordinates": [-90.332985,35.608528]}},
{ "type": "Feature", "properties": {"Name":"Leslie city","State":"Arkansas","State_Abbrev":"AR"},
"geometry":{ "type": "Point", "coordinates": [-92.555961,35.829508]}},
{ "type": "Feature", "properties": {"Name":"Letona town","State":"Arkansas","State_Abbrev":"AR"},
"geometry":{ "type": "Point", "coordinates": [-91.829547,35.363502]}},
{ "type": "Feature", "properties": {"Name":"Lewisville city","State":"Arkansas","State_Abbrev":"AR"},
"geometry":{ "type": "Point", "coordinates": [-93.583971,33.360132]}},
{ "type": "Feature", "properties": {"Name":"Lexa town","State":"Arkansas","State_Abbrev":"AR"},
"geometry":{ "type": "Point", "coordinates": [-90.751887,34.598248]}},
{ "type": "Feature", "properties": {"Name":"Lincoln city","State":"Arkansas","State_Abbrev":"AR"},
"geometry":{ "type": "Point", "coordinates": [-94.417468,35.948834]}},
{ "type": "Feature", "properties": {"Name":"Little Flock city","State":"Arkansas","State_Abbrev":"AR"},
"geometry":{ "type": "Point", "coordinates": [-94.137265,36.383335]}},
{ "type": "Feature", "properties": {"Name":"Little Rock city","State":"Arkansas","State_Abbrev":"AR"},
"geometry":{ "type": "Point", "coordinates": [-92.358556,34.725393]}},
{ "type": "Feature", "properties": {"Name":"Lockesburg city","State":"Arkansas","State_Abbrev":"AR"},
"geometry":{ "type": "Point", "coordinates": [-94.179584,33.972871]}},
{ "type": "Feature", "properties": {"Name":"London city","State":"Arkansas","State_Abbrev":"AR"},
"geometry":{ "type": "Point", "coordinates": [-93.243466,35.327616]}},
{ "type": "Feature", "properties": {"Name":"Lonoke city","State":"Arkansas","State_Abbrev":"AR"},
"geometry":{ "type": "Point", "coordinates": [-91.907362,34.790501]}},
{ "type": "Feature", "properties": {"Name":"Lonsdale town","State":"Arkansas","State_Abbrev":"AR"},
"geometry":{ "type": "Point", "coordinates": [-92.810563,34.544967]}},
{ "type": "Feature", "properties": {"Name":"Lost Bridge Village CDP","State":"Arkansas","State_Abbrev":"AR"},
"geometry":{ "type": "Point", "coordinates": [-93.915536,36.389728]}},
{ "type": "Feature", "properties": {"Name":"Louann town","State":"Arkansas","State_Abbrev":"AR"},
"geometry":{ "type": "Point", "coordinates": [-92.792214,33.391481]}},
{ "type": "Feature", "properties": {"Name":"Lowell city","State":"Arkansas","State_Abbrev":"AR"},
"geometry":{ "type": "Point", "coordinates": [-94.153356,36.255855]}},
{ "type": "Feature", "properties": {"Name":"Luxora city","State":"Arkansas","State_Abbrev":"AR"},
"geometry":{ "type": "Point", "coordinates": [-89.92948,35.757672]}},
{ "type": "Feature", "properties": {"Name":"Lynn town","State":"Arkansas","State_Abbrev":"AR"},
"geometry":{ "type": "Point", "coordinates": [-91.252,36.004263]}},
{ "type": "Feature", "properties": {"Name":"McAlmont CDP","State":"Arkansas","State_Abbrev":"AR"},
"geometry":{ "type": "Point", "coordinates": [-92.196013,34.792492]}},
{ "type": "Feature", "properties": {"Name":"McCaskill town","State":"Arkansas","State_Abbrev":"AR"},
"geometry":{ "type": "Point", "coordinates": [-93.636831,33.919539]}},
{ "type": "Feature", "properties": {"Name":"McCrory city","State":"Arkansas","State_Abbrev":"AR"},
"geometry":{ "type": "Point", "coordinates": [-91.197276,35.257326]}},
{ "type": "Feature", "properties": {"Name":"McDougal town","State":"Arkansas","State_Abbrev":"AR"},
"geometry":{ "type": "Point", "coordinates": [-90.390727,36.436465]}},
{ "type": "Feature", "properties": {"Name":"McGehee city","State":"Arkansas","State_Abbrev":"AR"},
"geometry":{ "type": "Point", "coordinates": [-91.39501,33.627794]}},
{ "type": "Feature", "properties": {"Name":"McNab town","State":"Arkansas","State_Abbrev":"AR"},
"geometry":{ "type": "Point", "coordinates": [-93.832282,33.660895]}},
{ "type": "Feature", "properties": {"Name":"McNeil city","State":"Arkansas","State_Abbrev":"AR"},
"geometry":{ "type": "Point", "coordinates": [-93.208404,33.347917]}},
{ "type": "Feature", "properties": {"Name":"McRae city","State":"Arkansas","State_Abbrev":"AR"},
"geometry":{ "type": "Point", "coordinates": [-91.826194,35.113627]}},
{ "type": "Feature", "properties": {"Name":"Madison city","State":"Arkansas","State_Abbrev":"AR"},
"geometry":{ "type": "Point", "coordinates": [-90.73115,35.017993]}},
{ "type": "Feature", "properties": {"Name":"Magazine city","State":"Arkansas","State_Abbrev":"AR"},
"geometry":{ "type": "Point", "coordinates": [-93.807851,35.153901]}},
{ "type": "Feature", "properties": {"Name":"Magness town","State":"Arkansas","State_Abbrev":"AR"},
"geometry":{ "type": "Point", "coordinates": [-91.482237,35.703055]}},
{ "type": "Feature", "properties": {"Name":"Magnet Cove CDP","State":"Arkansas","State_Abbrev":"AR"},
"geometry":{ "type": "Point", "coordinates": [-92.837719,34.449161]}},
{ "type": "Feature", "properties": {"Name":"Magnolia city","State":"Arkansas","State_Abbrev":"AR"},
"geometry":{ "type": "Point", "coordinates": [-93.226247,33.276698]}},
{ "type": "Feature", "properties": {"Name":"Malvern city","State":"Arkansas","State_Abbrev":"AR"},
"geometry":{ "type": "Point", "coordinates": [-92.82125,34.373579]}},
{ "type": "Feature", "properties": {"Name":"Mammoth Spring city","State":"Arkansas","State_Abbrev":"AR"},
"geometry":{ "type": "Point", "coordinates": [-91.541067,36.49241]}},
{ "type": "Feature", "properties": {"Name":"Manila city","State":"Arkansas","State_Abbrev":"AR"},
"geometry":{ "type": "Point", "coordinates": [-90.165398,35.884906]}},
{ "type": "Feature", "properties": {"Name":"Mansfield city","State":"Arkansas","State_Abbrev":"AR"},
"geometry":{ "type": "Point", "coordinates": [-94.234269,35.063915]}},
{ "type": "Feature", "properties": {"Name":"Marianna city","State":"Arkansas","State_Abbrev":"AR"},
"geometry":{ "type": "Point", "coordinates": [-90.767501,34.77363]}},
{ "type": "Feature", "properties": {"Name":"Marie town","State":"Arkansas","State_Abbrev":"AR"},
"geometry":{ "type": "Point", "coordinates": [-90.082963,35.612931]}},
{ "type": "Feature", "properties": {"Name":"Marion city","State":"Arkansas","State_Abbrev":"AR"},
"geometry":{ "type": "Point", "coordinates": [-90.206715,35.204246]}},
{ "type": "Feature", "properties": {"Name":"Marked Tree city","State":"Arkansas","State_Abbrev":"AR"},
"geometry":{ "type": "Point", "coordinates": [-90.42661,35.527889]}},
{ "type": "Feature", "properties": {"Name":"Marmaduke city","State":"Arkansas","State_Abbrev":"AR"},
"geometry":{ "type": "Point", "coordinates": [-90.385061,36.190028]}},
{ "type": "Feature", "properties": {"Name":"Marshall city","State":"Arkansas","State_Abbrev":"AR"},
"geometry":{ "type": "Point", "coordinates": [-92.646498,35.908461]}},
{ "type": "Feature", "properties": {"Name":"Marvell city","State":"Arkansas","State_Abbrev":"AR"},
"geometry":{ "type": "Point", "coordinates": [-90.915338,34.556304]}},
{ "type": "Feature", "properties": {"Name":"Maumelle city","State":"Arkansas","State_Abbrev":"AR"},
"geometry":{ "type": "Point", "coordinates": [-92.399995,34.852344]}},
{ "type": "Feature", "properties": {"Name":"Mayflower city","State":"Arkansas","State_Abbrev":"AR"},
"geometry":{ "type": "Point", "coordinates": [-92.419355,34.980324]}},
{ "type": "Feature", "properties": {"Name":"Maynard town","State":"Arkansas","State_Abbrev":"AR"},
"geometry":{ "type": "Point", "coordinates": [-90.901804,36.421493]}},
{ "type": "Feature", "properties": {"Name":"Maysville CDP","State":"Arkansas","State_Abbrev":"AR"},
"geometry":{ "type": "Point", "coordinates": [-94.588951,36.401975]}},
{ "type": "Feature", "properties": {"Name":"Melbourne city","State":"Arkansas","State_Abbrev":"AR"},
"geometry":{ "type": "Point", "coordinates": [-91.88152,36.063971]}},
{ "type": "Feature", "properties": {"Name":"Mellwood CDP","State":"Arkansas","State_Abbrev":"AR"},
"geometry":{ "type": "Point", "coordinates": [-90.944687,34.215475]}},
{ "type": "Feature", "properties": {"Name":"Mena city","State":"Arkansas","State_Abbrev":"AR"},
"geometry":{ "type": "Point", "coordinates": [-94.237096,34.580834]}},
{ "type": "Feature", "properties": {"Name":"Menifee town","State":"Arkansas","State_Abbrev":"AR"},
"geometry":{ "type": "Point", "coordinates": [-92.55042,35.149702]}},
{ "type": "Feature", "properties": {"Name":"Midland town","State":"Arkansas","State_Abbrev":"AR"},
"geometry":{ "type": "Point", "coordinates": [-94.352955,35.092403]}},
{ "type": "Feature", "properties": {"Name":"Midway CDP","State":"Arkansas","State_Abbrev":"AR"},
"geometry":{ "type": "Point", "coordinates": [-92.475532,36.39224]}},
{ "type": "Feature", "properties": {"Name":"Midway town","State":"Arkansas","State_Abbrev":"AR"},
"geometry":{ "type": "Point", "coordinates": [-92.973433,34.249893]}},
{ "type": "Feature", "properties": {"Name":"Mineral Springs city","State":"Arkansas","State_Abbrev":"AR"},
"geometry":{ "type": "Point", "coordinates": [-93.921386,33.877723]}},
{ "type": "Feature", "properties": {"Name":"Minturn town","State":"Arkansas","State_Abbrev":"AR"},
"geometry":{ "type": "Point", "coordinates": [-91.027188,35.976417]}},
{ "type": "Feature", "properties": {"Name":"Mitchellville city","State":"Arkansas","State_Abbrev":"AR"},
"geometry":{ "type": "Point", "coordinates": [-91.498398,33.905333]}},
{ "type": "Feature", "properties": {"Name":"Monette city","State":"Arkansas","State_Abbrev":"AR"},
"geometry":{ "type": "Point", "coordinates": [-90.344106,35.893208]}},
{ "type": "Feature", "properties": {"Name":"Monroe CDP","State":"Arkansas","State_Abbrev":"AR"},
"geometry":{ "type": "Point", "coordinates": [-91.106766,34.73404]}},
{ "type": "Feature", "properties": {"Name":"Monticello city","State":"Arkansas","State_Abbrev":"AR"},
"geometry":{ "type": "Point", "coordinates": [-91.793722,33.624778]}},
{ "type": "Feature", "properties": {"Name":"Montrose city","State":"Arkansas","State_Abbrev":"AR"},
"geometry":{ "type": "Point", "coordinates": [-91.49644,33.298925]}},
{ "type": "Feature", "properties": {"Name":"Moorefield town","State":"Arkansas","State_Abbrev":"AR"},
"geometry":{ "type": "Point", "coordinates": [-91.570807,35.767228]}},
{ "type": "Feature", "properties": {"Name":"Moro town","State":"Arkansas","State_Abbrev":"AR"},
"geometry":{ "type": "Point", "coordinates": [-90.987984,34.791976]}},
{ "type": "Feature", "properties": {"Name":"Morrilton city","State":"Arkansas","State_Abbrev":"AR"},
"geometry":{ "type": "Point", "coordinates": [-92.738932,35.155456]}},
{ "type": "Feature", "properties": {"Name":"Morrison Bluff town","State":"Arkansas","State_Abbrev":"AR"},
"geometry":{ "type": "Point", "coordinates": [-93.518854,35.381952]}},
{ "type": "Feature", "properties": {"Name":"Morrow CDP","State":"Arkansas","State_Abbrev":"AR"},
"geometry":{ "type": "Point", "coordinates": [-94.430562,35.856329]}},
{ "type": "Feature", "properties": {"Name":"Mountainburg city","State":"Arkansas","State_Abbrev":"AR"},
"geometry":{ "type": "Point", "coordinates": [-94.162407,35.649625]}},
{ "type": "Feature", "properties": {"Name":"Mountain Home city","State":"Arkansas","State_Abbrev":"AR"},
"geometry":{ "type": "Point", "coordinates": [-92.384039,36.335118]}},
{ "type": "Feature", "properties": {"Name":"Mountain Pine city","State":"Arkansas","State_Abbrev":"AR"},
"geometry":{ "type": "Point", "coordinates": [-93.171493,34.569642]}},
{ "type": "Feature", "properties": {"Name":"Mountain View city","State":"Arkansas","State_Abbrev":"AR"},
"geometry":{ "type": "Point", "coordinates": [-92.109657,35.861559]}},
{ "type": "Feature", "properties": {"Name":"Mount Holly CDP","State":"Arkansas","State_Abbrev":"AR"},
"geometry":{ "type": "Point", "coordinates": [-92.950213,33.307223]}},
{ "type": "Feature", "properties": {"Name":"Mount Ida city","State":"Arkansas","State_Abbrev":"AR"},
"geometry":{ "type": "Point", "coordinates": [-93.629939,34.549153]}},
{ "type": "Feature", "properties": {"Name":"Mount Judea CDP","State":"Arkansas","State_Abbrev":"AR"},
"geometry":{ "type": "Point", "coordinates": [-93.056804,35.926173]}},
{ "type": "Feature", "properties": {"Name":"Mount Olive CDP","State":"Arkansas","State_Abbrev":"AR"},
"geometry":{ "type": "Point", "coordinates": [-92.090465,36.003119]}},
{ "type": "Feature", "properties": {"Name":"Mount Pleasant town","State":"Arkansas","State_Abbrev":"AR"},
"geometry":{ "type": "Point", "coordinates": [-91.777383,35.981423]}},
{ "type": "Feature", "properties": {"Name":"Mount Vernon town","State":"Arkansas","State_Abbrev":"AR"},
"geometry":{ "type": "Point", "coordinates": [-92.12398,35.223605]}},
{ "type": "Feature", "properties": {"Name":"Mulberry city","State":"Arkansas","State_Abbrev":"AR"},
"geometry":{ "type": "Point", "coordinates": [-94.074753,35.5085]}},
{ "type": "Feature", "properties": {"Name":"Murfreesboro city","State":"Arkansas","State_Abbrev":"AR"},
"geometry":{ "type": "Point", "coordinates": [-93.694073,34.070312]}},
{ "type": "Feature", "properties": {"Name":"Nashville city","State":"Arkansas","State_Abbrev":"AR"},
"geometry":{ "type": "Point", "coordinates": [-93.851658,33.941924]}},
{ "type": "Feature", "properties": {"Name":"Natural Steps CDP","State":"Arkansas","State_Abbrev":"AR"},
"geometry":{ "type": "Point", "coordinates": [-92.497772,34.874266]}},
{ "type": "Feature", "properties": {"Name":"Newark city","State":"Arkansas","State_Abbrev":"AR"},
"geometry":{ "type": "Point", "coordinates": [-91.4434,35.70763]}},
{ "type": "Feature", "properties": {"Name":"New Blaine CDP","State":"Arkansas","State_Abbrev":"AR"},
"geometry":{ "type": "Point", "coordinates": [-93.419083,35.29252]}},
{ "type": "Feature", "properties": {"Name":"New Edinburg CDP","State":"Arkansas","State_Abbrev":"AR"},
"geometry":{ "type": "Point", "coordinates": [-92.240365,33.756223]}},
{ "type": "Feature", "properties": {"Name":"Newhope CDP","State":"Arkansas","State_Abbrev":"AR"},
"geometry":{ "type": "Point", "coordinates": [-93.877396,34.222258]}},
{ "type": "Feature", "properties": {"Name":"Newport city","State":"Arkansas","State_Abbrev":"AR"},
"geometry":{ "type": "Point", "coordinates": [-91.231682,35.623772]}},
{ "type": "Feature", "properties": {"Name":"Nimmons town","State":"Arkansas","State_Abbrev":"AR"},
"geometry":{ "type": "Point", "coordinates": [-90.095055,36.30625]}},
{ "type": "Feature", "properties": {"Name":"Norfork city","State":"Arkansas","State_Abbrev":"AR"},
"geometry":{ "type": "Point", "coordinates": [-92.277844,36.209469]}},
{ "type": "Feature", "properties": {"Name":"Norman town","State":"Arkansas","State_Abbrev":"AR"},
"geometry":{ "type": "Point", "coordinates": [-93.676824,34.458977]}},
{ "type": "Feature", "properties": {"Name":"Norphlet city","State":"Arkansas","State_Abbrev":"AR"},
"geometry":{ "type": "Point", "coordinates": [-92.662009,33.319889]}},
{ "type": "Feature", "properties": {"Name":"North Crossett CDP","State":"Arkansas","State_Abbrev":"AR"},
"geometry":{ "type": "Point", "coordinates": [-91.931736,33.174113]}},
{ "type": "Feature", "properties": {"Name":"North Little Rock city","State":"Arkansas","State_Abbrev":"AR"},
"geometry":{ "type": "Point", "coordinates": [-92.235057,34.781752]}},
{ "type": "Feature", "properties": {"Name":"Oak Grove town","State":"Arkansas","State_Abbrev":"AR"},
"geometry":{ "type": "Point", "coordinates": [-93.430143,36.463958]}},
{ "type": "Feature", "properties": {"Name":"Oak Grove CDP","State":"Arkansas","State_Abbrev":"AR"},
"geometry":{ "type": "Point", "coordinates": [-92.964179,35.364779]}},
{ "type": "Feature", "properties": {"Name":"Oak Grove Heights town","State":"Arkansas","State_Abbrev":"AR"},
"geometry":{ "type": "Point", "coordinates": [-90.503435,36.126432]}},
{ "type": "Feature", "properties": {"Name":"Oakhaven town","State":"Arkansas","State_Abbrev":"AR"},
"geometry":{ "type": "Point", "coordinates": [-93.620783,33.729396]}},
{ "type": "Feature", "properties": {"Name":"Oakland CDP","State":"Arkansas","State_Abbrev":"AR"},
"geometry":{ "type": "Point", "coordinates": [-92.571771,36.460423]}},
{ "type": "Feature", "properties": {"Name":"Oark CDP","State":"Arkansas","State_Abbrev":"AR"},
"geometry":{ "type": "Point", "coordinates": [-93.575027,35.694977]}},
{ "type": "Feature", "properties": {"Name":"Oden town","State":"Arkansas","State_Abbrev":"AR"},
"geometry":{ "type": "Point", "coordinates": [-93.783646,34.623149]}},
{ "type": "Feature", "properties": {"Name":"Ogden city","State":"Arkansas","State_Abbrev":"AR"},
"geometry":{ "type": "Point", "coordinates": [-94.046917,33.585869]}},
{ "type": "Feature", "properties": {"Name":"Oil Trough town","State":"Arkansas","State_Abbrev":"AR"},
"geometry":{ "type": "Point", "coordinates": [-91.461229,35.629162]}},
{ "type": "Feature", "properties": {"Name":"O'Kean town","State":"Arkansas","State_Abbrev":"AR"},
"geometry":{ "type": "Point", "coordinates": [-90.818348,36.171462]}},
{ "type": "Feature", "properties": {"Name":"Okolona town","State":"Arkansas","State_Abbrev":"AR"},
"geometry":{ "type": "Point", "coordinates": [-93.337624,34.000478]}},
{ "type": "Feature", "properties": {"Name":"Ola city","State":"Arkansas","State_Abbrev":"AR"},
"geometry":{ "type": "Point", "coordinates": [-93.224035,35.031448]}},
{ "type": "Feature", "properties": {"Name":"Omaha town","State":"Arkansas","State_Abbrev":"AR"},
"geometry":{ "type": "Point", "coordinates": [-93.189964,36.461647]}},
{ "type": "Feature", "properties": {"Name":"Oneida CDP","State":"Arkansas","State_Abbrev":"AR"},
"geometry":{ "type": "Point", "coordinates": [-90.786721,34.460486]}},
{ "type": "Feature", "properties": {"Name":"Oppelo city","State":"Arkansas","State_Abbrev":"AR"},
"geometry":{ "type": "Point", "coordinates": [-92.773566,35.100558]}},
{ "type": "Feature", "properties": {"Name":"Osceola city","State":"Arkansas","State_Abbrev":"AR"},
"geometry":{ "type": "Point", "coordinates": [-89.993421,35.694195]}},
{ "type": "Feature", "properties": {"Name":"Oxford city","State":"Arkansas","State_Abbrev":"AR"},
"geometry":{ "type": "Point", "coordinates": [-91.918268,36.20903]}},
{ "type": "Feature", "properties": {"Name":"Ozan town","State":"Arkansas","State_Abbrev":"AR"},
"geometry":{ "type": "Point", "coordinates": [-93.720822,33.846611]}},
{ "type": "Feature", "properties": {"Name":"Ozark city","State":"Arkansas","State_Abbrev":"AR"},
"geometry":{ "type": "Point", "coordinates": [-93.848378,35.501858]}},
{ "type": "Feature", "properties": {"Name":"Ozark Acres CDP","State":"Arkansas","State_Abbrev":"AR"},
"geometry":{ "type": "Point", "coordinates": [-91.387076,36.299916]}},
{ "type": "Feature", "properties": {"Name":"Ozone CDP","State":"Arkansas","State_Abbrev":"AR"},
"geometry":{ "type": "Point", "coordinates": [-93.447317,35.638491]}},
{ "type": "Feature", "properties": {"Name":"Palestine city","State":"Arkansas","State_Abbrev":"AR"},
"geometry":{ "type": "Point", "coordinates": [-90.908225,34.970307]}},
{ "type": "Feature", "properties": {"Name":"Pangburn city","State":"Arkansas","State_Abbrev":"AR"},
"geometry":{ "type": "Point", "coordinates": [-91.839411,35.426108]}},
{ "type": "Feature", "properties": {"Name":"Paragould city","State":"Arkansas","State_Abbrev":"AR"},
"geometry":{ "type": "Point", "coordinates": [-90.51047,36.05229]}},
{ "type": "Feature", "properties": {"Name":"Paris city","State":"Arkansas","State_Abbrev":"AR"},
"geometry":{ "type": "Point", "coordinates": [-93.724947,35.289127]}},
{ "type": "Feature", "properties": {"Name":"Parkdale city","State":"Arkansas","State_Abbrev":"AR"},
"geometry":{ "type": "Point", "coordinates": [-91.546399,33.121215]}},
{ "type": "Feature", "properties": {"Name":"Parkin city","State":"Arkansas","State_Abbrev":"AR"},
"geometry":{ "type": "Point", "coordinates": [-90.553508,35.261175]}},
{ "type": "Feature", "properties": {"Name":"Patmos town","State":"Arkansas","State_Abbrev":"AR"},
"geometry":{ "type": "Point", "coordinates": [-93.566956,33.511369]}},
{ "type": "Feature", "properties": {"Name":"Patterson city","State":"Arkansas","State_Abbrev":"AR"},
"geometry":{ "type": "Point", "coordinates": [-91.234957,35.258973]}},
{ "type": "Feature", "properties": {"Name":"Payneway CDP","State":"Arkansas","State_Abbrev":"AR"},
"geometry":{ "type": "Point", "coordinates": [-90.512297,35.545728]}},
{ "type": "Feature", "properties": {"Name":"Peach Orchard city","State":"Arkansas","State_Abbrev":"AR"},
"geometry":{ "type": "Point", "coordinates": [-90.660774,36.281229]}},
{ "type": "Feature", "properties": {"Name":"Pearcy CDP","State":"Arkansas","State_Abbrev":"AR"},
"geometry":{ "type": "Point", "coordinates": [-93.288217,34.435455]}},
{ "type": "Feature", "properties": {"Name":"Pea Ridge city","State":"Arkansas","State_Abbrev":"AR"},
"geometry":{ "type": "Point", "coordinates": [-94.120807,36.446651]}},
{ "type": "Feature", "properties": {"Name":"Pencil Bluff CDP","State":"Arkansas","State_Abbrev":"AR"},
"geometry":{ "type": "Point", "coordinates": [-93.735033,34.630384]}},
{ "type": "Feature", "properties": {"Name":"Perla town","State":"Arkansas","State_Abbrev":"AR"},
"geometry":{ "type": "Point", "coordinates": [-92.776228,34.364755]}},
{ "type": "Feature", "properties": {"Name":"Perry town","State":"Arkansas","State_Abbrev":"AR"},
"geometry":{ "type": "Point", "coordinates": [-92.79441,35.046221]}},
{ "type": "Feature", "properties": {"Name":"Perrytown town","State":"Arkansas","State_Abbrev":"AR"},
"geometry":{ "type": "Point", "coordinates": [-93.532407,33.697141]}},
{ "type": "Feature", "properties": {"Name":"Perryville city","State":"Arkansas","State_Abbrev":"AR"},
"geometry":{ "type": "Point", "coordinates": [-92.802938,35.012]}},
{ "type": "Feature", "properties": {"Name":"Piggott city","State":"Arkansas","State_Abbrev":"AR"},
"geometry":{ "type": "Point", "coordinates": [-90.198944,36.387191]}},
{ "type": "Feature", "properties": {"Name":"Pindall town","State":"Arkansas","State_Abbrev":"AR"},
"geometry":{ "type": "Point", "coordinates": [-92.862158,36.063663]}},
{ "type": "Feature", "properties": {"Name":"Pine Bluff city","State":"Arkansas","State_Abbrev":"AR"},
"geometry":{ "type": "Point", "coordinates": [-92.017555,34.211591]}},
{ "type": "Feature", "properties": {"Name":"Pineville town","State":"Arkansas","State_Abbrev":"AR"},
"geometry":{ "type": "Point", "coordinates": [-92.106471,36.161145]}},
{ "type": "Feature", "properties": {"Name":"Piney CDP","State":"Arkansas","State_Abbrev":"AR"},
"geometry":{ "type": "Point", "coordinates": [-93.144427,34.502914]}},
{ "type": "Feature", "properties": {"Name":"Plainview city","State":"Arkansas","State_Abbrev":"AR"},
"geometry":{ "type": "Point", "coordinates": [-93.297948,34.989874]}},
{ "type": "Feature", "properties": {"Name":"Pleasant Grove CDP","State":"Arkansas","State_Abbrev":"AR"},
"geometry":{ "type": "Point", "coordinates": [-91.906976,35.820465]}},
{ "type": "Feature", "properties": {"Name":"Pleasant Plains town","State":"Arkansas","State_Abbrev":"AR"},
"geometry":{ "type": "Point", "coordinates": [-91.627246,35.55453]}},
{ "type": "Feature", "properties": {"Name":"Plumerville city","State":"Arkansas","State_Abbrev":"AR"},
"geometry":{ "type": "Point", "coordinates": [-92.643059,35.159377]}},
{ "type": "Feature", "properties": {"Name":"Pocahontas city","State":"Arkansas","State_Abbrev":"AR"},
"geometry":{ "type": "Point", "coordinates": [-90.970826,36.263904]}},
{ "type": "Feature", "properties": {"Name":"Pollard city","State":"Arkansas","State_Abbrev":"AR"},
"geometry":{ "type": "Point", "coordinates": [-90.267129,36.429561]}},
{ "type": "Feature", "properties": {"Name":"Ponca CDP","State":"Arkansas","State_Abbrev":"AR"},
"geometry":{ "type": "Point", "coordinates": [-93.362376,36.029292]}},
{ "type": "Feature", "properties": {"Name":"Poplar Grove CDP","State":"Arkansas","State_Abbrev":"AR"},
"geometry":{ "type": "Point", "coordinates": [-90.854223,34.552169]}},
{ "type": "Feature", "properties": {"Name":"Portia town","State":"Arkansas","State_Abbrev":"AR"},
"geometry":{ "type": "Point", "coordinates": [-91.071044,36.084865]}},
{ "type": "Feature", "properties": {"Name":"Portland city","State":"Arkansas","State_Abbrev":"AR"},
"geometry":{ "type": "Point", "coordinates": [-91.510945,33.237935]}},
{ "type": "Feature", "properties": {"Name":"Pottsville city","State":"Arkansas","State_Abbrev":"AR"},
"geometry":{ "type": "Point", "coordinates": [-93.060839,35.230606]}},
{ "type": "Feature", "properties": {"Name":"Powhatan town","State":"Arkansas","State_Abbrev":"AR"},
"geometry":{ "type": "Point", "coordinates": [-91.123884,36.087312]}},
{ "type": "Feature", "properties": {"Name":"Poyen town","State":"Arkansas","State_Abbrev":"AR"},
"geometry":{ "type": "Point", "coordinates": [-92.641976,34.324169]}},
{ "type": "Feature", "properties": {"Name":"Prairie Creek CDP","State":"Arkansas","State_Abbrev":"AR"},
"geometry":{ "type": "Point", "coordinates": [-94.058933,36.329478]}},
{ "type": "Feature", "properties": {"Name":"Prairie Grove city","State":"Arkansas","State_Abbrev":"AR"},
"geometry":{ "type": "Point", "coordinates": [-94.303383,35.986113]}},
{ "type": "Feature", "properties": {"Name":"Prattsville town","State":"Arkansas","State_Abbrev":"AR"},
"geometry":{ "type": "Point", "coordinates": [-92.543146,34.318495]}},
{ "type": "Feature", "properties": {"Name":"Prescott city","State":"Arkansas","State_Abbrev":"AR"},
"geometry":{ "type": "Point", "coordinates": [-93.391207,33.80432]}},
{ "type": "Feature", "properties": {"Name":"Princeton CDP","State":"Arkansas","State_Abbrev":"AR"},
"geometry":{ "type": "Point", "coordinates": [-92.624178,33.97754]}},
{ "type": "Feature", "properties": {"Name":"Pyatt town","State":"Arkansas","State_Abbrev":"AR"},
"geometry":{ "type": "Point", "coordinates": [-92.846637,36.250744]}},
{ "type": "Feature", "properties": {"Name":"Quitman city","State":"Arkansas","State_Abbrev":"AR"},
"geometry":{ "type": "Point", "coordinates": [-92.214724,35.381723]}},
{ "type": "Feature", "properties": {"Name":"Ratcliff city","State":"Arkansas","State_Abbrev":"AR"},
"geometry":{ "type": "Point", "coordinates": [-93.888636,35.306946]}},
{ "type": "Feature", "properties": {"Name":"Ravenden town","State":"Arkansas","State_Abbrev":"AR"},
"geometry":{ "type": "Point", "coordinates": [-91.251307,36.243201]}},
{ "type": "Feature", "properties": {"Name":"Ravenden Springs town","State":"Arkansas","State_Abbrev":"AR"},
"geometry":{ "type": "Point", "coordinates": [-91.223265,36.312705]}},
{ "type": "Feature", "properties": {"Name":"Reader CDP","State":"Arkansas","State_Abbrev":"AR"},
"geometry":{ "type": "Point", "coordinates": [-93.101184,33.75161]}},
{ "type": "Feature", "properties": {"Name":"Rector city","State":"Arkansas","State_Abbrev":"AR"},
"geometry":{ "type": "Point", "coordinates": [-90.293518,36.264158]}},
{ "type": "Feature", "properties": {"Name":"Redfield city","State":"Arkansas","State_Abbrev":"AR"},
"geometry":{ "type": "Point", "coordinates": [-92.188484,34.439337]}},
{ "type": "Feature", "properties": {"Name":"Reed town","State":"Arkansas","State_Abbrev":"AR"},
"geometry":{ "type": "Point", "coordinates": [-91.445758,33.701672]}},
{ "type": "Feature", "properties": {"Name":"Reyno city","State":"Arkansas","State_Abbrev":"AR"},
"geometry":{ "type": "Point", "coordinates": [-90.758993,36.360899]}},
{ "type": "Feature", "properties": {"Name":"Rison city","State":"Arkansas","State_Abbrev":"AR"},
"geometry":{ "type": "Point", "coordinates": [-92.193648,33.959951]}},
{ "type": "Feature", "properties": {"Name":"Rivervale CDP","State":"Arkansas","State_Abbrev":"AR"},
"geometry":{ "type": "Point", "coordinates": [-90.3445,35.675877]}},
{ "type": "Feature", "properties": {"Name":"Rockport city","State":"Arkansas","State_Abbrev":"AR"},
"geometry":{ "type": "Point", "coordinates": [-92.806678,34.407063]}},
{ "type": "Feature", "properties": {"Name":"Rockwell CDP","State":"Arkansas","State_Abbrev":"AR"},
"geometry":{ "type": "Point", "coordinates": [-93.133829,34.464341]}},
{ "type": "Feature", "properties": {"Name":"Roe town","State":"Arkansas","State_Abbrev":"AR"},
"geometry":{ "type": "Point", "coordinates": [-91.385963,34.631101]}},
{ "type": "Feature", "properties": {"Name":"Rogers city","State":"Arkansas","State_Abbrev":"AR"},
"geometry":{ "type": "Point", "coordinates": [-94.152287,36.318085]}},
{ "type": "Feature", "properties": {"Name":"Roland CDP","State":"Arkansas","State_Abbrev":"AR"},
"geometry":{ "type": "Point", "coordinates": [-92.517469,34.90224]}},
{ "type": "Feature", "properties": {"Name":"Rondo town","State":"Arkansas","State_Abbrev":"AR"},
"geometry":{ "type": "Point", "coordinates": [-90.820842,34.657447]}},
{ "type": "Feature", "properties": {"Name":"Rose Bud town","State":"Arkansas","State_Abbrev":"AR"},
"geometry":{ "type": "Point", "coordinates": [-92.076515,35.321183]}},
{ "type": "Feature", "properties": {"Name":"Rosston town","State":"Arkansas","State_Abbrev":"AR"},
"geometry":{ "type": "Point", "coordinates": [-93.286934,33.588019]}},
{ "type": "Feature", "properties": {"Name":"Rover CDP","State":"Arkansas","State_Abbrev":"AR"},
"geometry":{ "type": "Point", "coordinates": [-93.408964,34.951824]}},
{ "type": "Feature", "properties": {"Name":"Rudy town","State":"Arkansas","State_Abbrev":"AR"},
"geometry":{ "type": "Point", "coordinates": [-94.240384,35.527455]}},
{ "type": "Feature", "properties": {"Name":"Russell town","State":"Arkansas","State_Abbrev":"AR"},
"geometry":{ "type": "Point", "coordinates": [-91.509947,35.362126]}},
{ "type": "Feature", "properties": {"Name":"Russellville city","State":"Arkansas","State_Abbrev":"AR"},
"geometry":{ "type": "Point", "coordinates": [-93.138743,35.276328]}},
{ "type": "Feature", "properties": {"Name":"Rye CDP","State":"Arkansas","State_Abbrev":"AR"},
"geometry":{ "type": "Point", "coordinates": [-91.998485,33.750475]}},
{ "type": "Feature", "properties": {"Name":"St. Charles town","State":"Arkansas","State_Abbrev":"AR"},
"geometry":{ "type": "Point", "coordinates": [-91.137446,34.372999]}},
{ "type": "Feature", "properties": {"Name":"St. Francis city","State":"Arkansas","State_Abbrev":"AR"},
"geometry":{ "type": "Point", "coordinates": [-90.142179,36.454872]}},
{ "type": "Feature", "properties": {"Name":"St. Joe town","State":"Arkansas","State_Abbrev":"AR"},
"geometry":{ "type": "Point", "coordinates": [-92.801276,36.026028]}},
{ "type": "Feature", "properties": {"Name":"St. Paul town","State":"Arkansas","State_Abbrev":"AR"},
"geometry":{ "type": "Point", "coordinates": [-93.767285,35.826791]}},
{ "type": "Feature", "properties": {"Name":"Salado CDP","State":"Arkansas","State_Abbrev":"AR"},
"geometry":{ "type": "Point", "coordinates": [-91.592317,35.695405]}},
{ "type": "Feature", "properties": {"Name":"Salem city","State":"Arkansas","State_Abbrev":"AR"},
"geometry":{ "type": "Point", "coordinates": [-91.821706,36.370416]}},
{ "type": "Feature", "properties": {"Name":"Salem CDP","State":"Arkansas","State_Abbrev":"AR"},
"geometry":{ "type": "Point", "coordinates": [-92.561492,34.630899]}},
{ "type": "Feature", "properties": {"Name":"Salesville city","State":"Arkansas","State_Abbrev":"AR"},
"geometry":{ "type": "Point", "coordinates": [-92.277495,36.23906]}},
{ "type": "Feature", "properties": {"Name":"Saratoga CDP","State":"Arkansas","State_Abbrev":"AR"},
"geometry":{ "type": "Point", "coordinates": [-93.904289,33.743741]}},
{ "type": "Feature", "properties": {"Name":"Sardis CDP","State":"Arkansas","State_Abbrev":"AR"},
"geometry":{ "type": "Point", "coordinates": [-92.406722,34.533041]}},
{ "type": "Feature", "properties": {"Name":"Scott CDP","State":"Arkansas","State_Abbrev":"AR"},
"geometry":{ "type": "Point", "coordinates": [-92.093932,34.69766]}},
{ "type": "Feature", "properties": {"Name":"Scranton city","State":"Arkansas","State_Abbrev":"AR"},
"geometry":{ "type": "Point", "coordinates": [-93.539724,35.36043]}},
{ "type": "Feature", "properties": {"Name":"Searcy city","State":"Arkansas","State_Abbrev":"AR"},
"geometry":{ "type": "Point", "coordinates": [-91.735223,35.241134]}},
{ "type": "Feature", "properties": {"Name":"Sedgwick town","State":"Arkansas","State_Abbrev":"AR"},
"geometry":{ "type": "Point", "coordinates": [-90.862149,35.974161]}},
{ "type": "Feature", "properties": {"Name":"Shannon Hills city","State":"Arkansas","State_Abbrev":"AR"},
"geometry":{ "type": "Point", "coordinates": [-92.402176,34.617586]}},
{ "type": "Feature", "properties": {"Name":"Sheridan city","State":"Arkansas","State_Abbrev":"AR"},
"geometry":{ "type": "Point", "coordinates": [-92.443067,34.321575]}},
{ "type": "Feature", "properties": {"Name":"Sherrill town","State":"Arkansas","State_Abbrev":"AR"},
"geometry":{ "type": "Point", "coordinates": [-91.951808,34.385065]}},
{ "type": "Feature", "properties": {"Name":"Sherwood city","State":"Arkansas","State_Abbrev":"AR"},
"geometry":{ "type": "Point", "coordinates": [-92.204483,34.852029]}},
{ "type": "Feature", "properties": {"Name":"Shirley town","State":"Arkansas","State_Abbrev":"AR"},
"geometry":{ "type": "Point", "coordinates": [-92.313519,35.643751]}},
{ "type": "Feature", "properties": {"Name":"Sidney town","State":"Arkansas","State_Abbrev":"AR"},
"geometry":{ "type": "Point", "coordinates": [-91.658289,36.004421]}},
{ "type": "Feature", "properties": {"Name":"Siloam Springs city","State":"Arkansas","State_Abbrev":"AR"},
"geometry":{ "type": "Point", "coordinates": [-94.531517,36.184612]}},
{ "type": "Feature", "properties": {"Name":"Smackover city","State":"Arkansas","State_Abbrev":"AR"},
"geometry":{ "type": "Point", "coordinates": [-92.731425,33.363589]}},
{ "type": "Feature", "properties": {"Name":"Smithville town","State":"Arkansas","State_Abbrev":"AR"},
"geometry":{ "type": "Point", "coordinates": [-91.302675,36.079921]}},
{ "type": "Feature", "properties": {"Name":"South Lead Hill town","State":"Arkansas","State_Abbrev":"AR"},
"geometry":{ "type": "Point", "coordinates": [-92.906209,36.395614]}},
{ "type": "Feature", "properties": {"Name":"Southside city","State":"Arkansas","State_Abbrev":"AR"},
"geometry":{ "type": "Point", "coordinates": [-91.630162,35.720183]}},
{ "type": "Feature", "properties": {"Name":"Sparkman city","State":"Arkansas","State_Abbrev":"AR"},
"geometry":{ "type": "Point", "coordinates": [-92.849997,33.917168]}},
{ "type": "Feature", "properties": {"Name":"Springdale city","State":"Arkansas","State_Abbrev":"AR"},
"geometry":{ "type": "Point", "coordinates": [-94.155062,36.191438]}},
{ "type": "Feature", "properties": {"Name":"Springfield CDP","State":"Arkansas","State_Abbrev":"AR"},
"geometry":{ "type": "Point", "coordinates": [-92.554988,35.272887]}},
{ "type": "Feature", "properties": {"Name":"Springtown town","State":"Arkansas","State_Abbrev":"AR"},
"geometry":{ "type": "Point", "coordinates": [-94.423812,36.260285]}},
{ "type": "Feature", "properties": {"Name":"Stamps city","State":"Arkansas","State_Abbrev":"AR"},
"geometry":{ "type": "Point", "coordinates": [-93.497879,33.354959]}},
{ "type": "Feature", "properties": {"Name":"Star City city","State":"Arkansas","State_Abbrev":"AR"},
"geometry":{ "type": "Point", "coordinates": [-91.839962,33.94078]}},
{ "type": "Feature", "properties": {"Name":"Staves CDP","State":"Arkansas","State_Abbrev":"AR"},
"geometry":{ "type": "Point", "coordinates": [-92.280583,34.033579]}},
{ "type": "Feature", "properties": {"Name":"Stephens city","State":"Arkansas","State_Abbrev":"AR"},
"geometry":{ "type": "Point", "coordinates": [-93.06959,33.420917]}},
{ "type": "Feature", "properties": {"Name":"Strawberry town","State":"Arkansas","State_Abbrev":"AR"},
"geometry":{ "type": "Point", "coordinates": [-91.321102,35.966523]}},
{ "type": "Feature", "properties": {"Name":"Strong city","State":"Arkansas","State_Abbrev":"AR"},
"geometry":{ "type": "Point", "coordinates": [-92.355573,33.107883]}},
{ "type": "Feature", "properties": {"Name":"Stuttgart city","State":"Arkansas","State_Abbrev":"AR"},
"geometry":{ "type": "Point", "coordinates": [-91.548638,34.495233]}},
{ "type": "Feature", "properties": {"Name":"Subiaco town","State":"Arkansas","State_Abbrev":"AR"},
"geometry":{ "type": "Point", "coordinates": [-93.639439,35.297367]}},
{ "type": "Feature", "properties": {"Name":"Success town","State":"Arkansas","State_Abbrev":"AR"},
"geometry":{ "type": "Point", "coordinates": [-90.722625,36.454501]}},
{ "type": "Feature", "properties": {"Name":"Sulphur Rock town","State":"Arkansas","State_Abbrev":"AR"},
"geometry":{ "type": "Point", "coordinates": [-91.500253,35.751629]}},
{ "type": "Feature", "properties": {"Name":"Sulphur Springs city","State":"Arkansas","State_Abbrev":"AR"},
"geometry":{ "type": "Point", "coordinates": [-94.460095,36.484076]}},
{ "type": "Feature", "properties": {"Name":"Sulphur Springs CDP","State":"Arkansas","State_Abbrev":"AR"},
"geometry":{ "type": "Point", "coordinates": [-92.132055,34.17145]}},
{ "type": "Feature", "properties": {"Name":"Summers CDP","State":"Arkansas","State_Abbrev":"AR"},
"geometry":{ "type": "Point", "coordinates": [-94.482872,35.987194]}},
{ "type": "Feature", "properties": {"Name":"Summit city","State":"Arkansas","State_Abbrev":"AR"},
"geometry":{ "type": "Point", "coordinates": [-92.688287,36.252203]}},
{ "type": "Feature", "properties": {"Name":"Sunset town","State":"Arkansas","State_Abbrev":"AR"},
"geometry":{ "type": "Point", "coordinates": [-90.205642,35.223979]}},
{ "type": "Feature", "properties": {"Name":"Sweet Home CDP","State":"Arkansas","State_Abbrev":"AR"},
"geometry":{ "type": "Point", "coordinates": [-92.246304,34.667397]}},
{ "type": "Feature", "properties": {"Name":"Swifton city","State":"Arkansas","State_Abbrev":"AR"},
"geometry":{ "type": "Point", "coordinates": [-91.129429,35.824376]}},
{ "type": "Feature", "properties": {"Name":"Taylor city","State":"Arkansas","State_Abbrev":"AR"},
"geometry":{ "type": "Point", "coordinates": [-93.461843,33.099802]}},
{ "type": "Feature", "properties": {"Name":"Texarkana city","State":"Arkansas","State_Abbrev":"AR"},
"geometry":{ "type": "Point", "coordinates": [-93.987118,33.436339]}},
{ "type": "Feature", "properties": {"Name":"Thornton city","State":"Arkansas","State_Abbrev":"AR"},
"geometry":{ "type": "Point", "coordinates": [-92.487651,33.774876]}},
{ "type": "Feature", "properties": {"Name":"Tillar city","State":"Arkansas","State_Abbrev":"AR"},
"geometry":{ "type": "Point", "coordinates": [-91.451812,33.711]}},
{ "type": "Feature", "properties": {"Name":"Tinsman town","State":"Arkansas","State_Abbrev":"AR"},
"geometry":{ "type": "Point", "coordinates": [-92.353295,33.629183]}},
{ "type": "Feature", "properties": {"Name":"Tollette town","State":"Arkansas","State_Abbrev":"AR"},
"geometry":{ "type": "Point", "coordinates": [-93.896899,33.818095]}},
{ "type": "Feature", "properties": {"Name":"Tontitown city","State":"Arkansas","State_Abbrev":"AR"},
"geometry":{ "type": "Point", "coordinates": [-94.242128,36.167388]}},
{ "type": "Feature", "properties": {"Name":"Traskwood city","State":"Arkansas","State_Abbrev":"AR"},
"geometry":{ "type": "Point", "coordinates": [-92.666438,34.452451]}},
{ "type": "Feature", "properties": {"Name":"Trumann city","State":"Arkansas","State_Abbrev":"AR"},
"geometry":{ "type": "Point", "coordinates": [-90.525897,35.677023]}},
{ "type": "Feature", "properties": {"Name":"Tucker CDP","State":"Arkansas","State_Abbrev":"AR"},
"geometry":{ "type": "Point", "coordinates": [-91.951907,34.439523]}},
{ "type": "Feature", "properties": {"Name":"Tuckerman city","State":"Arkansas","State_Abbrev":"AR"},
"geometry":{ "type": "Point", "coordinates": [-91.202133,35.7257]}},
{ "type": "Feature", "properties": {"Name":"Tull town","State":"Arkansas","State_Abbrev":"AR"},
"geometry":{ "type": "Point", "coordinates": [-92.585881,34.441214]}},
{ "type": "Feature", "properties": {"Name":"Tumbling Shoals CDP","State":"Arkansas","State_Abbrev":"AR"},
"geometry":{ "type": "Point", "coordinates": [-91.96746,35.547053]}},
{ "type": "Feature", "properties": {"Name":"Tupelo town","State":"Arkansas","State_Abbrev":"AR"},
"geometry":{ "type": "Point", "coordinates": [-91.229904,35.390332]}},
{ "type": "Feature", "properties": {"Name":"Turrell city","State":"Arkansas","State_Abbrev":"AR"},
"geometry":{ "type": "Point", "coordinates": [-90.270384,35.374609]}},
{ "type": "Feature", "properties": {"Name":"Twin Groves town","State":"Arkansas","State_Abbrev":"AR"},
"geometry":{ "type": "Point", "coordinates": [-92.405668,35.329207]}},
{ "type": "Feature", "properties": {"Name":"Tyronza city","State":"Arkansas","State_Abbrev":"AR"},
"geometry":{ "type": "Point", "coordinates": [-90.356008,35.486771]}},
{ "type": "Feature", "properties": {"Name":"Ulm town","State":"Arkansas","State_Abbrev":"AR"},
"geometry":{ "type": "Point", "coordinates": [-91.461691,34.576229]}},
{ "type": "Feature", "properties": {"Name":"Uniontown CDP","State":"Arkansas","State_Abbrev":"AR"},
"geometry":{ "type": "Point", "coordinates": [-94.446997,35.585222]}},
{ "type": "Feature", "properties": {"Name":"Urbana CDP","State":"Arkansas","State_Abbrev":"AR"},
"geometry":{ "type": "Point", "coordinates": [-92.445361,33.158452]}},
{ "type": "Feature", "properties": {"Name":"Valley Springs town","State":"Arkansas","State_Abbrev":"AR"},
"geometry":{ "type": "Point", "coordinates": [-92.989698,36.153768]}},
{ "type": "Feature", "properties": {"Name":"Van Buren city","State":"Arkansas","State_Abbrev":"AR"},
"geometry":{ "type": "Point", "coordinates": [-94.354003,35.451176]}},
{ "type": "Feature", "properties": {"Name":"Vandervoort town","State":"Arkansas","State_Abbrev":"AR"},
"geometry":{ "type": "Point", "coordinates": [-94.364919,34.379781]}},
{ "type": "Feature", "properties": {"Name":"Vanndale CDP","State":"Arkansas","State_Abbrev":"AR"},
"geometry":{ "type": "Point", "coordinates": [-90.771114,35.315292]}},
{ "type": "Feature", "properties": {"Name":"Victoria town","State":"Arkansas","State_Abbrev":"AR"},
"geometry":{ "type": "Point", "coordinates": [-90.060145,35.757424]}},
{ "type": "Feature", "properties": {"Name":"Vilonia city","State":"Arkansas","State_Abbrev":"AR"},
"geometry":{ "type": "Point", "coordinates": [-92.215387,35.078702]}},
{ "type": "Feature", "properties": {"Name":"Viola town","State":"Arkansas","State_Abbrev":"AR"},
"geometry":{ "type": "Point", "coordinates": [-91.986977,36.399237]}},
{ "type": "Feature", "properties": {"Name":"Violet Hill CDP","State":"Arkansas","State_Abbrev":"AR"},
"geometry":{ "type": "Point", "coordinates": [-91.839723,36.152899]}},
{ "type": "Feature", "properties": {"Name":"Wabbaseka town","State":"Arkansas","State_Abbrev":"AR"},
"geometry":{ "type": "Point", "coordinates": [-91.793777,34.359805]}},
{ "type": "Feature", "properties": {"Name":"Walcott CDP","State":"Arkansas","State_Abbrev":"AR"},
"geometry":{ "type": "Point", "coordinates": [-90.670497,36.046118]}},
{ "type": "Feature", "properties": {"Name":"Waldenburg town","State":"Arkansas","State_Abbrev":"AR"},
"geometry":{ "type": "Point", "coordinates": [-90.934561,35.565255]}},
{ "type": "Feature", "properties": {"Name":"Waldo city","State":"Arkansas","State_Abbrev":"AR"},
"geometry":{ "type": "Point", "coordinates": [-93.295393,33.351923]}},
{ "type": "Feature", "properties": {"Name":"Waldron city","State":"Arkansas","State_Abbrev":"AR"},
"geometry":{ "type": "Point", "coordinates": [-94.094839,34.903252]}},
{ "type": "Feature", "properties": {"Name":"Walnut Ridge city","State":"Arkansas","State_Abbrev":"AR"},
"geometry":{ "type": "Point", "coordinates": [-90.946796,36.084811]}},
{ "type": "Feature", "properties": {"Name":"Ward city","State":"Arkansas","State_Abbrev":"AR"},
"geometry":{ "type": "Point", "coordinates": [-91.957727,35.013782]}},
{ "type": "Feature", "properties": {"Name":"Warm Springs CDP","State":"Arkansas","State_Abbrev":"AR"},
"geometry":{ "type": "Point", "coordinates": [-91.049008,36.483148]}},
{ "type": "Feature", "properties": {"Name":"Warren city","State":"Arkansas","State_Abbrev":"AR"},
"geometry":{ "type": "Point", "coordinates": [-92.067718,33.611829]}},
{ "type": "Feature", "properties": {"Name":"Washington city","State":"Arkansas","State_Abbrev":"AR"},
"geometry":{ "type": "Point", "coordinates": [-93.683293,33.772882]}},
{ "type": "Feature", "properties": {"Name":"Watson city","State":"Arkansas","State_Abbrev":"AR"},
"geometry":{ "type": "Point", "coordinates": [-91.257061,33.89375]}},
{ "type": "Feature", "properties": {"Name":"Wayton CDP","State":"Arkansas","State_Abbrev":"AR"},
"geometry":{ "type": "Point", "coordinates": [-93.259588,35.919363]}},
{ "type": "Feature", "properties": {"Name":"Weiner city","State":"Arkansas","State_Abbrev":"AR"},
"geometry":{ "type": "Point", "coordinates": [-90.905303,35.619714]}},
{ "type": "Feature", "properties": {"Name":"Weldon town","State":"Arkansas","State_Abbrev":"AR"},
"geometry":{ "type": "Point", "coordinates": [-91.231606,35.447994]}},
{ "type": "Feature", "properties": {"Name":"Wesley CDP","State":"Arkansas","State_Abbrev":"AR"},
"geometry":{ "type": "Point", "coordinates": [-93.918624,36.032535]}},
{ "type": "Feature", "properties": {"Name":"West Crossett CDP","State":"Arkansas","State_Abbrev":"AR"},
"geometry":{ "type": "Point", "coordinates": [-92.016978,33.148043]}},
{ "type": "Feature", "properties": {"Name":"Western Grove town","State":"Arkansas","State_Abbrev":"AR"},
"geometry":{ "type": "Point", "coordinates": [-92.954554,36.101118]}},
{ "type": "Feature", "properties": {"Name":"West Fork city","State":"Arkansas","State_Abbrev":"AR"},
"geometry":{ "type": "Point", "coordinates": [-94.18111,35.934924]}},
{ "type": "Feature", "properties": {"Name":"West Memphis city","State":"Arkansas","State_Abbrev":"AR"},
"geometry":{ "type": "Point", "coordinates": [-90.199266,35.149554]}},
{ "type": "Feature", "properties": {"Name":"West Point town","State":"Arkansas","State_Abbrev":"AR"},
"geometry":{ "type": "Point", "coordinates": [-91.609897,35.203307]}},
{ "type": "Feature", "properties": {"Name":"Wheatley city","State":"Arkansas","State_Abbrev":"AR"},
"geometry":{ "type": "Point", "coordinates": [-91.106255,34.921186]}},
{ "type": "Feature", "properties": {"Name":"Whelen Springs town","State":"Arkansas","State_Abbrev":"AR"},
"geometry":{ "type": "Point", "coordinates": [-93.126029,33.833144]}},
{ "type": "Feature", "properties": {"Name":"White Hall city","State":"Arkansas","State_Abbrev":"AR"},
"geometry":{ "type": "Point", "coordinates": [-92.100649,34.275179]}},
{ "type": "Feature", "properties": {"Name":"Wickes town","State":"Arkansas","State_Abbrev":"AR"},
"geometry":{ "type": "Point", "coordinates": [-94.327252,34.299736]}},
{ "type": "Feature", "properties": {"Name":"Widener town","State":"Arkansas","State_Abbrev":"AR"},
"geometry":{ "type": "Point", "coordinates": [-90.681934,35.023498]}},
{ "type": "Feature", "properties": {"Name":"Wiederkehr Village city","State":"Arkansas","State_Abbrev":"AR"},
"geometry":{ "type": "Point", "coordinates": [-93.764725,35.477705]}},
{ "type": "Feature", "properties": {"Name":"Wilburn CDP","State":"Arkansas","State_Abbrev":"AR"},
"geometry":{ "type": "Point", "coordinates": [-91.888375,35.508788]}},
{ "type": "Feature", "properties": {"Name":"Williford town","State":"Arkansas","State_Abbrev":"AR"},
"geometry":{ "type": "Point", "coordinates": [-91.360457,36.251832]}},
{ "type": "Feature", "properties": {"Name":"Willisville town","State":"Arkansas","State_Abbrev":"AR"},
"geometry":{ "type": "Point", "coordinates": [-93.293665,33.516119]}},
{ "type": "Feature", "properties": {"Name":"Wilmar city","State":"Arkansas","State_Abbrev":"AR"},
"geometry":{ "type": "Point", "coordinates": [-91.929342,33.626384]}},
{ "type": "Feature", "properties": {"Name":"Wilmot city","State":"Arkansas","State_Abbrev":"AR"},
"geometry":{ "type": "Point", "coordinates": [-91.577858,33.056963]}},
{ "type": "Feature", "properties": {"Name":"Wilson city","State":"Arkansas","State_Abbrev":"AR"},
"geometry":{ "type": "Point", "coordinates": [-90.0418,35.565961]}},
{ "type": "Feature", "properties": {"Name":"Wilton city","State":"Arkansas","State_Abbrev":"AR"},
"geometry":{ "type": "Point", "coordinates": [-94.147987,33.738728]}},
{ "type": "Feature", "properties": {"Name":"Winchester town","State":"Arkansas","State_Abbrev":"AR"},
"geometry":{ "type": "Point", "coordinates": [-91.4737,33.774074]}},
{ "type": "Feature", "properties": {"Name":"Winslow city","State":"Arkansas","State_Abbrev":"AR"},
"geometry":{ "type": "Point", "coordinates": [-94.131779,35.801542]}},
{ "type": "Feature", "properties": {"Name":"Winthrop city","State":"Arkansas","State_Abbrev":"AR"},
"geometry":{ "type": "Point", "coordinates": [-94.354222,33.830837]}},
{ "type": "Feature", "properties": {"Name":"Witts Springs CDP","State":"Arkansas","State_Abbrev":"AR"},
"geometry":{ "type": "Point", "coordinates": [-92.882285,35.770268]}},
{ "type": "Feature", "properties": {"Name":"Woodlawn CDP","State":"Arkansas","State_Abbrev":"AR"},
"geometry":{ "type": "Point", "coordinates": [-92.045239,33.966736]}},
{ "type": "Feature", "properties": {"Name":"Woodson CDP","State":"Arkansas","State_Abbrev":"AR"},
"geometry":{ "type": "Point", "coordinates": [-92.222549,34.539726]}},
{ "type": "Feature", "properties": {"Name":"Wooster town","State":"Arkansas","State_Abbrev":"AR"},
"geometry":{ "type": "Point", "coordinates": [-92.450204,35.199919]}},
{ "type": "Feature", "properties": {"Name":"Wrightsville city","State":"Arkansas","State_Abbrev":"AR"},
"geometry":{ "type": "Point", "coordinates": [-92.219607,34.620714]}},
{ "type": "Feature", "properties": {"Name":"Wynne city","State":"Arkansas","State_Abbrev":"AR"},
"geometry":{ "type": "Point", "coordinates": [-90.788513,35.235224]}},
{ "type": "Feature", "properties": {"Name":"Yarborough Landing CDP","State":"Arkansas","State_Abbrev":"AR"},
"geometry":{ "type": "Point", "coordinates": [-94.009261,33.718829]}},
{ "type": "Feature", "properties": {"Name":"Yellville city","State":"Arkansas","State_Abbrev":"AR"},
"geometry":{ "type": "Point", "coordinates": [-92.686123,36.228846]}},
{ "type": "Feature", "properties": {"Name":"Zinc town","State":"Arkansas","State_Abbrev":"AR"},
"geometry":{ "type": "Point", "coordinates": [-92.914422,36.283959]}}]}
