{"type":"FeatureCollection","features":[
{ "type": "Feature", "properties": {"Name":"Acres Green CDP","State":"Colorado","State_Abbrev":"CO"},
"geometry":{ "type": "Point", "coordinates": [-104.89582,39.555736]}},
{ "type": "Feature", "properties": {"Name":"Aetna Estates CDP","State":"Colorado","State_Abbrev":"CO"},
"geometry":{ "type": "Point", "coordinates": [-104.673221,39.738127]}},
{ "type": "Feature", "properties": {"Name":"Aguilar town","State":"Colorado","State_Abbrev":"CO"},
"geometry":{ "type": "Point", "coordinates": [-104.655036,37.403626]}},
{ "type": "Feature", "properties": {"Name":"Air Force Academy CDP","State":"Colorado","State_Abbrev":"CO"},
"geometry":{ "type": "Point", "coordinates": [-104.863922,38.994185]}},
{ "type": "Feature", "properties": {"Name":"Akron town","State":"Colorado","State_Abbrev":"CO"},
"geometry":{ "type": "Point", "coordinates": [-103.220274,40.163466]}},
{ "type": "Feature", "properties": {"Name":"Alamosa city","State":"Colorado","State_Abbrev":"CO"},
"geometry":{ "type": "Point", "coordinates": [-105.876956,37.474528]}},
{ "type": "Feature", "properties": {"Name":"Alamosa East CDP","State":"Colorado","State_Abbrev":"CO"},
"geometry":{ "type": "Point", "coordinates": [-105.839745,37.476658]}},
{ "type": "Feature", "properties": {"Name":"Allenspark CDP","State":"Colorado","State_Abbrev":"CO"},
"geometry":{ "type": "Point", "coordinates": [-105.517986,40.231281]}},
{ "type": "Feature", "properties": {"Name":"Alma town","State":"Colorado","State_Abbrev":"CO"},
"geometry":{ "type": "Point", "coordinates": [-106.068893,39.286131]}},
{ "type": "Feature", "properties": {"Name":"Alpine CDP","State":"Colorado","State_Abbrev":"CO"},
"geometry":{ "type": "Point", "coordinates": [-106.586097,37.687805]}},
{ "type": "Feature", "properties": {"Name":"Altona CDP","State":"Colorado","State_Abbrev":"CO"},
"geometry":{ "type": "Point", "coordinates": [-105.296165,40.121928]}},
{ "type": "Feature", "properties": {"Name":"Amherst CDP","State":"Colorado","State_Abbrev":"CO"},
"geometry":{ "type": "Point", "coordinates": [-102.172596,40.683161]}},
{ "type": "Feature", "properties": {"Name":"Antonito town","State":"Colorado","State_Abbrev":"CO"},
"geometry":{ "type": "Point", "coordinates": [-106.010332,37.076246]}},
{ "type": "Feature", "properties": {"Name":"Applewood CDP","State":"Colorado","State_Abbrev":"CO"},
"geometry":{ "type": "Point", "coordinates": [-105.172965,39.747481]}},
{ "type": "Feature", "properties": {"Name":"Arapahoe CDP","State":"Colorado","State_Abbrev":"CO"},
"geometry":{ "type": "Point", "coordinates": [-102.178897,38.852919]}},
{ "type": "Feature", "properties": {"Name":"Arboles CDP","State":"Colorado","State_Abbrev":"CO"},
"geometry":{ "type": "Point", "coordinates": [-107.421744,37.020861]}},
{ "type": "Feature", "properties": {"Name":"Aristocrat Ranchettes CDP","State":"Colorado","State_Abbrev":"CO"},
"geometry":{ "type": "Point", "coordinates": [-104.75495,40.1096]}},
{ "type": "Feature", "properties": {"Name":"Arriba town","State":"Colorado","State_Abbrev":"CO"},
"geometry":{ "type": "Point", "coordinates": [-103.274032,39.284326]}},
{ "type": "Feature", "properties": {"Name":"Arvada city","State":"Colorado","State_Abbrev":"CO"},
"geometry":{ "type": "Point", "coordinates": [-105.150306,39.833728]}},
{ "type": "Feature", "properties": {"Name":"Aspen city","State":"Colorado","State_Abbrev":"CO"},
"geometry":{ "type": "Point", "coordinates": [-106.836771,39.19512]}},
{ "type": "Feature", "properties": {"Name":"Aspen Park CDP","State":"Colorado","State_Abbrev":"CO"},
"geometry":{ "type": "Point", "coordinates": [-105.296307,39.542654]}},
{ "type": "Feature", "properties": {"Name":"Atwood CDP","State":"Colorado","State_Abbrev":"CO"},
"geometry":{ "type": "Point", "coordinates": [-103.274598,40.550477]}},
{ "type": "Feature", "properties": {"Name":"Ault town","State":"Colorado","State_Abbrev":"CO"},
"geometry":{ "type": "Point", "coordinates": [-104.73943,40.589208]}},
{ "type": "Feature", "properties": {"Name":"Aurora city","State":"Colorado","State_Abbrev":"CO"},
"geometry":{ "type": "Point", "coordinates": [-104.720088,39.703633]}},
{ "type": "Feature", "properties": {"Name":"Avon town","State":"Colorado","State_Abbrev":"CO"},
"geometry":{ "type": "Point", "coordinates": [-106.51581,39.641891]}},
{ "type": "Feature", "properties": {"Name":"Avondale CDP","State":"Colorado","State_Abbrev":"CO"},
"geometry":{ "type": "Point", "coordinates": [-104.348232,38.235183]}},
{ "type": "Feature", "properties": {"Name":"Bark Ranch CDP","State":"Colorado","State_Abbrev":"CO"},
"geometry":{ "type": "Point", "coordinates": [-105.440718,40.117803]}},
{ "type": "Feature", "properties": {"Name":"Basalt town","State":"Colorado","State_Abbrev":"CO"},
"geometry":{ "type": "Point", "coordinates": [-107.04876,39.368585]}},
{ "type": "Feature", "properties": {"Name":"Battlement Mesa CDP","State":"Colorado","State_Abbrev":"CO"},
"geometry":{ "type": "Point", "coordinates": [-108.00394,39.452767]}},
{ "type": "Feature", "properties": {"Name":"Bayfield town","State":"Colorado","State_Abbrev":"CO"},
"geometry":{ "type": "Point", "coordinates": [-107.59516,37.234075]}},
{ "type": "Feature", "properties": {"Name":"Bennett town","State":"Colorado","State_Abbrev":"CO"},
"geometry":{ "type": "Point", "coordinates": [-104.442841,39.74599]}},
{ "type": "Feature", "properties": {"Name":"Berkley CDP","State":"Colorado","State_Abbrev":"CO"},
"geometry":{ "type": "Point", "coordinates": [-105.0289,39.806481]}},
{ "type": "Feature", "properties": {"Name":"Berthoud town","State":"Colorado","State_Abbrev":"CO"},
"geometry":{ "type": "Point", "coordinates": [-104.965515,40.284675]}},
{ "type": "Feature", "properties": {"Name":"Bethune town","State":"Colorado","State_Abbrev":"CO"},
"geometry":{ "type": "Point", "coordinates": [-102.423414,39.303822]}},
{ "type": "Feature", "properties": {"Name":"Beulah Valley CDP","State":"Colorado","State_Abbrev":"CO"},
"geometry":{ "type": "Point", "coordinates": [-104.9817,38.07271]}},
{ "type": "Feature", "properties": {"Name":"Black Forest CDP","State":"Colorado","State_Abbrev":"CO"},
"geometry":{ "type": "Point", "coordinates": [-104.679613,39.063648]}},
{ "type": "Feature", "properties": {"Name":"Black Hawk city","State":"Colorado","State_Abbrev":"CO"},
"geometry":{ "type": "Point", "coordinates": [-105.493432,39.802224]}},
{ "type": "Feature", "properties": {"Name":"Blanca town","State":"Colorado","State_Abbrev":"CO"},
"geometry":{ "type": "Point", "coordinates": [-105.513544,37.439268]}},
{ "type": "Feature", "properties": {"Name":"Blende CDP","State":"Colorado","State_Abbrev":"CO"},
"geometry":{ "type": "Point", "coordinates": [-104.568707,38.249779]}},
{ "type": "Feature", "properties": {"Name":"Blue River town","State":"Colorado","State_Abbrev":"CO"},
"geometry":{ "type": "Point", "coordinates": [-106.036777,39.448464]}},
{ "type": "Feature", "properties": {"Name":"Blue Sky CDP","State":"Colorado","State_Abbrev":"CO"},
"geometry":{ "type": "Point", "coordinates": [-103.805528,40.300094]}},
{ "type": "Feature", "properties": {"Name":"Blue Valley CDP","State":"Colorado","State_Abbrev":"CO"},
"geometry":{ "type": "Point", "coordinates": [-105.492107,39.699687]}},
{ "type": "Feature", "properties": {"Name":"Bonanza town","State":"Colorado","State_Abbrev":"CO"},
"geometry":{ "type": "Point", "coordinates": [-106.141869,38.296617]}},
{ "type": "Feature", "properties": {"Name":"Bonanza Mountain Estates CDP","State":"Colorado","State_Abbrev":"CO"},
"geometry":{ "type": "Point", "coordinates": [-105.479577,39.97689]}},
{ "type": "Feature", "properties": {"Name":"Boone town","State":"Colorado","State_Abbrev":"CO"},
"geometry":{ "type": "Point", "coordinates": [-104.26099,38.250596]}},
{ "type": "Feature", "properties": {"Name":"Boulder city","State":"Colorado","State_Abbrev":"CO"},
"geometry":{ "type": "Point", "coordinates": [-105.251251,40.024431]}},
{ "type": "Feature", "properties": {"Name":"Bow Mar town","State":"Colorado","State_Abbrev":"CO"},
"geometry":{ "type": "Point", "coordinates": [-105.050914,39.626594]}},
{ "type": "Feature", "properties": {"Name":"Brandon CDP","State":"Colorado","State_Abbrev":"CO"},
"geometry":{ "type": "Point", "coordinates": [-102.441155,38.4464]}},
{ "type": "Feature", "properties": {"Name":"Branson town","State":"Colorado","State_Abbrev":"CO"},
"geometry":{ "type": "Point", "coordinates": [-103.883777,37.015493]}},
{ "type": "Feature", "properties": {"Name":"Breckenridge town","State":"Colorado","State_Abbrev":"CO"},
"geometry":{ "type": "Point", "coordinates": [-106.043243,39.49946]}},
{ "type": "Feature", "properties": {"Name":"Brick Center CDP","State":"Colorado","State_Abbrev":"CO"},
"geometry":{ "type": "Point", "coordinates": [-104.460798,39.591236]}},
{ "type": "Feature", "properties": {"Name":"Briggsdale CDP","State":"Colorado","State_Abbrev":"CO"},
"geometry":{ "type": "Point", "coordinates": [-104.328377,40.635952]}},
{ "type": "Feature", "properties": {"Name":"Brighton city","State":"Colorado","State_Abbrev":"CO"},
"geometry":{ "type": "Point", "coordinates": [-104.79417,39.965699]}},
{ "type": "Feature", "properties": {"Name":"Brook Forest CDP","State":"Colorado","State_Abbrev":"CO"},
"geometry":{ "type": "Point", "coordinates": [-105.394396,39.573879]}},
{ "type": "Feature", "properties": {"Name":"Brookside town","State":"Colorado","State_Abbrev":"CO"},
"geometry":{ "type": "Point", "coordinates": [-105.190945,38.413495]}},
{ "type": "Feature", "properties": {"Name":"Broomfield city","State":"Colorado","State_Abbrev":"CO"},
"geometry":{ "type": "Point", "coordinates": [-105.050787,39.953593]}},
{ "type": "Feature", "properties": {"Name":"Brush city","State":"Colorado","State_Abbrev":"CO"},
"geometry":{ "type": "Point", "coordinates": [-103.636334,40.259263]}},
{ "type": "Feature", "properties": {"Name":"Buena Vista town","State":"Colorado","State_Abbrev":"CO"},
"geometry":{ "type": "Point", "coordinates": [-106.138657,38.831989]}},
{ "type": "Feature", "properties": {"Name":"Burlington city","State":"Colorado","State_Abbrev":"CO"},
"geometry":{ "type": "Point", "coordinates": [-102.271466,39.304171]}},
{ "type": "Feature", "properties": {"Name":"Byers CDP","State":"Colorado","State_Abbrev":"CO"},
"geometry":{ "type": "Point", "coordinates": [-104.212848,39.709435]}},
{ "type": "Feature", "properties": {"Name":"Calhan town","State":"Colorado","State_Abbrev":"CO"},
"geometry":{ "type": "Point", "coordinates": [-104.299341,39.034429]}},
{ "type": "Feature", "properties": {"Name":"Campo town","State":"Colorado","State_Abbrev":"CO"},
"geometry":{ "type": "Point", "coordinates": [-102.578798,37.104711]}},
{ "type": "Feature", "properties": {"Name":"Ca√±on City city","State":"Colorado","State_Abbrev":"CO"},
"geometry":{ "type": "Point", "coordinates": [-105.220899,38.441886]}},
{ "type": "Feature", "properties": {"Name":"Capulin CDP","State":"Colorado","State_Abbrev":"CO"},
"geometry":{ "type": "Point", "coordinates": [-106.104946,37.281886]}},
{ "type": "Feature", "properties": {"Name":"Carbonate town","State":"Colorado","State_Abbrev":"CO"},
"geometry":{ "type": "Point", "coordinates": [-107.340127,39.746462]}},
{ "type": "Feature", "properties": {"Name":"Carbondale town","State":"Colorado","State_Abbrev":"CO"},
"geometry":{ "type": "Point", "coordinates": [-107.214775,39.39495]}},
{ "type": "Feature", "properties": {"Name":"Cascade-Chipita Park CDP","State":"Colorado","State_Abbrev":"CO"},
"geometry":{ "type": "Point", "coordinates": [-104.998103,38.947428]}},
{ "type": "Feature", "properties": {"Name":"Castle Pines city","State":"Colorado","State_Abbrev":"CO"},
"geometry":{ "type": "Point", "coordinates": [-104.870584,39.46249]}},
{ "type": "Feature", "properties": {"Name":"Castle Pines Village CDP","State":"Colorado","State_Abbrev":"CO"},
"geometry":{ "type": "Point", "coordinates": [-104.897037,39.441799]}},
{ "type": "Feature", "properties": {"Name":"Castle Rock town","State":"Colorado","State_Abbrev":"CO"},
"geometry":{ "type": "Point", "coordinates": [-104.852922,39.376194]}},
{ "type": "Feature", "properties": {"Name":"Cathedral CDP","State":"Colorado","State_Abbrev":"CO"},
"geometry":{ "type": "Point", "coordinates": [-107.030681,38.083629]}},
{ "type": "Feature", "properties": {"Name":"Catherine CDP","State":"Colorado","State_Abbrev":"CO"},
"geometry":{ "type": "Point", "coordinates": [-107.144959,39.403756]}},
{ "type": "Feature", "properties": {"Name":"Cattle Creek CDP","State":"Colorado","State_Abbrev":"CO"},
"geometry":{ "type": "Point", "coordinates": [-107.259917,39.466634]}},
{ "type": "Feature", "properties": {"Name":"Cedaredge town","State":"Colorado","State_Abbrev":"CO"},
"geometry":{ "type": "Point", "coordinates": [-107.925485,38.894097]}},
{ "type": "Feature", "properties": {"Name":"Centennial city","State":"Colorado","State_Abbrev":"CO"},
"geometry":{ "type": "Point", "coordinates": [-104.869118,39.590568]}},
{ "type": "Feature", "properties": {"Name":"Center town","State":"Colorado","State_Abbrev":"CO"},
"geometry":{ "type": "Point", "coordinates": [-106.110564,37.751236]}},
{ "type": "Feature", "properties": {"Name":"Central City city","State":"Colorado","State_Abbrev":"CO"},
"geometry":{ "type": "Point", "coordinates": [-105.508966,39.795369]}},
{ "type": "Feature", "properties": {"Name":"Chacra CDP","State":"Colorado","State_Abbrev":"CO"},
"geometry":{ "type": "Point", "coordinates": [-107.454907,39.578397]}},
{ "type": "Feature", "properties": {"Name":"Cheraw town","State":"Colorado","State_Abbrev":"CO"},
"geometry":{ "type": "Point", "coordinates": [-103.511022,38.10766]}},
{ "type": "Feature", "properties": {"Name":"Cherry Creek CDP","State":"Colorado","State_Abbrev":"CO"},
"geometry":{ "type": "Point", "coordinates": [-104.864475,39.609475]}},
{ "type": "Feature", "properties": {"Name":"Cherry Hills Village city","State":"Colorado","State_Abbrev":"CO"},
"geometry":{ "type": "Point", "coordinates": [-104.94747,39.637418]}},
{ "type": "Feature", "properties": {"Name":"Cheyenne Wells town","State":"Colorado","State_Abbrev":"CO"},
"geometry":{ "type": "Point", "coordinates": [-102.35203,38.819202]}},
{ "type": "Feature", "properties": {"Name":"Cimarron Hills CDP","State":"Colorado","State_Abbrev":"CO"},
"geometry":{ "type": "Point", "coordinates": [-104.700152,38.859299]}},
{ "type": "Feature", "properties": {"Name":"City of Creede town","State":"Colorado","State_Abbrev":"CO"},
"geometry":{ "type": "Point", "coordinates": [-106.925146,37.848597]}},
{ "type": "Feature", "properties": {"Name":"Clifton CDP","State":"Colorado","State_Abbrev":"CO"},
"geometry":{ "type": "Point", "coordinates": [-108.460469,39.076708]}},
{ "type": "Feature", "properties": {"Name":"Coal Creek CDP","State":"Colorado","State_Abbrev":"CO"},
"geometry":{ "type": "Point", "coordinates": [-105.372136,39.904693]}},
{ "type": "Feature", "properties": {"Name":"Coal Creek town","State":"Colorado","State_Abbrev":"CO"},
"geometry":{ "type": "Point", "coordinates": [-105.142199,38.362171]}},
{ "type": "Feature", "properties": {"Name":"Coaldale CDP","State":"Colorado","State_Abbrev":"CO"},
"geometry":{ "type": "Point", "coordinates": [-105.813084,38.355738]}},
{ "type": "Feature", "properties": {"Name":"Cokedale town","State":"Colorado","State_Abbrev":"CO"},
"geometry":{ "type": "Point", "coordinates": [-104.62159,37.144223]}},
{ "type": "Feature", "properties": {"Name":"Collbran town","State":"Colorado","State_Abbrev":"CO"},
"geometry":{ "type": "Point", "coordinates": [-107.963517,39.240009]}},
{ "type": "Feature", "properties": {"Name":"Colona CDP","State":"Colorado","State_Abbrev":"CO"},
"geometry":{ "type": "Point", "coordinates": [-107.779306,38.32751]}},
{ "type": "Feature", "properties": {"Name":"Colorado City CDP","State":"Colorado","State_Abbrev":"CO"},
"geometry":{ "type": "Point", "coordinates": [-104.843082,37.939379]}},
{ "type": "Feature", "properties": {"Name":"Colorado Springs city","State":"Colorado","State_Abbrev":"CO"},
"geometry":{ "type": "Point", "coordinates": [-104.760749,38.867255]}},
{ "type": "Feature", "properties": {"Name":"Columbine CDP","State":"Colorado","State_Abbrev":"CO"},
"geometry":{ "type": "Point", "coordinates": [-105.06918,39.588586]}},
{ "type": "Feature", "properties": {"Name":"Columbine Valley town","State":"Colorado","State_Abbrev":"CO"},
"geometry":{ "type": "Point", "coordinates": [-105.030885,39.599568]}},
{ "type": "Feature", "properties": {"Name":"Comanche Creek CDP","State":"Colorado","State_Abbrev":"CO"},
"geometry":{ "type": "Point", "coordinates": [-104.335836,39.606144]}},
{ "type": "Feature", "properties": {"Name":"Commerce City city","State":"Colorado","State_Abbrev":"CO"},
"geometry":{ "type": "Point", "coordinates": [-104.794908,39.882792]}},
{ "type": "Feature", "properties": {"Name":"Conejos CDP","State":"Colorado","State_Abbrev":"CO"},
"geometry":{ "type": "Point", "coordinates": [-106.015993,37.087257]}},
{ "type": "Feature", "properties": {"Name":"Cope CDP","State":"Colorado","State_Abbrev":"CO"},
"geometry":{ "type": "Point", "coordinates": [-102.845127,39.664217]}},
{ "type": "Feature", "properties": {"Name":"Copper Mountain CDP","State":"Colorado","State_Abbrev":"CO"},
"geometry":{ "type": "Point", "coordinates": [-106.201113,39.476895]}},
{ "type": "Feature", "properties": {"Name":"Cortez city","State":"Colorado","State_Abbrev":"CO"},
"geometry":{ "type": "Point", "coordinates": [-108.576687,37.349783]}},
{ "type": "Feature", "properties": {"Name":"Cotopaxi CDP","State":"Colorado","State_Abbrev":"CO"},
"geometry":{ "type": "Point", "coordinates": [-105.68552,38.372806]}},
{ "type": "Feature", "properties": {"Name":"Craig city","State":"Colorado","State_Abbrev":"CO"},
"geometry":{ "type": "Point", "coordinates": [-107.555396,40.51706]}},
{ "type": "Feature", "properties": {"Name":"Crawford town","State":"Colorado","State_Abbrev":"CO"},
"geometry":{ "type": "Point", "coordinates": [-107.609596,38.705044]}},
{ "type": "Feature", "properties": {"Name":"Crested Butte town","State":"Colorado","State_Abbrev":"CO"},
"geometry":{ "type": "Point", "coordinates": [-106.977261,38.86779]}},
{ "type": "Feature", "properties": {"Name":"Crestone town","State":"Colorado","State_Abbrev":"CO"},
"geometry":{ "type": "Point", "coordinates": [-105.696206,37.994529]}},
{ "type": "Feature", "properties": {"Name":"Cripple Creek city","State":"Colorado","State_Abbrev":"CO"},
"geometry":{ "type": "Point", "coordinates": [-105.184981,38.746582]}},
{ "type": "Feature", "properties": {"Name":"Crisman CDP","State":"Colorado","State_Abbrev":"CO"},
"geometry":{ "type": "Point", "coordinates": [-105.372398,40.043382]}},
{ "type": "Feature", "properties": {"Name":"Crook town","State":"Colorado","State_Abbrev":"CO"},
"geometry":{ "type": "Point", "coordinates": [-102.801383,40.858779]}},
{ "type": "Feature", "properties": {"Name":"Crowley town","State":"Colorado","State_Abbrev":"CO"},
"geometry":{ "type": "Point", "coordinates": [-103.859744,38.193506]}},
{ "type": "Feature", "properties": {"Name":"Dacono city","State":"Colorado","State_Abbrev":"CO"},
"geometry":{ "type": "Point", "coordinates": [-104.946804,40.063521]}},
{ "type": "Feature", "properties": {"Name":"Dakota Ridge CDP","State":"Colorado","State_Abbrev":"CO"},
"geometry":{ "type": "Point", "coordinates": [-105.135065,39.619223]}},
{ "type": "Feature", "properties": {"Name":"De Beque town","State":"Colorado","State_Abbrev":"CO"},
"geometry":{ "type": "Point", "coordinates": [-108.204999,39.309989]}},
{ "type": "Feature", "properties": {"Name":"Deer Trail town","State":"Colorado","State_Abbrev":"CO"},
"geometry":{ "type": "Point", "coordinates": [-104.043851,39.617]}},
{ "type": "Feature", "properties": {"Name":"Del Norte town","State":"Colorado","State_Abbrev":"CO"},
"geometry":{ "type": "Point", "coordinates": [-106.353935,37.678462]}},
{ "type": "Feature", "properties": {"Name":"Delta city","State":"Colorado","State_Abbrev":"CO"},
"geometry":{ "type": "Point", "coordinates": [-108.087986,38.757371]}},
{ "type": "Feature", "properties": {"Name":"Denver city","State":"Colorado","State_Abbrev":"CO"},
"geometry":{ "type": "Point", "coordinates": [-104.881105,39.76185]}},
{ "type": "Feature", "properties": {"Name":"Derby CDP","State":"Colorado","State_Abbrev":"CO"},
"geometry":{ "type": "Point", "coordinates": [-104.916254,39.840791]}},
{ "type": "Feature", "properties": {"Name":"Dillon town","State":"Colorado","State_Abbrev":"CO"},
"geometry":{ "type": "Point", "coordinates": [-106.043728,39.625881]}},
{ "type": "Feature", "properties": {"Name":"Dinosaur town","State":"Colorado","State_Abbrev":"CO"},
"geometry":{ "type": "Point", "coordinates": [-109.006795,40.239861]}},
{ "type": "Feature", "properties": {"Name":"Divide CDP","State":"Colorado","State_Abbrev":"CO"},
"geometry":{ "type": "Point", "coordinates": [-105.161949,38.945006]}},
{ "type": "Feature", "properties": {"Name":"Dolores town","State":"Colorado","State_Abbrev":"CO"},
"geometry":{ "type": "Point", "coordinates": [-108.499889,37.474093]}},
{ "type": "Feature", "properties": {"Name":"Dotsero CDP","State":"Colorado","State_Abbrev":"CO"},
"geometry":{ "type": "Point", "coordinates": [-107.049856,39.647594]}},
{ "type": "Feature", "properties": {"Name":"Dove Creek town","State":"Colorado","State_Abbrev":"CO"},
"geometry":{ "type": "Point", "coordinates": [-108.907173,37.766842]}},
{ "type": "Feature", "properties": {"Name":"Dove Valley CDP","State":"Colorado","State_Abbrev":"CO"},
"geometry":{ "type": "Point", "coordinates": [-104.830843,39.575107]}},
{ "type": "Feature", "properties": {"Name":"Downieville-Lawson-Dumont CDP","State":"Colorado","State_Abbrev":"CO"},
"geometry":{ "type": "Point", "coordinates": [-105.606726,39.766613]}},
{ "type": "Feature", "properties": {"Name":"Durango city","State":"Colorado","State_Abbrev":"CO"},
"geometry":{ "type": "Point", "coordinates": [-107.878177,37.265392]}},
{ "type": "Feature", "properties": {"Name":"Eads town","State":"Colorado","State_Abbrev":"CO"},
"geometry":{ "type": "Point", "coordinates": [-102.77982,38.481649]}},
{ "type": "Feature", "properties": {"Name":"Eagle town","State":"Colorado","State_Abbrev":"CO"},
"geometry":{ "type": "Point", "coordinates": [-106.821344,39.64322]}},
{ "type": "Feature", "properties": {"Name":"East Pleasant View CDP","State":"Colorado","State_Abbrev":"CO"},
"geometry":{ "type": "Point", "coordinates": [-105.157236,39.727694]}},
{ "type": "Feature", "properties": {"Name":"Eaton town","State":"Colorado","State_Abbrev":"CO"},
"geometry":{ "type": "Point", "coordinates": [-104.712987,40.525685]}},
{ "type": "Feature", "properties": {"Name":"Echo Hills CDP","State":"Colorado","State_Abbrev":"CO"},
"geometry":{ "type": "Point", "coordinates": [-105.413419,39.674738]}},
{ "type": "Feature", "properties": {"Name":"Eckley town","State":"Colorado","State_Abbrev":"CO"},
"geometry":{ "type": "Point", "coordinates": [-102.4883,40.112378]}},
{ "type": "Feature", "properties": {"Name":"Edgewater city","State":"Colorado","State_Abbrev":"CO"},
"geometry":{ "type": "Point", "coordinates": [-105.06262,39.750849]}},
{ "type": "Feature", "properties": {"Name":"Edwards CDP","State":"Colorado","State_Abbrev":"CO"},
"geometry":{ "type": "Point", "coordinates": [-106.619702,39.611824]}},
{ "type": "Feature", "properties": {"Name":"Elbert CDP","State":"Colorado","State_Abbrev":"CO"},
"geometry":{ "type": "Point", "coordinates": [-104.540443,39.218856]}},
{ "type": "Feature", "properties": {"Name":"Eldora CDP","State":"Colorado","State_Abbrev":"CO"},
"geometry":{ "type": "Point", "coordinates": [-105.58498,39.958253]}},
{ "type": "Feature", "properties": {"Name":"Eldorado Springs CDP","State":"Colorado","State_Abbrev":"CO"},
"geometry":{ "type": "Point", "coordinates": [-105.249081,39.939266]}},
{ "type": "Feature", "properties": {"Name":"Elizabeth town","State":"Colorado","State_Abbrev":"CO"},
"geometry":{ "type": "Point", "coordinates": [-104.603915,39.365262]}},
{ "type": "Feature", "properties": {"Name":"El Jebel CDP","State":"Colorado","State_Abbrev":"CO"},
"geometry":{ "type": "Point", "coordinates": [-107.094217,39.406991]}},
{ "type": "Feature", "properties": {"Name":"Ellicott CDP","State":"Colorado","State_Abbrev":"CO"},
"geometry":{ "type": "Point", "coordinates": [-104.382873,38.825585]}},
{ "type": "Feature", "properties": {"Name":"El Moro CDP","State":"Colorado","State_Abbrev":"CO"},
"geometry":{ "type": "Point", "coordinates": [-104.453111,37.246633]}},
{ "type": "Feature", "properties": {"Name":"Empire town","State":"Colorado","State_Abbrev":"CO"},
"geometry":{ "type": "Point", "coordinates": [-105.681677,39.75944]}},
{ "type": "Feature", "properties": {"Name":"Englewood city","State":"Colorado","State_Abbrev":"CO"},
"geometry":{ "type": "Point", "coordinates": [-104.994465,39.646979]}},
{ "type": "Feature", "properties": {"Name":"Erie town","State":"Colorado","State_Abbrev":"CO"},
"geometry":{ "type": "Point", "coordinates": [-105.03831,40.040287]}},
{ "type": "Feature", "properties": {"Name":"Estes Park town","State":"Colorado","State_Abbrev":"CO"},
"geometry":{ "type": "Point", "coordinates": [-105.533861,40.367046]}},
{ "type": "Feature", "properties": {"Name":"Evans city","State":"Colorado","State_Abbrev":"CO"},
"geometry":{ "type": "Point", "coordinates": [-104.748355,40.350165]}},
{ "type": "Feature", "properties": {"Name":"Evergreen CDP","State":"Colorado","State_Abbrev":"CO"},
"geometry":{ "type": "Point", "coordinates": [-105.338089,39.635607]}},
{ "type": "Feature", "properties": {"Name":"Fairmount CDP","State":"Colorado","State_Abbrev":"CO"},
"geometry":{ "type": "Point", "coordinates": [-105.171157,39.792569]}},
{ "type": "Feature", "properties": {"Name":"Fairplay town","State":"Colorado","State_Abbrev":"CO"},
"geometry":{ "type": "Point", "coordinates": [-105.998396,39.224332]}},
{ "type": "Feature", "properties": {"Name":"Federal Heights city","State":"Colorado","State_Abbrev":"CO"},
"geometry":{ "type": "Point", "coordinates": [-105.01534,39.864973]}},
{ "type": "Feature", "properties": {"Name":"Firestone town","State":"Colorado","State_Abbrev":"CO"},
"geometry":{ "type": "Point", "coordinates": [-104.948619,40.155676]}},
{ "type": "Feature", "properties": {"Name":"Flagler town","State":"Colorado","State_Abbrev":"CO"},
"geometry":{ "type": "Point", "coordinates": [-103.067568,39.297175]}},
{ "type": "Feature", "properties": {"Name":"Fleming town","State":"Colorado","State_Abbrev":"CO"},
"geometry":{ "type": "Point", "coordinates": [-102.839631,40.682075]}},
{ "type": "Feature", "properties": {"Name":"Florence city","State":"Colorado","State_Abbrev":"CO"},
"geometry":{ "type": "Point", "coordinates": [-105.10023,38.379615]}},
{ "type": "Feature", "properties": {"Name":"Florissant CDP","State":"Colorado","State_Abbrev":"CO"},
"geometry":{ "type": "Point", "coordinates": [-105.28987,38.944557]}},
{ "type": "Feature", "properties": {"Name":"Floyd Hill CDP","State":"Colorado","State_Abbrev":"CO"},
"geometry":{ "type": "Point", "coordinates": [-105.434904,39.719713]}},
{ "type": "Feature", "properties": {"Name":"Fort Carson CDP","State":"Colorado","State_Abbrev":"CO"},
"geometry":{ "type": "Point", "coordinates": [-104.748914,38.687426]}},
{ "type": "Feature", "properties": {"Name":"Fort Collins city","State":"Colorado","State_Abbrev":"CO"},
"geometry":{ "type": "Point", "coordinates": [-105.064833,40.548216]}},
{ "type": "Feature", "properties": {"Name":"Fort Garland CDP","State":"Colorado","State_Abbrev":"CO"},
"geometry":{ "type": "Point", "coordinates": [-105.435008,37.427916]}},
{ "type": "Feature", "properties": {"Name":"Fort Lupton city","State":"Colorado","State_Abbrev":"CO"},
"geometry":{ "type": "Point", "coordinates": [-104.805544,40.082813]}},
{ "type": "Feature", "properties": {"Name":"Fort Morgan city","State":"Colorado","State_Abbrev":"CO"},
"geometry":{ "type": "Point", "coordinates": [-103.788652,40.253003]}},
{ "type": "Feature", "properties": {"Name":"Fountain city","State":"Colorado","State_Abbrev":"CO"},
"geometry":{ "type": "Point", "coordinates": [-104.680559,38.68902]}},
{ "type": "Feature", "properties": {"Name":"Four Square Mile CDP","State":"Colorado","State_Abbrev":"CO"},
"geometry":{ "type": "Point", "coordinates": [-104.887924,39.680723]}},
{ "type": "Feature", "properties": {"Name":"Fowler town","State":"Colorado","State_Abbrev":"CO"},
"geometry":{ "type": "Point", "coordinates": [-104.026096,38.130619]}},
{ "type": "Feature", "properties": {"Name":"Foxfield town","State":"Colorado","State_Abbrev":"CO"},
"geometry":{ "type": "Point", "coordinates": [-104.785741,39.58814]}},
{ "type": "Feature", "properties": {"Name":"Franktown CDP","State":"Colorado","State_Abbrev":"CO"},
"geometry":{ "type": "Point", "coordinates": [-104.74239,39.390015]}},
{ "type": "Feature", "properties": {"Name":"Fraser town","State":"Colorado","State_Abbrev":"CO"},
"geometry":{ "type": "Point", "coordinates": [-105.805268,39.923294]}},
{ "type": "Feature", "properties": {"Name":"Frederick town","State":"Colorado","State_Abbrev":"CO"},
"geometry":{ "type": "Point", "coordinates": [-104.974497,40.105907]}},
{ "type": "Feature", "properties": {"Name":"Frisco town","State":"Colorado","State_Abbrev":"CO"},
"geometry":{ "type": "Point", "coordinates": [-106.090973,39.578482]}},
{ "type": "Feature", "properties": {"Name":"Fruita city","State":"Colorado","State_Abbrev":"CO"},
"geometry":{ "type": "Point", "coordinates": [-108.730769,39.155957]}},
{ "type": "Feature", "properties": {"Name":"Fruitvale CDP","State":"Colorado","State_Abbrev":"CO"},
"geometry":{ "type": "Point", "coordinates": [-108.478876,39.093264]}},
{ "type": "Feature", "properties": {"Name":"Fulford CDP","State":"Colorado","State_Abbrev":"CO"},
"geometry":{ "type": "Point", "coordinates": [-106.65874,39.518492]}},
{ "type": "Feature", "properties": {"Name":"Garden City town","State":"Colorado","State_Abbrev":"CO"},
"geometry":{ "type": "Point", "coordinates": [-104.689494,40.394591]}},
{ "type": "Feature", "properties": {"Name":"Gardner CDP","State":"Colorado","State_Abbrev":"CO"},
"geometry":{ "type": "Point", "coordinates": [-105.164458,37.788866]}},
{ "type": "Feature", "properties": {"Name":"Garfield CDP","State":"Colorado","State_Abbrev":"CO"},
"geometry":{ "type": "Point", "coordinates": [-106.289276,38.549268]}},
{ "type": "Feature", "properties": {"Name":"Genesee CDP","State":"Colorado","State_Abbrev":"CO"},
"geometry":{ "type": "Point", "coordinates": [-105.271205,39.687901]}},
{ "type": "Feature", "properties": {"Name":"Genoa town","State":"Colorado","State_Abbrev":"CO"},
"geometry":{ "type": "Point", "coordinates": [-103.498717,39.278218]}},
{ "type": "Feature", "properties": {"Name":"Georgetown town","State":"Colorado","State_Abbrev":"CO"},
"geometry":{ "type": "Point", "coordinates": [-105.694488,39.717886]}},
{ "type": "Feature", "properties": {"Name":"Gerrard CDP","State":"Colorado","State_Abbrev":"CO"},
"geometry":{ "type": "Point", "coordinates": [-106.575244,37.678349]}},
{ "type": "Feature", "properties": {"Name":"Gilcrest town","State":"Colorado","State_Abbrev":"CO"},
"geometry":{ "type": "Point", "coordinates": [-104.782024,40.284156]}},
{ "type": "Feature", "properties": {"Name":"Glendale city","State":"Colorado","State_Abbrev":"CO"},
"geometry":{ "type": "Point", "coordinates": [-104.936157,39.703052]}},
{ "type": "Feature", "properties": {"Name":"Glendale CDP","State":"Colorado","State_Abbrev":"CO"},
"geometry":{ "type": "Point", "coordinates": [-105.371546,40.086911]}},
{ "type": "Feature", "properties": {"Name":"Gleneagle CDP","State":"Colorado","State_Abbrev":"CO"},
"geometry":{ "type": "Point", "coordinates": [-104.825359,39.039873]}},
{ "type": "Feature", "properties": {"Name":"Glenwood Springs city","State":"Colorado","State_Abbrev":"CO"},
"geometry":{ "type": "Point", "coordinates": [-107.342556,39.547132]}},
{ "type": "Feature", "properties": {"Name":"Golden city","State":"Colorado","State_Abbrev":"CO"},
"geometry":{ "type": "Point", "coordinates": [-105.210561,39.742483]}},
{ "type": "Feature", "properties": {"Name":"Goldfield CDP","State":"Colorado","State_Abbrev":"CO"},
"geometry":{ "type": "Point", "coordinates": [-105.125328,38.717645]}},
{ "type": "Feature", "properties": {"Name":"Gold Hill CDP","State":"Colorado","State_Abbrev":"CO"},
"geometry":{ "type": "Point", "coordinates": [-105.418919,40.059739]}},
{ "type": "Feature", "properties": {"Name":"Granada town","State":"Colorado","State_Abbrev":"CO"},
"geometry":{ "type": "Point", "coordinates": [-102.311591,38.062973]}},
{ "type": "Feature", "properties": {"Name":"Granby town","State":"Colorado","State_Abbrev":"CO"},
"geometry":{ "type": "Point", "coordinates": [-105.919386,40.064803]}},
{ "type": "Feature", "properties": {"Name":"Grand Junction city","State":"Colorado","State_Abbrev":"CO"},
"geometry":{ "type": "Point", "coordinates": [-108.567452,39.089062]}},
{ "type": "Feature", "properties": {"Name":"Grand Lake town","State":"Colorado","State_Abbrev":"CO"},
"geometry":{ "type": "Point", "coordinates": [-105.828942,40.255942]}},
{ "type": "Feature", "properties": {"Name":"Grand View Estates CDP","State":"Colorado","State_Abbrev":"CO"},
"geometry":{ "type": "Point", "coordinates": [-104.822634,39.542958]}},
{ "type": "Feature", "properties": {"Name":"Greeley city","State":"Colorado","State_Abbrev":"CO"},
"geometry":{ "type": "Point", "coordinates": [-104.771043,40.414034]}},
{ "type": "Feature", "properties": {"Name":"Green Mountain Falls town","State":"Colorado","State_Abbrev":"CO"},
"geometry":{ "type": "Point", "coordinates": [-105.019664,38.934954]}},
{ "type": "Feature", "properties": {"Name":"Greenwood Village city","State":"Colorado","State_Abbrev":"CO"},
"geometry":{ "type": "Point", "coordinates": [-104.911688,39.615934]}},
{ "type": "Feature", "properties": {"Name":"Grover town","State":"Colorado","State_Abbrev":"CO"},
"geometry":{ "type": "Point", "coordinates": [-104.225932,40.869111]}},
{ "type": "Feature", "properties": {"Name":"Guffey CDP","State":"Colorado","State_Abbrev":"CO"},
"geometry":{ "type": "Point", "coordinates": [-105.509821,38.760651]}},
{ "type": "Feature", "properties": {"Name":"Gunbarrel CDP","State":"Colorado","State_Abbrev":"CO"},
"geometry":{ "type": "Point", "coordinates": [-105.171697,40.063185]}},
{ "type": "Feature", "properties": {"Name":"Gunnison city","State":"Colorado","State_Abbrev":"CO"},
"geometry":{ "type": "Point", "coordinates": [-106.924604,38.547978]}},
{ "type": "Feature", "properties": {"Name":"Gypsum town","State":"Colorado","State_Abbrev":"CO"},
"geometry":{ "type": "Point", "coordinates": [-106.956357,39.620164]}},
{ "type": "Feature", "properties": {"Name":"Hartman town","State":"Colorado","State_Abbrev":"CO"},
"geometry":{ "type": "Point", "coordinates": [-102.221608,38.121128]}},
{ "type": "Feature", "properties": {"Name":"Hartsel CDP","State":"Colorado","State_Abbrev":"CO"},
"geometry":{ "type": "Point", "coordinates": [-105.80057,39.02263]}},
{ "type": "Feature", "properties": {"Name":"Hasty CDP","State":"Colorado","State_Abbrev":"CO"},
"geometry":{ "type": "Point", "coordinates": [-102.969681,38.102305]}},
{ "type": "Feature", "properties": {"Name":"Haswell town","State":"Colorado","State_Abbrev":"CO"},
"geometry":{ "type": "Point", "coordinates": [-103.16498,38.452492]}},
{ "type": "Feature", "properties": {"Name":"Haxtun town","State":"Colorado","State_Abbrev":"CO"},
"geometry":{ "type": "Point", "coordinates": [-102.629703,40.641872]}},
{ "type": "Feature", "properties": {"Name":"Hayden town","State":"Colorado","State_Abbrev":"CO"},
"geometry":{ "type": "Point", "coordinates": [-107.264325,40.492217]}},
{ "type": "Feature", "properties": {"Name":"Heeney CDP","State":"Colorado","State_Abbrev":"CO"},
"geometry":{ "type": "Point", "coordinates": [-106.304155,39.873988]}},
{ "type": "Feature", "properties": {"Name":"Hidden Lake CDP","State":"Colorado","State_Abbrev":"CO"},
"geometry":{ "type": "Point", "coordinates": [-105.477571,40.10516]}},
{ "type": "Feature", "properties": {"Name":"Highlands Ranch CDP","State":"Colorado","State_Abbrev":"CO"},
"geometry":{ "type": "Point", "coordinates": [-104.971077,39.540829]}},
{ "type": "Feature", "properties": {"Name":"Hillrose town","State":"Colorado","State_Abbrev":"CO"},
"geometry":{ "type": "Point", "coordinates": [-103.522206,40.324495]}},
{ "type": "Feature", "properties": {"Name":"Hoehne CDP","State":"Colorado","State_Abbrev":"CO"},
"geometry":{ "type": "Point", "coordinates": [-104.389092,37.281448]}},
{ "type": "Feature", "properties": {"Name":"Holly town","State":"Colorado","State_Abbrev":"CO"},
"geometry":{ "type": "Point", "coordinates": [-102.124589,38.055639]}},
{ "type": "Feature", "properties": {"Name":"Holly Hills CDP","State":"Colorado","State_Abbrev":"CO"},
"geometry":{ "type": "Point", "coordinates": [-104.921622,39.667727]}},
{ "type": "Feature", "properties": {"Name":"Holyoke city","State":"Colorado","State_Abbrev":"CO"},
"geometry":{ "type": "Point", "coordinates": [-102.297192,40.582101]}},
{ "type": "Feature", "properties": {"Name":"Hooper town","State":"Colorado","State_Abbrev":"CO"},
"geometry":{ "type": "Point", "coordinates": [-105.877735,37.745976]}},
{ "type": "Feature", "properties": {"Name":"Hotchkiss town","State":"Colorado","State_Abbrev":"CO"},
"geometry":{ "type": "Point", "coordinates": [-107.713381,38.798992]}},
{ "type": "Feature", "properties": {"Name":"Hot Sulphur Springs town","State":"Colorado","State_Abbrev":"CO"},
"geometry":{ "type": "Point", "coordinates": [-106.10317,40.074902]}},
{ "type": "Feature", "properties": {"Name":"Howard CDP","State":"Colorado","State_Abbrev":"CO"},
"geometry":{ "type": "Point", "coordinates": [-105.842407,38.409751]}},
{ "type": "Feature", "properties": {"Name":"Hudson town","State":"Colorado","State_Abbrev":"CO"},
"geometry":{ "type": "Point", "coordinates": [-104.593741,40.091746]}},
{ "type": "Feature", "properties": {"Name":"Hugo town","State":"Colorado","State_Abbrev":"CO"},
"geometry":{ "type": "Point", "coordinates": [-103.473138,39.136179]}},
{ "type": "Feature", "properties": {"Name":"Idaho Springs city","State":"Colorado","State_Abbrev":"CO"},
"geometry":{ "type": "Point", "coordinates": [-105.503759,39.749349]}},
{ "type": "Feature", "properties": {"Name":"Idalia CDP","State":"Colorado","State_Abbrev":"CO"},
"geometry":{ "type": "Point", "coordinates": [-102.293827,39.702917]}},
{ "type": "Feature", "properties": {"Name":"Idledale CDP","State":"Colorado","State_Abbrev":"CO"},
"geometry":{ "type": "Point", "coordinates": [-105.243191,39.668928]}},
{ "type": "Feature", "properties": {"Name":"Ignacio town","State":"Colorado","State_Abbrev":"CO"},
"geometry":{ "type": "Point", "coordinates": [-107.637557,37.118004]}},
{ "type": "Feature", "properties": {"Name":"Iliff town","State":"Colorado","State_Abbrev":"CO"},
"geometry":{ "type": "Point", "coordinates": [-103.066102,40.759177]}},
{ "type": "Feature", "properties": {"Name":"Indian Hills CDP","State":"Colorado","State_Abbrev":"CO"},
"geometry":{ "type": "Point", "coordinates": [-105.247461,39.629881]}},
{ "type": "Feature", "properties": {"Name":"Inverness CDP","State":"Colorado","State_Abbrev":"CO"},
"geometry":{ "type": "Point", "coordinates": [-104.865395,39.575772]}},
{ "type": "Feature", "properties": {"Name":"Jackson Lake CDP","State":"Colorado","State_Abbrev":"CO"},
"geometry":{ "type": "Point", "coordinates": [-104.059173,40.370055]}},
{ "type": "Feature", "properties": {"Name":"Jamestown town","State":"Colorado","State_Abbrev":"CO"},
"geometry":{ "type": "Point", "coordinates": [-105.393143,40.123001]}},
{ "type": "Feature", "properties": {"Name":"Jansen CDP","State":"Colorado","State_Abbrev":"CO"},
"geometry":{ "type": "Point", "coordinates": [-104.550106,37.158175]}},
{ "type": "Feature", "properties": {"Name":"Joes CDP","State":"Colorado","State_Abbrev":"CO"},
"geometry":{ "type": "Point", "coordinates": [-102.678499,39.663233]}},
{ "type": "Feature", "properties": {"Name":"Johnson Village CDP","State":"Colorado","State_Abbrev":"CO"},
"geometry":{ "type": "Point", "coordinates": [-106.107112,38.811894]}},
{ "type": "Feature", "properties": {"Name":"Johnstown town","State":"Colorado","State_Abbrev":"CO"},
"geometry":{ "type": "Point", "coordinates": [-104.967595,40.384472]}},
{ "type": "Feature", "properties": {"Name":"Julesburg town","State":"Colorado","State_Abbrev":"CO"},
"geometry":{ "type": "Point", "coordinates": [-102.262708,40.984864]}},
{ "type": "Feature", "properties": {"Name":"Keenesburg town","State":"Colorado","State_Abbrev":"CO"},
"geometry":{ "type": "Point", "coordinates": [-104.56342,40.155173]}},
{ "type": "Feature", "properties": {"Name":"Ken Caryl CDP","State":"Colorado","State_Abbrev":"CO"},
"geometry":{ "type": "Point", "coordinates": [-105.113695,39.576743]}},
{ "type": "Feature", "properties": {"Name":"Kersey town","State":"Colorado","State_Abbrev":"CO"},
"geometry":{ "type": "Point", "coordinates": [-104.578334,40.395585]}},
{ "type": "Feature", "properties": {"Name":"Keystone CDP","State":"Colorado","State_Abbrev":"CO"},
"geometry":{ "type": "Point", "coordinates": [-105.934721,39.573898]}},
{ "type": "Feature", "properties": {"Name":"Kim town","State":"Colorado","State_Abbrev":"CO"},
"geometry":{ "type": "Point", "coordinates": [-103.353411,37.247062]}},
{ "type": "Feature", "properties": {"Name":"Kiowa town","State":"Colorado","State_Abbrev":"CO"},
"geometry":{ "type": "Point", "coordinates": [-104.45788,39.343692]}},
{ "type": "Feature", "properties": {"Name":"Kirk CDP","State":"Colorado","State_Abbrev":"CO"},
"geometry":{ "type": "Point", "coordinates": [-102.591995,39.612689]}},
{ "type": "Feature", "properties": {"Name":"Kit Carson town","State":"Colorado","State_Abbrev":"CO"},
"geometry":{ "type": "Point", "coordinates": [-102.795366,38.762823]}},
{ "type": "Feature", "properties": {"Name":"Kittredge CDP","State":"Colorado","State_Abbrev":"CO"},
"geometry":{ "type": "Point", "coordinates": [-105.304886,39.659375]}},
{ "type": "Feature", "properties": {"Name":"Kremmling town","State":"Colorado","State_Abbrev":"CO"},
"geometry":{ "type": "Point", "coordinates": [-106.378212,40.056546]}},
{ "type": "Feature", "properties": {"Name":"Lafayette city","State":"Colorado","State_Abbrev":"CO"},
"geometry":{ "type": "Point", "coordinates": [-105.099676,39.994814]}},
{ "type": "Feature", "properties": {"Name":"Laird CDP","State":"Colorado","State_Abbrev":"CO"},
"geometry":{ "type": "Point", "coordinates": [-102.101898,40.081801]}},
{ "type": "Feature", "properties": {"Name":"La Jara town","State":"Colorado","State_Abbrev":"CO"},
"geometry":{ "type": "Point", "coordinates": [-105.959721,37.273524]}},
{ "type": "Feature", "properties": {"Name":"La Junta city","State":"Colorado","State_Abbrev":"CO"},
"geometry":{ "type": "Point", "coordinates": [-103.547336,37.979414]}},
{ "type": "Feature", "properties": {"Name":"La Junta Gardens CDP","State":"Colorado","State_Abbrev":"CO"},
"geometry":{ "type": "Point", "coordinates": [-103.55485,38.001349]}},
{ "type": "Feature", "properties": {"Name":"Lake City town","State":"Colorado","State_Abbrev":"CO"},
"geometry":{ "type": "Point", "coordinates": [-107.310706,38.021605]}},
{ "type": "Feature", "properties": {"Name":"Lakeside town","State":"Colorado","State_Abbrev":"CO"},
"geometry":{ "type": "Point", "coordinates": [-105.057825,39.779075]}},
{ "type": "Feature", "properties": {"Name":"Lakewood city","State":"Colorado","State_Abbrev":"CO"},
"geometry":{ "type": "Point", "coordinates": [-105.117573,39.698939]}},
{ "type": "Feature", "properties": {"Name":"Lamar city","State":"Colorado","State_Abbrev":"CO"},
"geometry":{ "type": "Point", "coordinates": [-102.616682,38.074729]}},
{ "type": "Feature", "properties": {"Name":"Laporte CDP","State":"Colorado","State_Abbrev":"CO"},
"geometry":{ "type": "Point", "coordinates": [-105.143605,40.637701]}},
{ "type": "Feature", "properties": {"Name":"Larkspur town","State":"Colorado","State_Abbrev":"CO"},
"geometry":{ "type": "Point", "coordinates": [-104.885679,39.229573]}},
{ "type": "Feature", "properties": {"Name":"La Salle town","State":"Colorado","State_Abbrev":"CO"},
"geometry":{ "type": "Point", "coordinates": [-104.706105,40.348629]}},
{ "type": "Feature", "properties": {"Name":"Las Animas city","State":"Colorado","State_Abbrev":"CO"},
"geometry":{ "type": "Point", "coordinates": [-103.223229,38.069668]}},
{ "type": "Feature", "properties": {"Name":"La Veta town","State":"Colorado","State_Abbrev":"CO"},
"geometry":{ "type": "Point", "coordinates": [-105.008487,37.508562]}},
{ "type": "Feature", "properties": {"Name":"Lazear CDP","State":"Colorado","State_Abbrev":"CO"},
"geometry":{ "type": "Point", "coordinates": [-107.780411,38.778794]}},
{ "type": "Feature", "properties": {"Name":"Lazy Acres CDP","State":"Colorado","State_Abbrev":"CO"},
"geometry":{ "type": "Point", "coordinates": [-105.334372,40.085551]}},
{ "type": "Feature", "properties": {"Name":"Leadville city","State":"Colorado","State_Abbrev":"CO"},
"geometry":{ "type": "Point", "coordinates": [-106.29346,39.247277]}},
{ "type": "Feature", "properties": {"Name":"Leadville North CDP","State":"Colorado","State_Abbrev":"CO"},
"geometry":{ "type": "Point", "coordinates": [-106.31129,39.260018]}},
{ "type": "Feature", "properties": {"Name":"Lewis CDP","State":"Colorado","State_Abbrev":"CO"},
"geometry":{ "type": "Point", "coordinates": [-108.660059,37.501715]}},
{ "type": "Feature", "properties": {"Name":"Leyner CDP","State":"Colorado","State_Abbrev":"CO"},
"geometry":{ "type": "Point", "coordinates": [-105.107438,40.051102]}},
{ "type": "Feature", "properties": {"Name":"Limon town","State":"Colorado","State_Abbrev":"CO"},
"geometry":{ "type": "Point", "coordinates": [-103.685911,39.265074]}},
{ "type": "Feature", "properties": {"Name":"Lincoln Park CDP","State":"Colorado","State_Abbrev":"CO"},
"geometry":{ "type": "Point", "coordinates": [-105.213083,38.425182]}},
{ "type": "Feature", "properties": {"Name":"Littleton city","State":"Colorado","State_Abbrev":"CO"},
"geometry":{ "type": "Point", "coordinates": [-105.020084,39.590375]}},
{ "type": "Feature", "properties": {"Name":"Lochbuie town","State":"Colorado","State_Abbrev":"CO"},
"geometry":{ "type": "Point", "coordinates": [-104.726505,40.009141]}},
{ "type": "Feature", "properties": {"Name":"Loghill Village CDP","State":"Colorado","State_Abbrev":"CO"},
"geometry":{ "type": "Point", "coordinates": [-107.775343,38.19941]}},
{ "type": "Feature", "properties": {"Name":"Log Lane Village town","State":"Colorado","State_Abbrev":"CO"},
"geometry":{ "type": "Point", "coordinates": [-103.82896,40.269734]}},
{ "type": "Feature", "properties": {"Name":"Loma CDP","State":"Colorado","State_Abbrev":"CO"},
"geometry":{ "type": "Point", "coordinates": [-108.805025,39.20751]}},
{ "type": "Feature", "properties": {"Name":"Lone Tree city","State":"Colorado","State_Abbrev":"CO"},
"geometry":{ "type": "Point", "coordinates": [-104.870959,39.530851]}},
{ "type": "Feature", "properties": {"Name":"Longmont city","State":"Colorado","State_Abbrev":"CO"},
"geometry":{ "type": "Point", "coordinates": [-105.100522,40.168199]}},
{ "type": "Feature", "properties": {"Name":"Louisville city","State":"Colorado","State_Abbrev":"CO"},
"geometry":{ "type": "Point", "coordinates": [-105.143271,39.969576]}},
{ "type": "Feature", "properties": {"Name":"Louviers CDP","State":"Colorado","State_Abbrev":"CO"},
"geometry":{ "type": "Point", "coordinates": [-105.00334,39.479866]}},
{ "type": "Feature", "properties": {"Name":"Loveland city","State":"Colorado","State_Abbrev":"CO"},
"geometry":{ "type": "Point", "coordinates": [-105.063111,40.416905]}},
{ "type": "Feature", "properties": {"Name":"Lynn CDP","State":"Colorado","State_Abbrev":"CO"},
"geometry":{ "type": "Point", "coordinates": [-104.643061,37.421909]}},
{ "type": "Feature", "properties": {"Name":"Lyons town","State":"Colorado","State_Abbrev":"CO"},
"geometry":{ "type": "Point", "coordinates": [-105.268665,40.22305]}},
{ "type": "Feature", "properties": {"Name":"McClave CDP","State":"Colorado","State_Abbrev":"CO"},
"geometry":{ "type": "Point", "coordinates": [-102.850444,38.131547]}},
{ "type": "Feature", "properties": {"Name":"McCoy CDP","State":"Colorado","State_Abbrev":"CO"},
"geometry":{ "type": "Point", "coordinates": [-106.725723,39.914382]}},
{ "type": "Feature", "properties": {"Name":"Manassa town","State":"Colorado","State_Abbrev":"CO"},
"geometry":{ "type": "Point", "coordinates": [-105.937275,37.173841]}},
{ "type": "Feature", "properties": {"Name":"Mancos town","State":"Colorado","State_Abbrev":"CO"},
"geometry":{ "type": "Point", "coordinates": [-108.293841,37.346641]}},
{ "type": "Feature", "properties": {"Name":"Manitou Springs city","State":"Colorado","State_Abbrev":"CO"},
"geometry":{ "type": "Point", "coordinates": [-104.912861,38.857539]}},
{ "type": "Feature", "properties": {"Name":"Manzanola town","State":"Colorado","State_Abbrev":"CO"},
"geometry":{ "type": "Point", "coordinates": [-103.866804,38.108758]}},
{ "type": "Feature", "properties": {"Name":"Marble town","State":"Colorado","State_Abbrev":"CO"},
"geometry":{ "type": "Point", "coordinates": [-107.190749,39.071665]}},
{ "type": "Feature", "properties": {"Name":"Marvel CDP","State":"Colorado","State_Abbrev":"CO"},
"geometry":{ "type": "Point", "coordinates": [-108.126327,37.111185]}},
{ "type": "Feature", "properties": {"Name":"Matheson CDP","State":"Colorado","State_Abbrev":"CO"},
"geometry":{ "type": "Point", "coordinates": [-103.977018,39.168316]}},
{ "type": "Feature", "properties": {"Name":"Maybell CDP","State":"Colorado","State_Abbrev":"CO"},
"geometry":{ "type": "Point", "coordinates": [-108.088495,40.518827]}},
{ "type": "Feature", "properties": {"Name":"Maysville CDP","State":"Colorado","State_Abbrev":"CO"},
"geometry":{ "type": "Point", "coordinates": [-106.219426,38.525998]}},
{ "type": "Feature", "properties": {"Name":"Mead town","State":"Colorado","State_Abbrev":"CO"},
"geometry":{ "type": "Point", "coordinates": [-104.98832,40.227002]}},
{ "type": "Feature", "properties": {"Name":"Meeker town","State":"Colorado","State_Abbrev":"CO"},
"geometry":{ "type": "Point", "coordinates": [-107.894584,40.049953]}},
{ "type": "Feature", "properties": {"Name":"Meridian CDP","State":"Colorado","State_Abbrev":"CO"},
"geometry":{ "type": "Point", "coordinates": [-104.85332,39.545684]}},
{ "type": "Feature", "properties": {"Name":"Meridian Village CDP","State":"Colorado","State_Abbrev":"CO"},
"geometry":{ "type": "Point", "coordinates": [-104.825785,39.528065]}},
{ "type": "Feature", "properties": {"Name":"Merino town","State":"Colorado","State_Abbrev":"CO"},
"geometry":{ "type": "Point", "coordinates": [-103.353675,40.483705]}},
{ "type": "Feature", "properties": {"Name":"Midland CDP","State":"Colorado","State_Abbrev":"CO"},
"geometry":{ "type": "Point", "coordinates": [-105.15212,38.846344]}},
{ "type": "Feature", "properties": {"Name":"Milliken town","State":"Colorado","State_Abbrev":"CO"},
"geometry":{ "type": "Point", "coordinates": [-104.858412,40.310509]}},
{ "type": "Feature", "properties": {"Name":"Minturn town","State":"Colorado","State_Abbrev":"CO"},
"geometry":{ "type": "Point", "coordinates": [-106.381759,39.535652]}},
{ "type": "Feature", "properties": {"Name":"Moffat town","State":"Colorado","State_Abbrev":"CO"},
"geometry":{ "type": "Point", "coordinates": [-105.906521,38.002667]}},
{ "type": "Feature", "properties": {"Name":"Monte Vista city","State":"Colorado","State_Abbrev":"CO"},
"geometry":{ "type": "Point", "coordinates": [-106.149915,37.57854]}},
{ "type": "Feature", "properties": {"Name":"Montezuma town","State":"Colorado","State_Abbrev":"CO"},
"geometry":{ "type": "Point", "coordinates": [-105.86764,39.581477]}},
{ "type": "Feature", "properties": {"Name":"Montrose city","State":"Colorado","State_Abbrev":"CO"},
"geometry":{ "type": "Point", "coordinates": [-107.859013,38.468918]}},
{ "type": "Feature", "properties": {"Name":"Monument town","State":"Colorado","State_Abbrev":"CO"},
"geometry":{ "type": "Point", "coordinates": [-104.844221,39.074406]}},
{ "type": "Feature", "properties": {"Name":"Morgan Heights CDP","State":"Colorado","State_Abbrev":"CO"},
"geometry":{ "type": "Point", "coordinates": [-103.827446,40.287492]}},
{ "type": "Feature", "properties": {"Name":"Morrison town","State":"Colorado","State_Abbrev":"CO"},
"geometry":{ "type": "Point", "coordinates": [-105.205959,39.636357]}},
{ "type": "Feature", "properties": {"Name":"Mountain Meadows CDP","State":"Colorado","State_Abbrev":"CO"},
"geometry":{ "type": "Point", "coordinates": [-105.383136,40.027039]}},
{ "type": "Feature", "properties": {"Name":"Mountain View town","State":"Colorado","State_Abbrev":"CO"},
"geometry":{ "type": "Point", "coordinates": [-105.056711,39.774776]}},
{ "type": "Feature", "properties": {"Name":"Mountain Village town","State":"Colorado","State_Abbrev":"CO"},
"geometry":{ "type": "Point", "coordinates": [-107.857737,37.932416]}},
{ "type": "Feature", "properties": {"Name":"Mount Crested Butte town","State":"Colorado","State_Abbrev":"CO"},
"geometry":{ "type": "Point", "coordinates": [-106.960587,38.908302]}},
{ "type": "Feature", "properties": {"Name":"Mulford CDP","State":"Colorado","State_Abbrev":"CO"},
"geometry":{ "type": "Point", "coordinates": [-107.165987,39.406355]}},
{ "type": "Feature", "properties": {"Name":"Nathrop CDP","State":"Colorado","State_Abbrev":"CO"},
"geometry":{ "type": "Point", "coordinates": [-106.07642,38.74874]}},
{ "type": "Feature", "properties": {"Name":"Naturita town","State":"Colorado","State_Abbrev":"CO"},
"geometry":{ "type": "Point", "coordinates": [-108.566633,38.218344]}},
{ "type": "Feature", "properties": {"Name":"Nederland town","State":"Colorado","State_Abbrev":"CO"},
"geometry":{ "type": "Point", "coordinates": [-105.505864,39.963815]}},
{ "type": "Feature", "properties": {"Name":"New Castle town","State":"Colorado","State_Abbrev":"CO"},
"geometry":{ "type": "Point", "coordinates": [-107.526453,39.577645]}},
{ "type": "Feature", "properties": {"Name":"Niwot CDP","State":"Colorado","State_Abbrev":"CO"},
"geometry":{ "type": "Point", "coordinates": [-105.15828,40.097552]}},
{ "type": "Feature", "properties": {"Name":"No Name CDP","State":"Colorado","State_Abbrev":"CO"},
"geometry":{ "type": "Point", "coordinates": [-107.292787,39.55973]}},
{ "type": "Feature", "properties": {"Name":"Norrie CDP","State":"Colorado","State_Abbrev":"CO"},
"geometry":{ "type": "Point", "coordinates": [-106.656275,39.328131]}},
{ "type": "Feature", "properties": {"Name":"Northglenn city","State":"Colorado","State_Abbrev":"CO"},
"geometry":{ "type": "Point", "coordinates": [-104.982141,39.911629]}},
{ "type": "Feature", "properties": {"Name":"North La Junta CDP","State":"Colorado","State_Abbrev":"CO"},
"geometry":{ "type": "Point", "coordinates": [-103.523187,37.999608]}},
{ "type": "Feature", "properties": {"Name":"North Washington CDP","State":"Colorado","State_Abbrev":"CO"},
"geometry":{ "type": "Point", "coordinates": [-104.98004,39.807749]}},
{ "type": "Feature", "properties": {"Name":"Norwood town","State":"Colorado","State_Abbrev":"CO"},
"geometry":{ "type": "Point", "coordinates": [-108.291655,38.12906]}},
{ "type": "Feature", "properties": {"Name":"Nucla town","State":"Colorado","State_Abbrev":"CO"},
"geometry":{ "type": "Point", "coordinates": [-108.548695,38.266687]}},
{ "type": "Feature", "properties": {"Name":"Nunn town","State":"Colorado","State_Abbrev":"CO"},
"geometry":{ "type": "Point", "coordinates": [-104.788848,40.71371]}},
{ "type": "Feature", "properties": {"Name":"Oak Creek town","State":"Colorado","State_Abbrev":"CO"},
"geometry":{ "type": "Point", "coordinates": [-106.957639,40.274024]}},
{ "type": "Feature", "properties": {"Name":"Olathe town","State":"Colorado","State_Abbrev":"CO"},
"geometry":{ "type": "Point", "coordinates": [-107.9833,38.608384]}},
{ "type": "Feature", "properties": {"Name":"Olney Springs town","State":"Colorado","State_Abbrev":"CO"},
"geometry":{ "type": "Point", "coordinates": [-103.944491,38.166274]}},
{ "type": "Feature", "properties": {"Name":"Ophir town","State":"Colorado","State_Abbrev":"CO"},
"geometry":{ "type": "Point", "coordinates": [-107.831242,37.85681]}},
{ "type": "Feature", "properties": {"Name":"Orchard CDP","State":"Colorado","State_Abbrev":"CO"},
"geometry":{ "type": "Point", "coordinates": [-104.117799,40.332001]}},
{ "type": "Feature", "properties": {"Name":"Orchard City town","State":"Colorado","State_Abbrev":"CO"},
"geometry":{ "type": "Point", "coordinates": [-107.96727,38.818125]}},
{ "type": "Feature", "properties": {"Name":"Orchard Mesa CDP","State":"Colorado","State_Abbrev":"CO"},
"geometry":{ "type": "Point", "coordinates": [-108.522836,39.037385]}},
{ "type": "Feature", "properties": {"Name":"Ordway town","State":"Colorado","State_Abbrev":"CO"},
"geometry":{ "type": "Point", "coordinates": [-103.75668,38.220899]}},
{ "type": "Feature", "properties": {"Name":"Otis town","State":"Colorado","State_Abbrev":"CO"},
"geometry":{ "type": "Point", "coordinates": [-102.962138,40.150126]}},
{ "type": "Feature", "properties": {"Name":"Ouray city","State":"Colorado","State_Abbrev":"CO"},
"geometry":{ "type": "Point", "coordinates": [-107.673348,38.027543]}},
{ "type": "Feature", "properties": {"Name":"Ovid town","State":"Colorado","State_Abbrev":"CO"},
"geometry":{ "type": "Point", "coordinates": [-102.388336,40.960755]}},
{ "type": "Feature", "properties": {"Name":"Padroni CDP","State":"Colorado","State_Abbrev":"CO"},
"geometry":{ "type": "Point", "coordinates": [-103.173297,40.781814]}},
{ "type": "Feature", "properties": {"Name":"Pagosa Springs town","State":"Colorado","State_Abbrev":"CO"},
"geometry":{ "type": "Point", "coordinates": [-107.003565,37.263422]}},
{ "type": "Feature", "properties": {"Name":"Palisade town","State":"Colorado","State_Abbrev":"CO"},
"geometry":{ "type": "Point", "coordinates": [-108.35733,39.107931]}},
{ "type": "Feature", "properties": {"Name":"Palmer Lake town","State":"Colorado","State_Abbrev":"CO"},
"geometry":{ "type": "Point", "coordinates": [-104.909206,39.115801]}},
{ "type": "Feature", "properties": {"Name":"Paoli town","State":"Colorado","State_Abbrev":"CO"},
"geometry":{ "type": "Point", "coordinates": [-102.471758,40.612764]}},
{ "type": "Feature", "properties": {"Name":"Paonia town","State":"Colorado","State_Abbrev":"CO"},
"geometry":{ "type": "Point", "coordinates": [-107.592084,38.869797]}},
{ "type": "Feature", "properties": {"Name":"Parachute town","State":"Colorado","State_Abbrev":"CO"},
"geometry":{ "type": "Point", "coordinates": [-108.052083,39.446788]}},
{ "type": "Feature", "properties": {"Name":"Paragon Estates CDP","State":"Colorado","State_Abbrev":"CO"},
"geometry":{ "type": "Point", "coordinates": [-105.185187,39.980757]}},
{ "type": "Feature", "properties": {"Name":"Park Center CDP","State":"Colorado","State_Abbrev":"CO"},
"geometry":{ "type": "Point", "coordinates": [-105.226136,38.485178]}},
{ "type": "Feature", "properties": {"Name":"Parker town","State":"Colorado","State_Abbrev":"CO"},
"geometry":{ "type": "Point", "coordinates": [-104.775828,39.505946]}},
{ "type": "Feature", "properties": {"Name":"Parshall CDP","State":"Colorado","State_Abbrev":"CO"},
"geometry":{ "type": "Point", "coordinates": [-106.175995,40.055562]}},
{ "type": "Feature", "properties": {"Name":"Peetz town","State":"Colorado","State_Abbrev":"CO"},
"geometry":{ "type": "Point", "coordinates": [-103.113809,40.961823]}},
{ "type": "Feature", "properties": {"Name":"Penrose CDP","State":"Colorado","State_Abbrev":"CO"},
"geometry":{ "type": "Point", "coordinates": [-105.000395,38.421298]}},
{ "type": "Feature", "properties": {"Name":"Peoria CDP","State":"Colorado","State_Abbrev":"CO"},
"geometry":{ "type": "Point", "coordinates": [-104.136977,39.653334]}},
{ "type": "Feature", "properties": {"Name":"Perry Park CDP","State":"Colorado","State_Abbrev":"CO"},
"geometry":{ "type": "Point", "coordinates": [-104.967839,39.260456]}},
{ "type": "Feature", "properties": {"Name":"Peyton CDP","State":"Colorado","State_Abbrev":"CO"},
"geometry":{ "type": "Point", "coordinates": [-104.490402,39.032979]}},
{ "type": "Feature", "properties": {"Name":"Phippsburg CDP","State":"Colorado","State_Abbrev":"CO"},
"geometry":{ "type": "Point", "coordinates": [-106.950796,40.230139]}},
{ "type": "Feature", "properties": {"Name":"Piedra CDP","State":"Colorado","State_Abbrev":"CO"},
"geometry":{ "type": "Point", "coordinates": [-107.168427,37.441795]}},
{ "type": "Feature", "properties": {"Name":"Pierce town","State":"Colorado","State_Abbrev":"CO"},
"geometry":{ "type": "Point", "coordinates": [-104.780051,40.647584]}},
{ "type": "Feature", "properties": {"Name":"Pine Brook Hill CDP","State":"Colorado","State_Abbrev":"CO"},
"geometry":{ "type": "Point", "coordinates": [-105.307526,40.038413]}},
{ "type": "Feature", "properties": {"Name":"Pine Valley CDP","State":"Colorado","State_Abbrev":"CO"},
"geometry":{ "type": "Point", "coordinates": [-105.413228,39.690938]}},
{ "type": "Feature", "properties": {"Name":"Pitkin town","State":"Colorado","State_Abbrev":"CO"},
"geometry":{ "type": "Point", "coordinates": [-106.514918,38.608722]}},
{ "type": "Feature", "properties": {"Name":"Placerville CDP","State":"Colorado","State_Abbrev":"CO"},
"geometry":{ "type": "Point", "coordinates": [-108.039835,38.005314]}},
{ "type": "Feature", "properties": {"Name":"Platteville town","State":"Colorado","State_Abbrev":"CO"},
"geometry":{ "type": "Point", "coordinates": [-104.833572,40.222815]}},
{ "type": "Feature", "properties": {"Name":"Poncha Springs town","State":"Colorado","State_Abbrev":"CO"},
"geometry":{ "type": "Point", "coordinates": [-106.072576,38.521109]}},
{ "type": "Feature", "properties": {"Name":"Ponderosa Park CDP","State":"Colorado","State_Abbrev":"CO"},
"geometry":{ "type": "Point", "coordinates": [-104.635214,39.398666]}},
{ "type": "Feature", "properties": {"Name":"Portland CDP","State":"Colorado","State_Abbrev":"CO"},
"geometry":{ "type": "Point", "coordinates": [-107.695234,38.089222]}},
{ "type": "Feature", "properties": {"Name":"Pritchett town","State":"Colorado","State_Abbrev":"CO"},
"geometry":{ "type": "Point", "coordinates": [-102.858749,37.370009]}},
{ "type": "Feature", "properties": {"Name":"Pueblo city","State":"Colorado","State_Abbrev":"CO"},
"geometry":{ "type": "Point", "coordinates": [-104.610816,38.269228]}},
{ "type": "Feature", "properties": {"Name":"Pueblo West CDP","State":"Colorado","State_Abbrev":"CO"},
"geometry":{ "type": "Point", "coordinates": [-104.784972,38.31583]}},
{ "type": "Feature", "properties": {"Name":"Ramah town","State":"Colorado","State_Abbrev":"CO"},
"geometry":{ "type": "Point", "coordinates": [-104.167313,39.121427]}},
{ "type": "Feature", "properties": {"Name":"Rangely town","State":"Colorado","State_Abbrev":"CO"},
"geometry":{ "type": "Point", "coordinates": [-108.78326,40.087011]}},
{ "type": "Feature", "properties": {"Name":"Raymer (New Raymer) town","State":"Colorado","State_Abbrev":"CO"},
"geometry":{ "type": "Point", "coordinates": [-103.843576,40.607957]}},
{ "type": "Feature", "properties": {"Name":"Red Cliff town","State":"Colorado","State_Abbrev":"CO"},
"geometry":{ "type": "Point", "coordinates": [-106.369943,39.509291]}},
{ "type": "Feature", "properties": {"Name":"Red Feather Lakes CDP","State":"Colorado","State_Abbrev":"CO"},
"geometry":{ "type": "Point", "coordinates": [-105.578991,40.809474]}},
{ "type": "Feature", "properties": {"Name":"Redlands CDP","State":"Colorado","State_Abbrev":"CO"},
"geometry":{ "type": "Point", "coordinates": [-108.655022,39.084956]}},
{ "type": "Feature", "properties": {"Name":"Redstone CDP","State":"Colorado","State_Abbrev":"CO"},
"geometry":{ "type": "Point", "coordinates": [-107.238289,39.180281]}},
{ "type": "Feature", "properties": {"Name":"Redvale CDP","State":"Colorado","State_Abbrev":"CO"},
"geometry":{ "type": "Point", "coordinates": [-108.412508,38.176064]}},
{ "type": "Feature", "properties": {"Name":"Rico town","State":"Colorado","State_Abbrev":"CO"},
"geometry":{ "type": "Point", "coordinates": [-108.031677,37.689086]}},
{ "type": "Feature", "properties": {"Name":"Ridgway town","State":"Colorado","State_Abbrev":"CO"},
"geometry":{ "type": "Point", "coordinates": [-107.754597,38.157178]}},
{ "type": "Feature", "properties": {"Name":"Rifle city","State":"Colorado","State_Abbrev":"CO"},
"geometry":{ "type": "Point", "coordinates": [-107.770344,39.537565]}},
{ "type": "Feature", "properties": {"Name":"Rock Creek Park CDP","State":"Colorado","State_Abbrev":"CO"},
"geometry":{ "type": "Point", "coordinates": [-104.834702,38.701068]}},
{ "type": "Feature", "properties": {"Name":"Rockvale town","State":"Colorado","State_Abbrev":"CO"},
"geometry":{ "type": "Point", "coordinates": [-105.164523,38.364425]}},
{ "type": "Feature", "properties": {"Name":"Rocky Ford city","State":"Colorado","State_Abbrev":"CO"},
"geometry":{ "type": "Point", "coordinates": [-103.722102,38.049884]}},
{ "type": "Feature", "properties": {"Name":"Rollinsville CDP","State":"Colorado","State_Abbrev":"CO"},
"geometry":{ "type": "Point", "coordinates": [-105.51355,39.923187]}},
{ "type": "Feature", "properties": {"Name":"Romeo town","State":"Colorado","State_Abbrev":"CO"},
"geometry":{ "type": "Point", "coordinates": [-105.985415,37.171822]}},
{ "type": "Feature", "properties": {"Name":"Roxborough Park CDP","State":"Colorado","State_Abbrev":"CO"},
"geometry":{ "type": "Point", "coordinates": [-105.074057,39.450614]}},
{ "type": "Feature", "properties": {"Name":"Rye town","State":"Colorado","State_Abbrev":"CO"},
"geometry":{ "type": "Point", "coordinates": [-104.931935,37.921283]}},
{ "type": "Feature", "properties": {"Name":"Saddle Ridge CDP","State":"Colorado","State_Abbrev":"CO"},
"geometry":{ "type": "Point", "coordinates": [-103.802297,40.313071]}},
{ "type": "Feature", "properties": {"Name":"Saguache town","State":"Colorado","State_Abbrev":"CO"},
"geometry":{ "type": "Point", "coordinates": [-106.141053,38.08627]}},
{ "type": "Feature", "properties": {"Name":"St. Ann Highlands CDP","State":"Colorado","State_Abbrev":"CO"},
"geometry":{ "type": "Point", "coordinates": [-105.455806,39.987297]}},
{ "type": "Feature", "properties": {"Name":"St. Mary's CDP","State":"Colorado","State_Abbrev":"CO"},
"geometry":{ "type": "Point", "coordinates": [-105.647138,39.816531]}},
{ "type": "Feature", "properties": {"Name":"Salida city","State":"Colorado","State_Abbrev":"CO"},
"geometry":{ "type": "Point", "coordinates": [-105.997916,38.529878]}},
{ "type": "Feature", "properties": {"Name":"Salt Creek CDP","State":"Colorado","State_Abbrev":"CO"},
"geometry":{ "type": "Point", "coordinates": [-104.586645,38.240693]}},
{ "type": "Feature", "properties": {"Name":"San Acacio CDP","State":"Colorado","State_Abbrev":"CO"},
"geometry":{ "type": "Point", "coordinates": [-105.566638,37.208634]}},
{ "type": "Feature", "properties": {"Name":"Sanford town","State":"Colorado","State_Abbrev":"CO"},
"geometry":{ "type": "Point", "coordinates": [-105.900766,37.257407]}},
{ "type": "Feature", "properties": {"Name":"San Luis town","State":"Colorado","State_Abbrev":"CO"},
"geometry":{ "type": "Point", "coordinates": [-105.422506,37.202375]}},
{ "type": "Feature", "properties": {"Name":"Sawpit town","State":"Colorado","State_Abbrev":"CO"},
"geometry":{ "type": "Point", "coordinates": [-108.002136,37.994717]}},
{ "type": "Feature", "properties": {"Name":"Security-Widefield CDP","State":"Colorado","State_Abbrev":"CO"},
"geometry":{ "type": "Point", "coordinates": [-104.716023,38.75113]}},
{ "type": "Feature", "properties": {"Name":"Sedalia CDP","State":"Colorado","State_Abbrev":"CO"},
"geometry":{ "type": "Point", "coordinates": [-104.969909,39.439705]}},
{ "type": "Feature", "properties": {"Name":"Sedgwick town","State":"Colorado","State_Abbrev":"CO"},
"geometry":{ "type": "Point", "coordinates": [-102.525637,40.935512]}},
{ "type": "Feature", "properties": {"Name":"Segundo CDP","State":"Colorado","State_Abbrev":"CO"},
"geometry":{ "type": "Point", "coordinates": [-104.739739,37.12252]}},
{ "type": "Feature", "properties": {"Name":"Seibert town","State":"Colorado","State_Abbrev":"CO"},
"geometry":{ "type": "Point", "coordinates": [-102.869524,39.297967]}},
{ "type": "Feature", "properties": {"Name":"Seven Hills CDP","State":"Colorado","State_Abbrev":"CO"},
"geometry":{ "type": "Point", "coordinates": [-105.330748,40.033702]}},
{ "type": "Feature", "properties": {"Name":"Severance town","State":"Colorado","State_Abbrev":"CO"},
"geometry":{ "type": "Point", "coordinates": [-104.842097,40.505141]}},
{ "type": "Feature", "properties": {"Name":"Shaw Heights CDP","State":"Colorado","State_Abbrev":"CO"},
"geometry":{ "type": "Point", "coordinates": [-105.039085,39.85753]}},
{ "type": "Feature", "properties": {"Name":"Sheridan city","State":"Colorado","State_Abbrev":"CO"},
"geometry":{ "type": "Point", "coordinates": [-105.017457,39.647757]}},
{ "type": "Feature", "properties": {"Name":"Sheridan Lake town","State":"Colorado","State_Abbrev":"CO"},
"geometry":{ "type": "Point", "coordinates": [-102.294399,38.46671]}},
{ "type": "Feature", "properties": {"Name":"Sherrelwood CDP","State":"Colorado","State_Abbrev":"CO"},
"geometry":{ "type": "Point", "coordinates": [-105.002316,39.838251]}},
{ "type": "Feature", "properties": {"Name":"Sierra Ridge CDP","State":"Colorado","State_Abbrev":"CO"},
"geometry":{ "type": "Point", "coordinates": [-104.817244,39.528595]}},
{ "type": "Feature", "properties": {"Name":"Silt town","State":"Colorado","State_Abbrev":"CO"},
"geometry":{ "type": "Point", "coordinates": [-107.652736,39.547978]}},
{ "type": "Feature", "properties": {"Name":"Silver Cliff town","State":"Colorado","State_Abbrev":"CO"},
"geometry":{ "type": "Point", "coordinates": [-105.399175,38.129203]}},
{ "type": "Feature", "properties": {"Name":"Silver Plume town","State":"Colorado","State_Abbrev":"CO"},
"geometry":{ "type": "Point", "coordinates": [-105.727021,39.695372]}},
{ "type": "Feature", "properties": {"Name":"Silverthorne town","State":"Colorado","State_Abbrev":"CO"},
"geometry":{ "type": "Point", "coordinates": [-106.089107,39.659909]}},
{ "type": "Feature", "properties": {"Name":"Silverton town","State":"Colorado","State_Abbrev":"CO"},
"geometry":{ "type": "Point", "coordinates": [-107.664743,37.810874]}},
{ "type": "Feature", "properties": {"Name":"Simla town","State":"Colorado","State_Abbrev":"CO"},
"geometry":{ "type": "Point", "coordinates": [-104.08237,39.14074]}},
{ "type": "Feature", "properties": {"Name":"Smeltertown CDP","State":"Colorado","State_Abbrev":"CO"},
"geometry":{ "type": "Point", "coordinates": [-106.008417,38.552322]}},
{ "type": "Feature", "properties": {"Name":"Snowmass Village town","State":"Colorado","State_Abbrev":"CO"},
"geometry":{ "type": "Point", "coordinates": [-106.94397,39.216878]}},
{ "type": "Feature", "properties": {"Name":"Snyder CDP","State":"Colorado","State_Abbrev":"CO"},
"geometry":{ "type": "Point", "coordinates": [-103.591971,40.330825]}},
{ "type": "Feature", "properties": {"Name":"Somerset CDP","State":"Colorado","State_Abbrev":"CO"},
"geometry":{ "type": "Point", "coordinates": [-107.464992,38.92881]}},
{ "type": "Feature", "properties": {"Name":"Southern Ute CDP","State":"Colorado","State_Abbrev":"CO"},
"geometry":{ "type": "Point", "coordinates": [-107.593308,37.074888]}},
{ "type": "Feature", "properties": {"Name":"South Fork town","State":"Colorado","State_Abbrev":"CO"},
"geometry":{ "type": "Point", "coordinates": [-106.642851,37.669186]}},
{ "type": "Feature", "properties": {"Name":"Springfield town","State":"Colorado","State_Abbrev":"CO"},
"geometry":{ "type": "Point", "coordinates": [-102.618898,37.404914]}},
{ "type": "Feature", "properties": {"Name":"Starkville town","State":"Colorado","State_Abbrev":"CO"},
"geometry":{ "type": "Point", "coordinates": [-104.523296,37.116826]}},
{ "type": "Feature", "properties": {"Name":"Steamboat Springs city","State":"Colorado","State_Abbrev":"CO"},
"geometry":{ "type": "Point", "coordinates": [-106.822919,40.475578]}},
{ "type": "Feature", "properties": {"Name":"Stepping Stone CDP","State":"Colorado","State_Abbrev":"CO"},
"geometry":{ "type": "Point", "coordinates": [-104.822157,39.514747]}},
{ "type": "Feature", "properties": {"Name":"Sterling city","State":"Colorado","State_Abbrev":"CO"},
"geometry":{ "type": "Point", "coordinates": [-103.192509,40.620483]}},
{ "type": "Feature", "properties": {"Name":"Sterling Ranch CDP","State":"Colorado","State_Abbrev":"CO"},
"geometry":{ "type": "Point", "coordinates": [-105.047508,39.493227]}},
{ "type": "Feature", "properties": {"Name":"Stonegate CDP","State":"Colorado","State_Abbrev":"CO"},
"geometry":{ "type": "Point", "coordinates": [-104.799841,39.533783]}},
{ "type": "Feature", "properties": {"Name":"Stonewall Gap CDP","State":"Colorado","State_Abbrev":"CO"},
"geometry":{ "type": "Point", "coordinates": [-105.034201,37.160473]}},
{ "type": "Feature", "properties": {"Name":"Strasburg CDP","State":"Colorado","State_Abbrev":"CO"},
"geometry":{ "type": "Point", "coordinates": [-104.318187,39.720709]}},
{ "type": "Feature", "properties": {"Name":"Stratmoor CDP","State":"Colorado","State_Abbrev":"CO"},
"geometry":{ "type": "Point", "coordinates": [-104.777773,38.771957]}},
{ "type": "Feature", "properties": {"Name":"Stratton town","State":"Colorado","State_Abbrev":"CO"},
"geometry":{ "type": "Point", "coordinates": [-102.60347,39.302884]}},
{ "type": "Feature", "properties": {"Name":"Sugar City town","State":"Colorado","State_Abbrev":"CO"},
"geometry":{ "type": "Point", "coordinates": [-103.663312,38.232773]}},
{ "type": "Feature", "properties": {"Name":"Sugarloaf CDP","State":"Colorado","State_Abbrev":"CO"},
"geometry":{ "type": "Point", "coordinates": [-105.407669,40.018875]}},
{ "type": "Feature", "properties": {"Name":"Sunshine CDP","State":"Colorado","State_Abbrev":"CO"},
"geometry":{ "type": "Point", "coordinates": [-105.369584,40.06365]}},
{ "type": "Feature", "properties": {"Name":"Superior town","State":"Colorado","State_Abbrev":"CO"},
"geometry":{ "type": "Point", "coordinates": [-105.159085,39.93119]}},
{ "type": "Feature", "properties": {"Name":"Swink town","State":"Colorado","State_Abbrev":"CO"},
"geometry":{ "type": "Point", "coordinates": [-103.628162,38.014068]}},
{ "type": "Feature", "properties": {"Name":"Tabernash CDP","State":"Colorado","State_Abbrev":"CO"},
"geometry":{ "type": "Point", "coordinates": [-105.84405,39.978763]}},
{ "type": "Feature", "properties": {"Name":"Tall Timber CDP","State":"Colorado","State_Abbrev":"CO"},
"geometry":{ "type": "Point", "coordinates": [-105.349822,40.01515]}},
{ "type": "Feature", "properties": {"Name":"Telluride town","State":"Colorado","State_Abbrev":"CO"},
"geometry":{ "type": "Point", "coordinates": [-107.818152,37.940233]}},
{ "type": "Feature", "properties": {"Name":"The Pinery CDP","State":"Colorado","State_Abbrev":"CO"},
"geometry":{ "type": "Point", "coordinates": [-104.749486,39.448389]}},
{ "type": "Feature", "properties": {"Name":"Thornton city","State":"Colorado","State_Abbrev":"CO"},
"geometry":{ "type": "Point", "coordinates": [-104.941413,39.920433]}},
{ "type": "Feature", "properties": {"Name":"Timnath town","State":"Colorado","State_Abbrev":"CO"},
"geometry":{ "type": "Point", "coordinates": [-104.964501,40.533209]}},
{ "type": "Feature", "properties": {"Name":"Todd Creek CDP","State":"Colorado","State_Abbrev":"CO"},
"geometry":{ "type": "Point", "coordinates": [-104.868319,39.978713]}},
{ "type": "Feature", "properties": {"Name":"Towaoc CDP","State":"Colorado","State_Abbrev":"CO"},
"geometry":{ "type": "Point", "coordinates": [-108.726461,37.212599]}},
{ "type": "Feature", "properties": {"Name":"Towner CDP","State":"Colorado","State_Abbrev":"CO"},
"geometry":{ "type": "Point", "coordinates": [-102.080455,38.4704]}},
{ "type": "Feature", "properties": {"Name":"Trail Side CDP","State":"Colorado","State_Abbrev":"CO"},
"geometry":{ "type": "Point", "coordinates": [-103.843203,40.24904]}},
{ "type": "Feature", "properties": {"Name":"Trinidad city","State":"Colorado","State_Abbrev":"CO"},
"geometry":{ "type": "Point", "coordinates": [-104.490326,37.173157]}},
{ "type": "Feature", "properties": {"Name":"Twin Lakes CDP","State":"Colorado","State_Abbrev":"CO"},
"geometry":{ "type": "Point", "coordinates": [-105.003969,39.822719]}},
{ "type": "Feature", "properties": {"Name":"Twin Lakes CDP","State":"Colorado","State_Abbrev":"CO"},
"geometry":{ "type": "Point", "coordinates": [-106.318985,39.103709]}},
{ "type": "Feature", "properties": {"Name":"Two Buttes town","State":"Colorado","State_Abbrev":"CO"},
"geometry":{ "type": "Point", "coordinates": [-102.396556,37.560664]}},
{ "type": "Feature", "properties": {"Name":"Upper Bear Creek CDP","State":"Colorado","State_Abbrev":"CO"},
"geometry":{ "type": "Point", "coordinates": [-105.409691,39.62688]}},
{ "type": "Feature", "properties": {"Name":"Upper Witter Gulch CDP","State":"Colorado","State_Abbrev":"CO"},
"geometry":{ "type": "Point", "coordinates": [-105.426833,39.661066]}},
{ "type": "Feature", "properties": {"Name":"Vail town","State":"Colorado","State_Abbrev":"CO"},
"geometry":{ "type": "Point", "coordinates": [-106.362463,39.63778]}},
{ "type": "Feature", "properties": {"Name":"Valdez CDP","State":"Colorado","State_Abbrev":"CO"},
"geometry":{ "type": "Point", "coordinates": [-104.672861,37.125794]}},
{ "type": "Feature", "properties": {"Name":"Valmont CDP","State":"Colorado","State_Abbrev":"CO"},
"geometry":{ "type": "Point", "coordinates": [-105.207822,40.033646]}},
{ "type": "Feature", "properties": {"Name":"Vernon CDP","State":"Colorado","State_Abbrev":"CO"},
"geometry":{ "type": "Point", "coordinates": [-102.306922,39.939552]}},
{ "type": "Feature", "properties": {"Name":"Victor city","State":"Colorado","State_Abbrev":"CO"},
"geometry":{ "type": "Point", "coordinates": [-105.141887,38.708738]}},
{ "type": "Feature", "properties": {"Name":"Vilas town","State":"Colorado","State_Abbrev":"CO"},
"geometry":{ "type": "Point", "coordinates": [-102.447416,37.373664]}},
{ "type": "Feature", "properties": {"Name":"Vineland CDP","State":"Colorado","State_Abbrev":"CO"},
"geometry":{ "type": "Point", "coordinates": [-104.459866,38.244738]}},
{ "type": "Feature", "properties": {"Name":"Vona town","State":"Colorado","State_Abbrev":"CO"},
"geometry":{ "type": "Point", "coordinates": [-102.743352,39.302119]}},
{ "type": "Feature", "properties": {"Name":"Walden town","State":"Colorado","State_Abbrev":"CO"},
"geometry":{ "type": "Point", "coordinates": [-106.281336,40.731584]}},
{ "type": "Feature", "properties": {"Name":"Walsenburg city","State":"Colorado","State_Abbrev":"CO"},
"geometry":{ "type": "Point", "coordinates": [-104.781719,37.630598]}},
{ "type": "Feature", "properties": {"Name":"Walsh town","State":"Colorado","State_Abbrev":"CO"},
"geometry":{ "type": "Point", "coordinates": [-102.279933,37.386107]}},
{ "type": "Feature", "properties": {"Name":"Ward town","State":"Colorado","State_Abbrev":"CO"},
"geometry":{ "type": "Point", "coordinates": [-105.514775,40.07304]}},
{ "type": "Feature", "properties": {"Name":"Watkins CDP","State":"Colorado","State_Abbrev":"CO"},
"geometry":{ "type": "Point", "coordinates": [-104.577223,39.698399]}},
{ "type": "Feature", "properties": {"Name":"Welby CDP","State":"Colorado","State_Abbrev":"CO"},
"geometry":{ "type": "Point", "coordinates": [-104.965502,39.84022]}},
{ "type": "Feature", "properties": {"Name":"Weldona CDP","State":"Colorado","State_Abbrev":"CO"},
"geometry":{ "type": "Point", "coordinates": [-103.969365,40.348408]}},
{ "type": "Feature", "properties": {"Name":"Wellington town","State":"Colorado","State_Abbrev":"CO"},
"geometry":{ "type": "Point", "coordinates": [-105.005873,40.699363]}},
{ "type": "Feature", "properties": {"Name":"Westcliffe town","State":"Colorado","State_Abbrev":"CO"},
"geometry":{ "type": "Point", "coordinates": [-105.465306,38.134203]}},
{ "type": "Feature", "properties": {"Name":"Westcreek CDP","State":"Colorado","State_Abbrev":"CO"},
"geometry":{ "type": "Point", "coordinates": [-105.162303,39.148934]}},
{ "type": "Feature", "properties": {"Name":"Westminster city","State":"Colorado","State_Abbrev":"CO"},
"geometry":{ "type": "Point", "coordinates": [-105.061513,39.880122]}},
{ "type": "Feature", "properties": {"Name":"Weston CDP","State":"Colorado","State_Abbrev":"CO"},
"geometry":{ "type": "Point", "coordinates": [-104.868283,37.145923]}},
{ "type": "Feature", "properties": {"Name":"West Pleasant View CDP","State":"Colorado","State_Abbrev":"CO"},
"geometry":{ "type": "Point", "coordinates": [-105.178431,39.73188]}},
{ "type": "Feature", "properties": {"Name":"Wheat Ridge city","State":"Colorado","State_Abbrev":"CO"},
"geometry":{ "type": "Point", "coordinates": [-105.104801,39.772675]}},
{ "type": "Feature", "properties": {"Name":"Wiggins town","State":"Colorado","State_Abbrev":"CO"},
"geometry":{ "type": "Point", "coordinates": [-104.072134,40.228425]}},
{ "type": "Feature", "properties": {"Name":"Wiley town","State":"Colorado","State_Abbrev":"CO"},
"geometry":{ "type": "Point", "coordinates": [-102.719183,38.155324]}},
{ "type": "Feature", "properties": {"Name":"Williamsburg town","State":"Colorado","State_Abbrev":"CO"},
"geometry":{ "type": "Point", "coordinates": [-105.170993,38.383984]}},
{ "type": "Feature", "properties": {"Name":"Windsor town","State":"Colorado","State_Abbrev":"CO"},
"geometry":{ "type": "Point", "coordinates": [-104.915053,40.478273]}},
{ "type": "Feature", "properties": {"Name":"Winter Park town","State":"Colorado","State_Abbrev":"CO"},
"geometry":{ "type": "Point", "coordinates": [-105.782843,39.878472]}},
{ "type": "Feature", "properties": {"Name":"Wolcott CDP","State":"Colorado","State_Abbrev":"CO"},
"geometry":{ "type": "Point", "coordinates": [-106.679301,39.703571]}},
{ "type": "Feature", "properties": {"Name":"Woodland Park city","State":"Colorado","State_Abbrev":"CO"},
"geometry":{ "type": "Point", "coordinates": [-105.059019,38.998212]}},
{ "type": "Feature", "properties": {"Name":"Woodmoor CDP","State":"Colorado","State_Abbrev":"CO"},
"geometry":{ "type": "Point", "coordinates": [-104.843604,39.104823]}},
{ "type": "Feature", "properties": {"Name":"Woody Creek CDP","State":"Colorado","State_Abbrev":"CO"},
"geometry":{ "type": "Point", "coordinates": [-106.888331,39.270873]}},
{ "type": "Feature", "properties": {"Name":"Wray city","State":"Colorado","State_Abbrev":"CO"},
"geometry":{ "type": "Point", "coordinates": [-102.228622,40.079953]}},
{ "type": "Feature", "properties": {"Name":"Yampa town","State":"Colorado","State_Abbrev":"CO"},
"geometry":{ "type": "Point", "coordinates": [-106.908527,40.153005]}},
{ "type": "Feature", "properties": {"Name":"Yuma city","State":"Colorado","State_Abbrev":"CO"},
"geometry":{ "type": "Point", "coordinates": [-102.715636,40.122511]}}]}
