{"type":"FeatureCollection","features":[
{ "type": "Feature", "properties": {"Name":"Ansonia city","State":"Connecticut","State_Abbrev":"CT"},
"geometry":{ "type": "Point", "coordinates": [-73.069825,41.344249]}},
{ "type": "Feature", "properties": {"Name":"Ball Pond CDP","State":"Connecticut","State_Abbrev":"CT"},
"geometry":{ "type": "Point", "coordinates": [-73.526846,41.461651]}},
{ "type": "Feature", "properties": {"Name":"Baltic CDP","State":"Connecticut","State_Abbrev":"CT"},
"geometry":{ "type": "Point", "coordinates": [-72.081896,41.609703]}},
{ "type": "Feature", "properties": {"Name":"Bantam borough","State":"Connecticut","State_Abbrev":"CT"},
"geometry":{ "type": "Point", "coordinates": [-73.242263,41.724745]}},
{ "type": "Feature", "properties": {"Name":"Bethel CDP","State":"Connecticut","State_Abbrev":"CT"},
"geometry":{ "type": "Point", "coordinates": [-73.413942,41.360293]}},
{ "type": "Feature", "properties": {"Name":"Bethlehem Village CDP","State":"Connecticut","State_Abbrev":"CT"},
"geometry":{ "type": "Point", "coordinates": [-73.202792,41.643961]}},
{ "type": "Feature", "properties": {"Name":"Bigelow Corners CDP","State":"Connecticut","State_Abbrev":"CT"},
"geometry":{ "type": "Point", "coordinates": [-73.508198,41.465011]}},
{ "type": "Feature", "properties": {"Name":"Blue Hills CDP","State":"Connecticut","State_Abbrev":"CT"},
"geometry":{ "type": "Point", "coordinates": [-72.695442,41.813372]}},
{ "type": "Feature", "properties": {"Name":"Bogus Hill CDP","State":"Connecticut","State_Abbrev":"CT"},
"geometry":{ "type": "Point", "coordinates": [-73.46306,41.508149]}},
{ "type": "Feature", "properties": {"Name":"Botsford CDP","State":"Connecticut","State_Abbrev":"CT"},
"geometry":{ "type": "Point", "coordinates": [-73.267159,41.358776]}},
{ "type": "Feature", "properties": {"Name":"Branchville CDP","State":"Connecticut","State_Abbrev":"CT"},
"geometry":{ "type": "Point", "coordinates": [-73.443369,41.26784]}},
{ "type": "Feature", "properties": {"Name":"Branford Center CDP","State":"Connecticut","State_Abbrev":"CT"},
"geometry":{ "type": "Point", "coordinates": [-72.816095,41.277654]}},
{ "type": "Feature", "properties": {"Name":"Bridgeport city","State":"Connecticut","State_Abbrev":"CT"},
"geometry":{ "type": "Point", "coordinates": [-73.195757,41.187393]}},
{ "type": "Feature", "properties": {"Name":"Bridgewater CDP","State":"Connecticut","State_Abbrev":"CT"},
"geometry":{ "type": "Point", "coordinates": [-73.364582,41.534781]}},
{ "type": "Feature", "properties": {"Name":"Bristol city","State":"Connecticut","State_Abbrev":"CT"},
"geometry":{ "type": "Point", "coordinates": [-72.940749,41.681578]}},
{ "type": "Feature", "properties": {"Name":"Broad Brook CDP","State":"Connecticut","State_Abbrev":"CT"},
"geometry":{ "type": "Point", "coordinates": [-72.541127,41.911153]}},
{ "type": "Feature", "properties": {"Name":"Brookfield Center CDP","State":"Connecticut","State_Abbrev":"CT"},
"geometry":{ "type": "Point", "coordinates": [-73.387528,41.462362]}},
{ "type": "Feature", "properties": {"Name":"Brooklyn CDP","State":"Connecticut","State_Abbrev":"CT"},
"geometry":{ "type": "Point", "coordinates": [-71.954775,41.789746]}},
{ "type": "Feature", "properties": {"Name":"Byram CDP","State":"Connecticut","State_Abbrev":"CT"},
"geometry":{ "type": "Point", "coordinates": [-73.65412,41.001096]}},
{ "type": "Feature", "properties": {"Name":"Canaan CDP","State":"Connecticut","State_Abbrev":"CT"},
"geometry":{ "type": "Point", "coordinates": [-73.332883,42.04011]}},
{ "type": "Feature", "properties": {"Name":"Candlewood Isle CDP","State":"Connecticut","State_Abbrev":"CT"},
"geometry":{ "type": "Point", "coordinates": [-73.453284,41.488531]}},
{ "type": "Feature", "properties": {"Name":"Candlewood Knolls CDP","State":"Connecticut","State_Abbrev":"CT"},
"geometry":{ "type": "Point", "coordinates": [-73.463613,41.479055]}},
{ "type": "Feature", "properties": {"Name":"Candlewood Lake Club CDP","State":"Connecticut","State_Abbrev":"CT"},
"geometry":{ "type": "Point", "coordinates": [-73.436793,41.493143]}},
{ "type": "Feature", "properties": {"Name":"Candlewood Orchards CDP","State":"Connecticut","State_Abbrev":"CT"},
"geometry":{ "type": "Point", "coordinates": [-73.4373,41.471615]}},
{ "type": "Feature", "properties": {"Name":"Candlewood Shores CDP","State":"Connecticut","State_Abbrev":"CT"},
"geometry":{ "type": "Point", "coordinates": [-73.438045,41.480054]}},
{ "type": "Feature", "properties": {"Name":"Cannondale CDP","State":"Connecticut","State_Abbrev":"CT"},
"geometry":{ "type": "Point", "coordinates": [-73.425264,41.216158]}},
{ "type": "Feature", "properties": {"Name":"Canton Valley CDP","State":"Connecticut","State_Abbrev":"CT"},
"geometry":{ "type": "Point", "coordinates": [-72.897743,41.831557]}},
{ "type": "Feature", "properties": {"Name":"Cheshire Village CDP","State":"Connecticut","State_Abbrev":"CT"},
"geometry":{ "type": "Point", "coordinates": [-72.89687,41.50409]}},
{ "type": "Feature", "properties": {"Name":"Chester Center CDP","State":"Connecticut","State_Abbrev":"CT"},
"geometry":{ "type": "Point", "coordinates": [-72.456949,41.403012]}},
{ "type": "Feature", "properties": {"Name":"Chimney Point CDP","State":"Connecticut","State_Abbrev":"CT"},
"geometry":{ "type": "Point", "coordinates": [-73.441426,41.501502]}},
{ "type": "Feature", "properties": {"Name":"Clinton CDP","State":"Connecticut","State_Abbrev":"CT"},
"geometry":{ "type": "Point", "coordinates": [-72.529,41.276405]}},
{ "type": "Feature", "properties": {"Name":"Colchester CDP","State":"Connecticut","State_Abbrev":"CT"},
"geometry":{ "type": "Point", "coordinates": [-72.332742,41.577592]}},
{ "type": "Feature", "properties": {"Name":"Coleytown CDP","State":"Connecticut","State_Abbrev":"CT"},
"geometry":{ "type": "Point", "coordinates": [-73.343358,41.176904]}},
{ "type": "Feature", "properties": {"Name":"Collinsville CDP","State":"Connecticut","State_Abbrev":"CT"},
"geometry":{ "type": "Point", "coordinates": [-72.924487,41.822245]}},
{ "type": "Feature", "properties": {"Name":"Compo CDP","State":"Connecticut","State_Abbrev":"CT"},
"geometry":{ "type": "Point", "coordinates": [-73.351528,41.122758]}},
{ "type": "Feature", "properties": {"Name":"Conning Towers-Nautilus Park CDP","State":"Connecticut","State_Abbrev":"CT"},
"geometry":{ "type": "Point", "coordinates": [-72.063784,41.389239]}},
{ "type": "Feature", "properties": {"Name":"Cornwall CDP","State":"Connecticut","State_Abbrev":"CT"},
"geometry":{ "type": "Point", "coordinates": [-73.332672,41.844322]}},
{ "type": "Feature", "properties": {"Name":"Cornwall Bridge CDP","State":"Connecticut","State_Abbrev":"CT"},
"geometry":{ "type": "Point", "coordinates": [-73.384388,41.80618]}},
{ "type": "Feature", "properties": {"Name":"Cos Cob CDP","State":"Connecticut","State_Abbrev":"CT"},
"geometry":{ "type": "Point", "coordinates": [-73.591901,41.048595]}},
{ "type": "Feature", "properties": {"Name":"Coventry Lake CDP","State":"Connecticut","State_Abbrev":"CT"},
"geometry":{ "type": "Point", "coordinates": [-72.334021,41.779173]}},
{ "type": "Feature", "properties": {"Name":"Crystal Lake CDP","State":"Connecticut","State_Abbrev":"CT"},
"geometry":{ "type": "Point", "coordinates": [-72.381292,41.933049]}},
{ "type": "Feature", "properties": {"Name":"Danbury city","State":"Connecticut","State_Abbrev":"CT"},
"geometry":{ "type": "Point", "coordinates": [-73.478103,41.398741]}},
{ "type": "Feature", "properties": {"Name":"Daniels Farm CDP","State":"Connecticut","State_Abbrev":"CT"},
"geometry":{ "type": "Point", "coordinates": [-73.212263,41.276903]}},
{ "type": "Feature", "properties": {"Name":"Danielson borough","State":"Connecticut","State_Abbrev":"CT"},
"geometry":{ "type": "Point", "coordinates": [-71.884698,41.806591]}},
{ "type": "Feature", "properties": {"Name":"Darien Downtown CDP","State":"Connecticut","State_Abbrev":"CT"},
"geometry":{ "type": "Point", "coordinates": [-73.469669,41.076738]}},
{ "type": "Feature", "properties": {"Name":"Dayville CDP","State":"Connecticut","State_Abbrev":"CT"},
"geometry":{ "type": "Point", "coordinates": [-71.882391,41.844223]}},
{ "type": "Feature", "properties": {"Name":"Deep River Center CDP","State":"Connecticut","State_Abbrev":"CT"},
"geometry":{ "type": "Point", "coordinates": [-72.440493,41.37886]}},
{ "type": "Feature", "properties": {"Name":"Derby city","State":"Connecticut","State_Abbrev":"CT"},
"geometry":{ "type": "Point", "coordinates": [-73.082574,41.326124]}},
{ "type": "Feature", "properties": {"Name":"Dodgingtown CDP","State":"Connecticut","State_Abbrev":"CT"},
"geometry":{ "type": "Point", "coordinates": [-73.352369,41.379765]}},
{ "type": "Feature", "properties": {"Name":"Durham CDP","State":"Connecticut","State_Abbrev":"CT"},
"geometry":{ "type": "Point", "coordinates": [-72.684525,41.468922]}},
{ "type": "Feature", "properties": {"Name":"East Brooklyn CDP","State":"Connecticut","State_Abbrev":"CT"},
"geometry":{ "type": "Point", "coordinates": [-71.906384,41.792088]}},
{ "type": "Feature", "properties": {"Name":"East Hampton CDP","State":"Connecticut","State_Abbrev":"CT"},
"geometry":{ "type": "Point", "coordinates": [-72.484941,41.573833]}},
{ "type": "Feature", "properties": {"Name":"East Hartford CDP","State":"Connecticut","State_Abbrev":"CT"},
"geometry":{ "type": "Point", "coordinates": [-72.607646,41.760695]}},
{ "type": "Feature", "properties": {"Name":"East Haven CDP","State":"Connecticut","State_Abbrev":"CT"},
"geometry":{ "type": "Point", "coordinates": [-72.858994,41.293453]}},
{ "type": "Feature", "properties": {"Name":"East Village CDP","State":"Connecticut","State_Abbrev":"CT"},
"geometry":{ "type": "Point", "coordinates": [-73.186534,41.36044]}},
{ "type": "Feature", "properties": {"Name":"Essex Village CDP","State":"Connecticut","State_Abbrev":"CT"},
"geometry":{ "type": "Point", "coordinates": [-72.393538,41.356648]}},
{ "type": "Feature", "properties": {"Name":"Fairfield University CDP","State":"Connecticut","State_Abbrev":"CT"},
"geometry":{ "type": "Point", "coordinates": [-73.257057,41.158953]}},
{ "type": "Feature", "properties": {"Name":"Falls Village CDP","State":"Connecticut","State_Abbrev":"CT"},
"geometry":{ "type": "Point", "coordinates": [-73.356208,41.957627]}},
{ "type": "Feature", "properties": {"Name":"Fenwick borough","State":"Connecticut","State_Abbrev":"CT"},
"geometry":{ "type": "Point", "coordinates": [-72.354585,41.27107]}},
{ "type": "Feature", "properties": {"Name":"Gales Ferry CDP","State":"Connecticut","State_Abbrev":"CT"},
"geometry":{ "type": "Point", "coordinates": [-72.084501,41.421722]}},
{ "type": "Feature", "properties": {"Name":"Gaylordsville CDP","State":"Connecticut","State_Abbrev":"CT"},
"geometry":{ "type": "Point", "coordinates": [-73.48096,41.641723]}},
{ "type": "Feature", "properties": {"Name":"Georgetown CDP","State":"Connecticut","State_Abbrev":"CT"},
"geometry":{ "type": "Point", "coordinates": [-73.435673,41.241985]}},
{ "type": "Feature", "properties": {"Name":"Glastonbury Center CDP","State":"Connecticut","State_Abbrev":"CT"},
"geometry":{ "type": "Point", "coordinates": [-72.599416,41.700672]}},
{ "type": "Feature", "properties": {"Name":"Glenville CDP","State":"Connecticut","State_Abbrev":"CT"},
"geometry":{ "type": "Point", "coordinates": [-73.664156,41.035221]}},
{ "type": "Feature", "properties": {"Name":"Greens Farms CDP","State":"Connecticut","State_Abbrev":"CT"},
"geometry":{ "type": "Point", "coordinates": [-73.322685,41.124096]}},
{ "type": "Feature", "properties": {"Name":"Greenwich CDP","State":"Connecticut","State_Abbrev":"CT"},
"geometry":{ "type": "Point", "coordinates": [-73.626931,41.027773]}},
{ "type": "Feature", "properties": {"Name":"Groton city","State":"Connecticut","State_Abbrev":"CT"},
"geometry":{ "type": "Point", "coordinates": [-72.066862,41.325054]}},
{ "type": "Feature", "properties": {"Name":"Groton Long Point borough","State":"Connecticut","State_Abbrev":"CT"},
"geometry":{ "type": "Point", "coordinates": [-72.010155,41.314186]}},
{ "type": "Feature", "properties": {"Name":"Guilford Center CDP","State":"Connecticut","State_Abbrev":"CT"},
"geometry":{ "type": "Point", "coordinates": [-72.676216,41.280512]}},
{ "type": "Feature", "properties": {"Name":"Hartford city","State":"Connecticut","State_Abbrev":"CT"},
"geometry":{ "type": "Point", "coordinates": [-72.681579,41.765933]}},
{ "type": "Feature", "properties": {"Name":"Hawleyville CDP","State":"Connecticut","State_Abbrev":"CT"},
"geometry":{ "type": "Point", "coordinates": [-73.350443,41.428912]}},
{ "type": "Feature", "properties": {"Name":"Hazardville CDP","State":"Connecticut","State_Abbrev":"CT"},
"geometry":{ "type": "Point", "coordinates": [-72.532044,41.990889]}},
{ "type": "Feature", "properties": {"Name":"Heritage Village CDP","State":"Connecticut","State_Abbrev":"CT"},
"geometry":{ "type": "Point", "coordinates": [-73.233294,41.485917]}},
{ "type": "Feature", "properties": {"Name":"Higganum CDP","State":"Connecticut","State_Abbrev":"CT"},
"geometry":{ "type": "Point", "coordinates": [-72.557768,41.490703]}},
{ "type": "Feature", "properties": {"Name":"Indian Field CDP","State":"Connecticut","State_Abbrev":"CT"},
"geometry":{ "type": "Point", "coordinates": [-73.608029,41.019841]}},
{ "type": "Feature", "properties": {"Name":"Inglenook CDP","State":"Connecticut","State_Abbrev":"CT"},
"geometry":{ "type": "Point", "coordinates": [-73.473539,41.523066]}},
{ "type": "Feature", "properties": {"Name":"Jewett City borough","State":"Connecticut","State_Abbrev":"CT"},
"geometry":{ "type": "Point", "coordinates": [-71.979791,41.607202]}},
{ "type": "Feature", "properties": {"Name":"Kellogg Point CDP","State":"Connecticut","State_Abbrev":"CT"},
"geometry":{ "type": "Point", "coordinates": [-73.459889,41.46819]}},
{ "type": "Feature", "properties": {"Name":"Kensington CDP","State":"Connecticut","State_Abbrev":"CT"},
"geometry":{ "type": "Point", "coordinates": [-72.768722,41.625618]}},
{ "type": "Feature", "properties": {"Name":"Knollcrest CDP","State":"Connecticut","State_Abbrev":"CT"},
"geometry":{ "type": "Point", "coordinates": [-73.466875,41.501191]}},
{ "type": "Feature", "properties": {"Name":"Lake Bungee CDP","State":"Connecticut","State_Abbrev":"CT"},
"geometry":{ "type": "Point", "coordinates": [-72.06903,41.956526]}},
{ "type": "Feature", "properties": {"Name":"Lake Chaffee CDP","State":"Connecticut","State_Abbrev":"CT"},
"geometry":{ "type": "Point", "coordinates": [-72.196959,41.937955]}},
{ "type": "Feature", "properties": {"Name":"Lake Pocotopaug CDP","State":"Connecticut","State_Abbrev":"CT"},
"geometry":{ "type": "Point", "coordinates": [-72.501768,41.601999]}},
{ "type": "Feature", "properties": {"Name":"Lakes East CDP","State":"Connecticut","State_Abbrev":"CT"},
"geometry":{ "type": "Point", "coordinates": [-73.492539,41.330675]}},
{ "type": "Feature", "properties": {"Name":"Lakeside Woods CDP","State":"Connecticut","State_Abbrev":"CT"},
"geometry":{ "type": "Point", "coordinates": [-73.484017,41.554808]}},
{ "type": "Feature", "properties": {"Name":"Lakes West CDP","State":"Connecticut","State_Abbrev":"CT"},
"geometry":{ "type": "Point", "coordinates": [-73.511943,41.336323]}},
{ "type": "Feature", "properties": {"Name":"Lakeville CDP","State":"Connecticut","State_Abbrev":"CT"},
"geometry":{ "type": "Point", "coordinates": [-73.443297,41.962149]}},
{ "type": "Feature", "properties": {"Name":"Litchfield borough","State":"Connecticut","State_Abbrev":"CT"},
"geometry":{ "type": "Point", "coordinates": [-73.189238,41.745704]}},
{ "type": "Feature", "properties": {"Name":"Long Hill CDP","State":"Connecticut","State_Abbrev":"CT"},
"geometry":{ "type": "Point", "coordinates": [-73.228362,41.266595]}},
{ "type": "Feature", "properties": {"Name":"Long Hill CDP","State":"Connecticut","State_Abbrev":"CT"},
"geometry":{ "type": "Point", "coordinates": [-72.050529,41.349614]}},
{ "type": "Feature", "properties": {"Name":"Lordship CDP","State":"Connecticut","State_Abbrev":"CT"},
"geometry":{ "type": "Point", "coordinates": [-73.114229,41.153023]}},
{ "type": "Feature", "properties": {"Name":"Madison Center CDP","State":"Connecticut","State_Abbrev":"CT"},
"geometry":{ "type": "Point", "coordinates": [-72.602272,41.280223]}},
{ "type": "Feature", "properties": {"Name":"Mamanasco Lake CDP","State":"Connecticut","State_Abbrev":"CT"},
"geometry":{ "type": "Point", "coordinates": [-73.529803,41.318172]}},
{ "type": "Feature", "properties": {"Name":"Manchester CDP","State":"Connecticut","State_Abbrev":"CT"},
"geometry":{ "type": "Point", "coordinates": [-72.520157,41.77963]}},
{ "type": "Feature", "properties": {"Name":"Mansfield Center CDP","State":"Connecticut","State_Abbrev":"CT"},
"geometry":{ "type": "Point", "coordinates": [-72.186811,41.767096]}},
{ "type": "Feature", "properties": {"Name":"Mashantucket CDP","State":"Connecticut","State_Abbrev":"CT"},
"geometry":{ "type": "Point", "coordinates": [-71.974754,41.464469]}},
{ "type": "Feature", "properties": {"Name":"Mechanicsville CDP","State":"Connecticut","State_Abbrev":"CT"},
"geometry":{ "type": "Point", "coordinates": [-71.885443,41.950635]}},
{ "type": "Feature", "properties": {"Name":"Meriden city","State":"Connecticut","State_Abbrev":"CT"},
"geometry":{ "type": "Point", "coordinates": [-72.794543,41.536777]}},
{ "type": "Feature", "properties": {"Name":"Middletown city","State":"Connecticut","State_Abbrev":"CT"},
"geometry":{ "type": "Point", "coordinates": [-72.656784,41.548611]}},
{ "type": "Feature", "properties": {"Name":"Milford city (balance)","State":"Connecticut","State_Abbrev":"CT"},
"geometry":{ "type": "Point", "coordinates": [-73.064556,41.223644]}},
{ "type": "Feature", "properties": {"Name":"Mill Plain CDP","State":"Connecticut","State_Abbrev":"CT"},
"geometry":{ "type": "Point", "coordinates": [-73.268284,41.154692]}},
{ "type": "Feature", "properties": {"Name":"Moodus CDP","State":"Connecticut","State_Abbrev":"CT"},
"geometry":{ "type": "Point", "coordinates": [-72.435536,41.501892]}},
{ "type": "Feature", "properties": {"Name":"Moosup CDP","State":"Connecticut","State_Abbrev":"CT"},
"geometry":{ "type": "Point", "coordinates": [-71.875223,41.716992]}},
{ "type": "Feature", "properties": {"Name":"Murray CDP","State":"Connecticut","State_Abbrev":"CT"},
"geometry":{ "type": "Point", "coordinates": [-73.289525,41.197407]}},
{ "type": "Feature", "properties": {"Name":"Mystic CDP","State":"Connecticut","State_Abbrev":"CT"},
"geometry":{ "type": "Point", "coordinates": [-71.955882,41.355976]}},
{ "type": "Feature", "properties": {"Name":"Naugatuck borough","State":"Connecticut","State_Abbrev":"CT"},
"geometry":{ "type": "Point", "coordinates": [-73.051551,41.487785]}},
{ "type": "Feature", "properties": {"Name":"New Britain city","State":"Connecticut","State_Abbrev":"CT"},
"geometry":{ "type": "Point", "coordinates": [-72.786161,41.676555]}},
{ "type": "Feature", "properties": {"Name":"New Canaan CDP","State":"Connecticut","State_Abbrev":"CT"},
"geometry":{ "type": "Point", "coordinates": [-73.490141,41.141703]}},
{ "type": "Feature", "properties": {"Name":"New Hartford Center CDP","State":"Connecticut","State_Abbrev":"CT"},
"geometry":{ "type": "Point", "coordinates": [-72.972828,41.88089]}},
{ "type": "Feature", "properties": {"Name":"New Haven city","State":"Connecticut","State_Abbrev":"CT"},
"geometry":{ "type": "Point", "coordinates": [-72.924953,41.310809]}},
{ "type": "Feature", "properties": {"Name":"Newington CDP","State":"Connecticut","State_Abbrev":"CT"},
"geometry":{ "type": "Point", "coordinates": [-72.730839,41.686993]}},
{ "type": "Feature", "properties": {"Name":"New London city","State":"Connecticut","State_Abbrev":"CT"},
"geometry":{ "type": "Point", "coordinates": [-72.096176,41.332957]}},
{ "type": "Feature", "properties": {"Name":"New Milford CDP","State":"Connecticut","State_Abbrev":"CT"},
"geometry":{ "type": "Point", "coordinates": [-73.403934,41.580295]}},
{ "type": "Feature", "properties": {"Name":"New Preston CDP","State":"Connecticut","State_Abbrev":"CT"},
"geometry":{ "type": "Point", "coordinates": [-73.334403,41.691307]}},
{ "type": "Feature", "properties": {"Name":"Newtown borough","State":"Connecticut","State_Abbrev":"CT"},
"geometry":{ "type": "Point", "coordinates": [-73.31195,41.411897]}},
{ "type": "Feature", "properties": {"Name":"Niantic CDP","State":"Connecticut","State_Abbrev":"CT"},
"geometry":{ "type": "Point", "coordinates": [-72.199878,41.316749]}},
{ "type": "Feature", "properties": {"Name":"Noank CDP","State":"Connecticut","State_Abbrev":"CT"},
"geometry":{ "type": "Point", "coordinates": [-71.997557,41.337502]}},
{ "type": "Feature", "properties": {"Name":"Norfolk CDP","State":"Connecticut","State_Abbrev":"CT"},
"geometry":{ "type": "Point", "coordinates": [-73.194041,41.991706]}},
{ "type": "Feature", "properties": {"Name":"Noroton CDP","State":"Connecticut","State_Abbrev":"CT"},
"geometry":{ "type": "Point", "coordinates": [-73.490526,41.058356]}},
{ "type": "Feature", "properties": {"Name":"Noroton Heights CDP","State":"Connecticut","State_Abbrev":"CT"},
"geometry":{ "type": "Point", "coordinates": [-73.497222,41.074091]}},
{ "type": "Feature", "properties": {"Name":"Northford CDP","State":"Connecticut","State_Abbrev":"CT"},
"geometry":{ "type": "Point", "coordinates": [-72.783181,41.395805]}},
{ "type": "Feature", "properties": {"Name":"North Granby CDP","State":"Connecticut","State_Abbrev":"CT"},
"geometry":{ "type": "Point", "coordinates": [-72.843177,42.015989]}},
{ "type": "Feature", "properties": {"Name":"North Grosvenor Dale CDP","State":"Connecticut","State_Abbrev":"CT"},
"geometry":{ "type": "Point", "coordinates": [-71.903336,41.986235]}},
{ "type": "Feature", "properties": {"Name":"North Haven CDP","State":"Connecticut","State_Abbrev":"CT"},
"geometry":{ "type": "Point", "coordinates": [-72.856371,41.381465]}},
{ "type": "Feature", "properties": {"Name":"Northwest Harwinton CDP","State":"Connecticut","State_Abbrev":"CT"},
"geometry":{ "type": "Point", "coordinates": [-73.079487,41.776446]}},
{ "type": "Feature", "properties": {"Name":"Norwalk city","State":"Connecticut","State_Abbrev":"CT"},
"geometry":{ "type": "Point", "coordinates": [-73.419796,41.092739]}},
{ "type": "Feature", "properties": {"Name":"Norwich city","State":"Connecticut","State_Abbrev":"CT"},
"geometry":{ "type": "Point", "coordinates": [-72.089454,41.548006]}},
{ "type": "Feature", "properties": {"Name":"Oakville CDP","State":"Connecticut","State_Abbrev":"CT"},
"geometry":{ "type": "Point", "coordinates": [-73.090475,41.588972]}},
{ "type": "Feature", "properties": {"Name":"Old Greenwich CDP","State":"Connecticut","State_Abbrev":"CT"},
"geometry":{ "type": "Point", "coordinates": [-73.567675,41.020119]}},
{ "type": "Feature", "properties": {"Name":"Old Hill CDP","State":"Connecticut","State_Abbrev":"CT"},
"geometry":{ "type": "Point", "coordinates": [-73.379383,41.149939]}},
{ "type": "Feature", "properties": {"Name":"Old Mystic CDP","State":"Connecticut","State_Abbrev":"CT"},
"geometry":{ "type": "Point", "coordinates": [-71.986246,41.383632]}},
{ "type": "Feature", "properties": {"Name":"Old Saybrook Center CDP","State":"Connecticut","State_Abbrev":"CT"},
"geometry":{ "type": "Point", "coordinates": [-72.358179,41.286632]}},
{ "type": "Feature", "properties": {"Name":"Orange CDP","State":"Connecticut","State_Abbrev":"CT"},
"geometry":{ "type": "Point", "coordinates": [-73.024637,41.284951]}},
{ "type": "Feature", "properties": {"Name":"Oronoque CDP","State":"Connecticut","State_Abbrev":"CT"},
"geometry":{ "type": "Point", "coordinates": [-73.110639,41.259164]}},
{ "type": "Feature", "properties": {"Name":"Oxoboxo River CDP","State":"Connecticut","State_Abbrev":"CT"},
"geometry":{ "type": "Point", "coordinates": [-72.126864,41.444859]}},
{ "type": "Feature", "properties": {"Name":"Pawcatuck CDP","State":"Connecticut","State_Abbrev":"CT"},
"geometry":{ "type": "Point", "coordinates": [-71.856422,41.37389]}},
{ "type": "Feature", "properties": {"Name":"Pemberwick CDP","State":"Connecticut","State_Abbrev":"CT"},
"geometry":{ "type": "Point", "coordinates": [-73.656203,41.018188]}},
{ "type": "Feature", "properties": {"Name":"Plainfield Village CDP","State":"Connecticut","State_Abbrev":"CT"},
"geometry":{ "type": "Point", "coordinates": [-71.924707,41.675183]}},
{ "type": "Feature", "properties": {"Name":"Plantsville CDP","State":"Connecticut","State_Abbrev":"CT"},
"geometry":{ "type": "Point", "coordinates": [-72.891852,41.583155]}},
{ "type": "Feature", "properties": {"Name":"Plattsville CDP","State":"Connecticut","State_Abbrev":"CT"},
"geometry":{ "type": "Point", "coordinates": [-73.259096,41.225936]}},
{ "type": "Feature", "properties": {"Name":"Pleasant Valley CDP","State":"Connecticut","State_Abbrev":"CT"},
"geometry":{ "type": "Point", "coordinates": [-72.992311,41.908327]}},
{ "type": "Feature", "properties": {"Name":"Poplar Plains CDP","State":"Connecticut","State_Abbrev":"CT"},
"geometry":{ "type": "Point", "coordinates": [-73.378238,41.168872]}},
{ "type": "Feature", "properties": {"Name":"Poquonock Bridge CDP","State":"Connecticut","State_Abbrev":"CT"},
"geometry":{ "type": "Point", "coordinates": [-72.012268,41.336426]}},
{ "type": "Feature", "properties": {"Name":"Portland CDP","State":"Connecticut","State_Abbrev":"CT"},
"geometry":{ "type": "Point", "coordinates": [-72.619788,41.577463]}},
{ "type": "Feature", "properties": {"Name":"Putnam CDP","State":"Connecticut","State_Abbrev":"CT"},
"geometry":{ "type": "Point", "coordinates": [-71.910703,41.916752]}},
{ "type": "Feature", "properties": {"Name":"Quasset Lake CDP","State":"Connecticut","State_Abbrev":"CT"},
"geometry":{ "type": "Point", "coordinates": [-71.981379,41.922298]}},
{ "type": "Feature", "properties": {"Name":"Quinebaug CDP","State":"Connecticut","State_Abbrev":"CT"},
"geometry":{ "type": "Point", "coordinates": [-71.926066,42.011476]}},
{ "type": "Feature", "properties": {"Name":"Quinnipiac University CDP","State":"Connecticut","State_Abbrev":"CT"},
"geometry":{ "type": "Point", "coordinates": [-72.893614,41.420102]}},
{ "type": "Feature", "properties": {"Name":"Redding Center CDP","State":"Connecticut","State_Abbrev":"CT"},
"geometry":{ "type": "Point", "coordinates": [-73.383024,41.306663]}},
{ "type": "Feature", "properties": {"Name":"Ridgebury CDP","State":"Connecticut","State_Abbrev":"CT"},
"geometry":{ "type": "Point", "coordinates": [-73.535893,41.356764]}},
{ "type": "Feature", "properties": {"Name":"Ridgefield CDP","State":"Connecticut","State_Abbrev":"CT"},
"geometry":{ "type": "Point", "coordinates": [-73.492611,41.269688]}},
{ "type": "Feature", "properties": {"Name":"Riverside CDP","State":"Connecticut","State_Abbrev":"CT"},
"geometry":{ "type": "Point", "coordinates": [-73.583719,41.030093]}},
{ "type": "Feature", "properties": {"Name":"Riverton CDP","State":"Connecticut","State_Abbrev":"CT"},
"geometry":{ "type": "Point", "coordinates": [-73.016558,41.963141]}},
{ "type": "Feature", "properties": {"Name":"Rock Ridge CDP","State":"Connecticut","State_Abbrev":"CT"},
"geometry":{ "type": "Point", "coordinates": [-73.648396,41.03442]}},
{ "type": "Feature", "properties": {"Name":"Rockville CDP","State":"Connecticut","State_Abbrev":"CT"},
"geometry":{ "type": "Point", "coordinates": [-72.45127,41.866519]}},
{ "type": "Feature", "properties": {"Name":"Route 7 Gateway CDP","State":"Connecticut","State_Abbrev":"CT"},
"geometry":{ "type": "Point", "coordinates": [-73.475382,41.318764]}},
{ "type": "Feature", "properties": {"Name":"Sacred Heart University CDP","State":"Connecticut","State_Abbrev":"CT"},
"geometry":{ "type": "Point", "coordinates": [-73.2442,41.22148]}},
{ "type": "Feature", "properties": {"Name":"Sail Harbor CDP","State":"Connecticut","State_Abbrev":"CT"},
"geometry":{ "type": "Point", "coordinates": [-73.464218,41.52419]}},
{ "type": "Feature", "properties": {"Name":"Salmon Brook CDP","State":"Connecticut","State_Abbrev":"CT"},
"geometry":{ "type": "Point", "coordinates": [-72.791896,41.957486]}},
{ "type": "Feature", "properties": {"Name":"Sandy Hook CDP","State":"Connecticut","State_Abbrev":"CT"},
"geometry":{ "type": "Point", "coordinates": [-73.24263,41.409]}},
{ "type": "Feature", "properties": {"Name":"Saugatuck CDP","State":"Connecticut","State_Abbrev":"CT"},
"geometry":{ "type": "Point", "coordinates": [-73.368771,41.112131]}},
{ "type": "Feature", "properties": {"Name":"Saybrook Manor CDP","State":"Connecticut","State_Abbrev":"CT"},
"geometry":{ "type": "Point", "coordinates": [-72.406605,41.283429]}},
{ "type": "Feature", "properties": {"Name":"Sharon CDP","State":"Connecticut","State_Abbrev":"CT"},
"geometry":{ "type": "Point", "coordinates": [-73.46163,41.879026]}},
{ "type": "Feature", "properties": {"Name":"Shelton city","State":"Connecticut","State_Abbrev":"CT"},
"geometry":{ "type": "Point", "coordinates": [-73.139215,41.304577]}},
{ "type": "Feature", "properties": {"Name":"Sherman CDP","State":"Connecticut","State_Abbrev":"CT"},
"geometry":{ "type": "Point", "coordinates": [-73.495064,41.572108]}},
{ "type": "Feature", "properties": {"Name":"Sherwood Manor CDP","State":"Connecticut","State_Abbrev":"CT"},
"geometry":{ "type": "Point", "coordinates": [-72.567378,42.011167]}},
{ "type": "Feature", "properties": {"Name":"Simsbury Center CDP","State":"Connecticut","State_Abbrev":"CT"},
"geometry":{ "type": "Point", "coordinates": [-72.806737,41.880599]}},
{ "type": "Feature", "properties": {"Name":"Somers CDP","State":"Connecticut","State_Abbrev":"CT"},
"geometry":{ "type": "Point", "coordinates": [-72.445123,41.991685]}},
{ "type": "Feature", "properties": {"Name":"South Coventry CDP","State":"Connecticut","State_Abbrev":"CT"},
"geometry":{ "type": "Point", "coordinates": [-72.301731,41.756752]}},
{ "type": "Feature", "properties": {"Name":"Southport CDP","State":"Connecticut","State_Abbrev":"CT"},
"geometry":{ "type": "Point", "coordinates": [-73.287125,41.13494]}},
{ "type": "Feature", "properties": {"Name":"South Wilton CDP","State":"Connecticut","State_Abbrev":"CT"},
"geometry":{ "type": "Point", "coordinates": [-73.416966,41.172295]}},
{ "type": "Feature", "properties": {"Name":"South Windham CDP","State":"Connecticut","State_Abbrev":"CT"},
"geometry":{ "type": "Point", "coordinates": [-72.182474,41.684189]}},
{ "type": "Feature", "properties": {"Name":"Southwood Acres CDP","State":"Connecticut","State_Abbrev":"CT"},
"geometry":{ "type": "Point", "coordinates": [-72.57264,41.958197]}},
{ "type": "Feature", "properties": {"Name":"South Woodstock CDP","State":"Connecticut","State_Abbrev":"CT"},
"geometry":{ "type": "Point", "coordinates": [-71.955645,41.929585]}},
{ "type": "Feature", "properties": {"Name":"Stafford Springs CDP","State":"Connecticut","State_Abbrev":"CT"},
"geometry":{ "type": "Point", "coordinates": [-72.306381,41.967856]}},
{ "type": "Feature", "properties": {"Name":"Stamford city","State":"Connecticut","State_Abbrev":"CT"},
"geometry":{ "type": "Point", "coordinates": [-73.54608,41.079611]}},
{ "type": "Feature", "properties": {"Name":"Staples CDP","State":"Connecticut","State_Abbrev":"CT"},
"geometry":{ "type": "Point", "coordinates": [-73.325627,41.155369]}},
{ "type": "Feature", "properties": {"Name":"Stepney CDP","State":"Connecticut","State_Abbrev":"CT"},
"geometry":{ "type": "Point", "coordinates": [-73.268391,41.324356]}},
{ "type": "Feature", "properties": {"Name":"Stonington borough","State":"Connecticut","State_Abbrev":"CT"},
"geometry":{ "type": "Point", "coordinates": [-71.899459,41.334765]}},
{ "type": "Feature", "properties": {"Name":"Storrs CDP","State":"Connecticut","State_Abbrev":"CT"},
"geometry":{ "type": "Point", "coordinates": [-72.251617,41.808938]}},
{ "type": "Feature", "properties": {"Name":"Stratford Downtown CDP","State":"Connecticut","State_Abbrev":"CT"},
"geometry":{ "type": "Point", "coordinates": [-73.12767,41.198849]}},
{ "type": "Feature", "properties": {"Name":"Suffield Depot CDP","State":"Connecticut","State_Abbrev":"CT"},
"geometry":{ "type": "Point", "coordinates": [-72.63925,41.985212]}},
{ "type": "Feature", "properties": {"Name":"Taylor Corners CDP","State":"Connecticut","State_Abbrev":"CT"},
"geometry":{ "type": "Point", "coordinates": [-73.528687,41.446413]}},
{ "type": "Feature", "properties": {"Name":"Tariffville CDP","State":"Connecticut","State_Abbrev":"CT"},
"geometry":{ "type": "Point", "coordinates": [-72.76818,41.907559]}},
{ "type": "Feature", "properties": {"Name":"Tashua CDP","State":"Connecticut","State_Abbrev":"CT"},
"geometry":{ "type": "Point", "coordinates": [-73.254448,41.275014]}},
{ "type": "Feature", "properties": {"Name":"Terramuggus CDP","State":"Connecticut","State_Abbrev":"CT"},
"geometry":{ "type": "Point", "coordinates": [-72.471824,41.633568]}},
{ "type": "Feature", "properties": {"Name":"Terryville CDP","State":"Connecticut","State_Abbrev":"CT"},
"geometry":{ "type": "Point", "coordinates": [-73.007933,41.677838]}},
{ "type": "Feature", "properties": {"Name":"Thomaston CDP","State":"Connecticut","State_Abbrev":"CT"},
"geometry":{ "type": "Point", "coordinates": [-73.083014,41.676849]}},
{ "type": "Feature", "properties": {"Name":"Thompsonville CDP","State":"Connecticut","State_Abbrev":"CT"},
"geometry":{ "type": "Point", "coordinates": [-72.596522,41.99214]}},
{ "type": "Feature", "properties": {"Name":"Tokeneke CDP","State":"Connecticut","State_Abbrev":"CT"},
"geometry":{ "type": "Point", "coordinates": [-73.462564,41.053462]}},
{ "type": "Feature", "properties": {"Name":"Topstone CDP","State":"Connecticut","State_Abbrev":"CT"},
"geometry":{ "type": "Point", "coordinates": [-73.44657,41.296308]}},
{ "type": "Feature", "properties": {"Name":"Torrington city","State":"Connecticut","State_Abbrev":"CT"},
"geometry":{ "type": "Point", "coordinates": [-73.13147,41.8342]}},
{ "type": "Feature", "properties": {"Name":"Trumbull Center CDP","State":"Connecticut","State_Abbrev":"CT"},
"geometry":{ "type": "Point", "coordinates": [-73.183486,41.242392]}},
{ "type": "Feature", "properties": {"Name":"Wallingford Center CDP","State":"Connecticut","State_Abbrev":"CT"},
"geometry":{ "type": "Point", "coordinates": [-72.818334,41.449917]}},
{ "type": "Feature", "properties": {"Name":"Waterbury city","State":"Connecticut","State_Abbrev":"CT"},
"geometry":{ "type": "Point", "coordinates": [-73.036685,41.5585]}},
{ "type": "Feature", "properties": {"Name":"Waterford CDP","State":"Connecticut","State_Abbrev":"CT"},
"geometry":{ "type": "Point", "coordinates": [-72.129342,41.346273]}},
{ "type": "Feature", "properties": {"Name":"Watertown CDP","State":"Connecticut","State_Abbrev":"CT"},
"geometry":{ "type": "Point", "coordinates": [-73.121468,41.601155]}},
{ "type": "Feature", "properties": {"Name":"Wauregan CDP","State":"Connecticut","State_Abbrev":"CT"},
"geometry":{ "type": "Point", "coordinates": [-71.914862,41.750474]}},
{ "type": "Feature", "properties": {"Name":"Weatogue CDP","State":"Connecticut","State_Abbrev":"CT"},
"geometry":{ "type": "Point", "coordinates": [-72.829769,41.847241]}},
{ "type": "Feature", "properties": {"Name":"Westbrook Center CDP","State":"Connecticut","State_Abbrev":"CT"},
"geometry":{ "type": "Point", "coordinates": [-72.442347,41.281404]}},
{ "type": "Feature", "properties": {"Name":"West Cornwall CDP","State":"Connecticut","State_Abbrev":"CT"},
"geometry":{ "type": "Point", "coordinates": [-73.360788,41.864205]}},
{ "type": "Feature", "properties": {"Name":"West Hartford CDP","State":"Connecticut","State_Abbrev":"CT"},
"geometry":{ "type": "Point", "coordinates": [-72.754944,41.766568]}},
{ "type": "Feature", "properties": {"Name":"West Haven city","State":"Connecticut","State_Abbrev":"CT"},
"geometry":{ "type": "Point", "coordinates": [-72.967497,41.272121]}},
{ "type": "Feature", "properties": {"Name":"West Mountain CDP","State":"Connecticut","State_Abbrev":"CT"},
"geometry":{ "type": "Point", "coordinates": [-73.542315,41.300077]}},
{ "type": "Feature", "properties": {"Name":"Weston CDP","State":"Connecticut","State_Abbrev":"CT"},
"geometry":{ "type": "Point", "coordinates": [-73.378781,41.203236]}},
{ "type": "Feature", "properties": {"Name":"Westport Village CDP","State":"Connecticut","State_Abbrev":"CT"},
"geometry":{ "type": "Point", "coordinates": [-73.360253,41.143351]}},
{ "type": "Feature", "properties": {"Name":"West Simsbury CDP","State":"Connecticut","State_Abbrev":"CT"},
"geometry":{ "type": "Point", "coordinates": [-72.845071,41.87573]}},
{ "type": "Feature", "properties": {"Name":"Wethersfield CDP","State":"Connecticut","State_Abbrev":"CT"},
"geometry":{ "type": "Point", "coordinates": [-72.669301,41.702484]}},
{ "type": "Feature", "properties": {"Name":"Willimantic CDP","State":"Connecticut","State_Abbrev":"CT"},
"geometry":{ "type": "Point", "coordinates": [-72.211733,41.716557]}},
{ "type": "Feature", "properties": {"Name":"Wilton Center CDP","State":"Connecticut","State_Abbrev":"CT"},
"geometry":{ "type": "Point", "coordinates": [-73.426163,41.191279]}},
{ "type": "Feature", "properties": {"Name":"Windsor Locks CDP","State":"Connecticut","State_Abbrev":"CT"},
"geometry":{ "type": "Point", "coordinates": [-72.651616,41.92779]}},
{ "type": "Feature", "properties": {"Name":"Winsted CDP","State":"Connecticut","State_Abbrev":"CT"},
"geometry":{ "type": "Point", "coordinates": [-73.067543,41.925848]}},
{ "type": "Feature", "properties": {"Name":"Witches Woods CDP","State":"Connecticut","State_Abbrev":"CT"},
"geometry":{ "type": "Point", "coordinates": [-72.074233,41.946406]}},
{ "type": "Feature", "properties": {"Name":"Woodbury Center CDP","State":"Connecticut","State_Abbrev":"CT"},
"geometry":{ "type": "Point", "coordinates": [-73.204857,41.54387]}},
{ "type": "Feature", "properties": {"Name":"Woodmont borough","State":"Connecticut","State_Abbrev":"CT"},
"geometry":{ "type": "Point", "coordinates": [-72.995071,41.221553]}}]}
