{"type":"FeatureCollection","features":[
{ "type": "Feature", "properties": {"Name":"Acacia Villas CDP","State":"Florida","State_Abbrev":"FL"},
"geometry":{ "type": "Point", "coordinates": [-80.110444,26.645735]}},
{ "type": "Feature", "properties": {"Name":"Alachua city","State":"Florida","State_Abbrev":"FL"},
"geometry":{ "type": "Point", "coordinates": [-82.4751,29.765199]}},
{ "type": "Feature", "properties": {"Name":"Alafaya CDP","State":"Florida","State_Abbrev":"FL"},
"geometry":{ "type": "Point", "coordinates": [-81.185745,28.528373]}},
{ "type": "Feature", "properties": {"Name":"Alford town","State":"Florida","State_Abbrev":"FL"},
"geometry":{ "type": "Point", "coordinates": [-85.39572,30.69664]}},
{ "type": "Feature", "properties": {"Name":"Allentown CDP","State":"Florida","State_Abbrev":"FL"},
"geometry":{ "type": "Point", "coordinates": [-87.084428,30.770489]}},
{ "type": "Feature", "properties": {"Name":"Altamonte Springs city","State":"Florida","State_Abbrev":"FL"},
"geometry":{ "type": "Point", "coordinates": [-81.394681,28.661022]}},
{ "type": "Feature", "properties": {"Name":"Altha town","State":"Florida","State_Abbrev":"FL"},
"geometry":{ "type": "Point", "coordinates": [-85.126082,30.57335]}},
{ "type": "Feature", "properties": {"Name":"Altoona CDP","State":"Florida","State_Abbrev":"FL"},
"geometry":{ "type": "Point", "coordinates": [-81.648092,28.968733]}},
{ "type": "Feature", "properties": {"Name":"Alturas CDP","State":"Florida","State_Abbrev":"FL"},
"geometry":{ "type": "Point", "coordinates": [-81.681576,27.842056]}},
{ "type": "Feature", "properties": {"Name":"Alva CDP","State":"Florida","State_Abbrev":"FL"},
"geometry":{ "type": "Point", "coordinates": [-81.624284,26.721492]}},
{ "type": "Feature", "properties": {"Name":"Andrews CDP","State":"Florida","State_Abbrev":"FL"},
"geometry":{ "type": "Point", "coordinates": [-82.888292,29.549578]}},
{ "type": "Feature", "properties": {"Name":"Anna Maria city","State":"Florida","State_Abbrev":"FL"},
"geometry":{ "type": "Point", "coordinates": [-82.733719,27.529833]}},
{ "type": "Feature", "properties": {"Name":"Apalachicola city","State":"Florida","State_Abbrev":"FL"},
"geometry":{ "type": "Point", "coordinates": [-84.994047,29.727426]}},
{ "type": "Feature", "properties": {"Name":"Apollo Beach CDP","State":"Florida","State_Abbrev":"FL"},
"geometry":{ "type": "Point", "coordinates": [-82.403313,27.76302]}},
{ "type": "Feature", "properties": {"Name":"Apopka city","State":"Florida","State_Abbrev":"FL"},
"geometry":{ "type": "Point", "coordinates": [-81.531825,28.701701]}},
{ "type": "Feature", "properties": {"Name":"Arcadia city","State":"Florida","State_Abbrev":"FL"},
"geometry":{ "type": "Point", "coordinates": [-81.858429,27.221209]}},
{ "type": "Feature", "properties": {"Name":"Archer city","State":"Florida","State_Abbrev":"FL"},
"geometry":{ "type": "Point", "coordinates": [-82.572915,29.559697]}},
{ "type": "Feature", "properties": {"Name":"Aripeka CDP","State":"Florida","State_Abbrev":"FL"},
"geometry":{ "type": "Point", "coordinates": [-82.668286,28.429337]}},
{ "type": "Feature", "properties": {"Name":"Asbury Lake CDP","State":"Florida","State_Abbrev":"FL"},
"geometry":{ "type": "Point", "coordinates": [-81.787591,30.049014]}},
{ "type": "Feature", "properties": {"Name":"Astatula town","State":"Florida","State_Abbrev":"FL"},
"geometry":{ "type": "Point", "coordinates": [-81.73419,28.70732]}},
{ "type": "Feature", "properties": {"Name":"Astor CDP","State":"Florida","State_Abbrev":"FL"},
"geometry":{ "type": "Point", "coordinates": [-81.534621,29.163834]}},
{ "type": "Feature", "properties": {"Name":"Atlantic Beach city","State":"Florida","State_Abbrev":"FL"},
"geometry":{ "type": "Point", "coordinates": [-81.396669,30.339552]}},
{ "type": "Feature", "properties": {"Name":"Atlantis city","State":"Florida","State_Abbrev":"FL"},
"geometry":{ "type": "Point", "coordinates": [-80.1041,26.597248]}},
{ "type": "Feature", "properties": {"Name":"Auburndale city","State":"Florida","State_Abbrev":"FL"},
"geometry":{ "type": "Point", "coordinates": [-81.797322,28.109997]}},
{ "type": "Feature", "properties": {"Name":"Aucilla CDP","State":"Florida","State_Abbrev":"FL"},
"geometry":{ "type": "Point", "coordinates": [-83.760399,30.477028]}},
{ "type": "Feature", "properties": {"Name":"Avalon CDP","State":"Florida","State_Abbrev":"FL"},
"geometry":{ "type": "Point", "coordinates": [-87.104631,30.536216]}},
{ "type": "Feature", "properties": {"Name":"Ave Maria CDP","State":"Florida","State_Abbrev":"FL"},
"geometry":{ "type": "Point", "coordinates": [-81.439425,26.322804]}},
{ "type": "Feature", "properties": {"Name":"Aventura city","State":"Florida","State_Abbrev":"FL"},
"geometry":{ "type": "Point", "coordinates": [-80.133011,25.96016]}},
{ "type": "Feature", "properties": {"Name":"Avon Park city","State":"Florida","State_Abbrev":"FL"},
"geometry":{ "type": "Point", "coordinates": [-81.507278,27.589703]}},
{ "type": "Feature", "properties": {"Name":"Azalea Park CDP","State":"Florida","State_Abbrev":"FL"},
"geometry":{ "type": "Point", "coordinates": [-81.295395,28.547251]}},
{ "type": "Feature", "properties": {"Name":"Babson Park CDP","State":"Florida","State_Abbrev":"FL"},
"geometry":{ "type": "Point", "coordinates": [-81.528085,27.834206]}},
{ "type": "Feature", "properties": {"Name":"Bagdad CDP","State":"Florida","State_Abbrev":"FL"},
"geometry":{ "type": "Point", "coordinates": [-87.044892,30.584172]}},
{ "type": "Feature", "properties": {"Name":"Baldwin town","State":"Florida","State_Abbrev":"FL"},
"geometry":{ "type": "Point", "coordinates": [-81.973665,30.307776]}},
{ "type": "Feature", "properties": {"Name":"Bal Harbour village","State":"Florida","State_Abbrev":"FL"},
"geometry":{ "type": "Point", "coordinates": [-80.123139,25.8928]}},
{ "type": "Feature", "properties": {"Name":"Balm CDP","State":"Florida","State_Abbrev":"FL"},
"geometry":{ "type": "Point", "coordinates": [-82.289456,27.753039]}},
{ "type": "Feature", "properties": {"Name":"Bardmoor CDP","State":"Florida","State_Abbrev":"FL"},
"geometry":{ "type": "Point", "coordinates": [-82.75324,27.856083]}},
{ "type": "Feature", "properties": {"Name":"Bartow city","State":"Florida","State_Abbrev":"FL"},
"geometry":{ "type": "Point", "coordinates": [-81.821758,27.886803]}},
{ "type": "Feature", "properties": {"Name":"Bascom town","State":"Florida","State_Abbrev":"FL"},
"geometry":{ "type": "Point", "coordinates": [-85.118081,30.927758]}},
{ "type": "Feature", "properties": {"Name":"Bay Harbor Islands town","State":"Florida","State_Abbrev":"FL"},
"geometry":{ "type": "Point", "coordinates": [-80.133582,25.887979]}},
{ "type": "Feature", "properties": {"Name":"Bay Hill CDP","State":"Florida","State_Abbrev":"FL"},
"geometry":{ "type": "Point", "coordinates": [-81.514793,28.462372]}},
{ "type": "Feature", "properties": {"Name":"Bay Lake city","State":"Florida","State_Abbrev":"FL"},
"geometry":{ "type": "Point", "coordinates": [-81.578369,28.389224]}},
{ "type": "Feature", "properties": {"Name":"Bayonet Point CDP","State":"Florida","State_Abbrev":"FL"},
"geometry":{ "type": "Point", "coordinates": [-82.683432,28.326488]}},
{ "type": "Feature", "properties": {"Name":"Bay Pines CDP","State":"Florida","State_Abbrev":"FL"},
"geometry":{ "type": "Point", "coordinates": [-82.777749,27.816314]}},
{ "type": "Feature", "properties": {"Name":"Bayport CDP","State":"Florida","State_Abbrev":"FL"},
"geometry":{ "type": "Point", "coordinates": [-82.644015,28.543064]}},
{ "type": "Feature", "properties": {"Name":"Bayshore Gardens CDP","State":"Florida","State_Abbrev":"FL"},
"geometry":{ "type": "Point", "coordinates": [-82.578072,27.43302]}},
{ "type": "Feature", "properties": {"Name":"Beacon Square CDP","State":"Florida","State_Abbrev":"FL"},
"geometry":{ "type": "Point", "coordinates": [-82.750751,28.211219]}},
{ "type": "Feature", "properties": {"Name":"Bear Creek CDP","State":"Florida","State_Abbrev":"FL"},
"geometry":{ "type": "Point", "coordinates": [-82.728762,27.758102]}},
{ "type": "Feature", "properties": {"Name":"Bee Ridge CDP","State":"Florida","State_Abbrev":"FL"},
"geometry":{ "type": "Point", "coordinates": [-82.473077,27.2843]}},
{ "type": "Feature", "properties": {"Name":"Bell town","State":"Florida","State_Abbrev":"FL"},
"geometry":{ "type": "Point", "coordinates": [-82.861969,29.756846]}},
{ "type": "Feature", "properties": {"Name":"Bellair-Meadowbrook Terrace CDP","State":"Florida","State_Abbrev":"FL"},
"geometry":{ "type": "Point", "coordinates": [-81.734379,30.179292]}},
{ "type": "Feature", "properties": {"Name":"Belleair town","State":"Florida","State_Abbrev":"FL"},
"geometry":{ "type": "Point", "coordinates": [-82.812777,27.935974]}},
{ "type": "Feature", "properties": {"Name":"Belleair Beach city","State":"Florida","State_Abbrev":"FL"},
"geometry":{ "type": "Point", "coordinates": [-82.836575,27.931244]}},
{ "type": "Feature", "properties": {"Name":"Belleair Bluffs city","State":"Florida","State_Abbrev":"FL"},
"geometry":{ "type": "Point", "coordinates": [-82.81975,27.919619]}},
{ "type": "Feature", "properties": {"Name":"Belleair Shore town","State":"Florida","State_Abbrev":"FL"},
"geometry":{ "type": "Point", "coordinates": [-82.845257,27.917267]}},
{ "type": "Feature", "properties": {"Name":"Belle Glade city","State":"Florida","State_Abbrev":"FL"},
"geometry":{ "type": "Point", "coordinates": [-80.665559,26.692215]}},
{ "type": "Feature", "properties": {"Name":"Belle Isle city","State":"Florida","State_Abbrev":"FL"},
"geometry":{ "type": "Point", "coordinates": [-81.351253,28.464935]}},
{ "type": "Feature", "properties": {"Name":"Belleview city","State":"Florida","State_Abbrev":"FL"},
"geometry":{ "type": "Point", "coordinates": [-82.055868,29.060615]}},
{ "type": "Feature", "properties": {"Name":"Bellview CDP","State":"Florida","State_Abbrev":"FL"},
"geometry":{ "type": "Point", "coordinates": [-87.30925,30.464787]}},
{ "type": "Feature", "properties": {"Name":"Berkshire Lakes CDP","State":"Florida","State_Abbrev":"FL"},
"geometry":{ "type": "Point", "coordinates": [-81.728497,26.161624]}},
{ "type": "Feature", "properties": {"Name":"Berrydale CDP","State":"Florida","State_Abbrev":"FL"},
"geometry":{ "type": "Point", "coordinates": [-87.034001,30.897011]}},
{ "type": "Feature", "properties": {"Name":"Beverly Beach town","State":"Florida","State_Abbrev":"FL"},
"geometry":{ "type": "Point", "coordinates": [-81.14692,29.51577]}},
{ "type": "Feature", "properties": {"Name":"Beverly Hills CDP","State":"Florida","State_Abbrev":"FL"},
"geometry":{ "type": "Point", "coordinates": [-82.454135,28.91755]}},
{ "type": "Feature", "properties": {"Name":"Big Coppitt Key CDP","State":"Florida","State_Abbrev":"FL"},
"geometry":{ "type": "Point", "coordinates": [-81.652178,24.580225]}},
{ "type": "Feature", "properties": {"Name":"Big Pine Key CDP","State":"Florida","State_Abbrev":"FL"},
"geometry":{ "type": "Point", "coordinates": [-81.362518,24.685137]}},
{ "type": "Feature", "properties": {"Name":"Biscayne Park village","State":"Florida","State_Abbrev":"FL"},
"geometry":{ "type": "Point", "coordinates": [-80.181101,25.881696]}},
{ "type": "Feature", "properties": {"Name":"Bithlo CDP","State":"Florida","State_Abbrev":"FL"},
"geometry":{ "type": "Point", "coordinates": [-81.092097,28.581865]}},
{ "type": "Feature", "properties": {"Name":"Black Diamond CDP","State":"Florida","State_Abbrev":"FL"},
"geometry":{ "type": "Point", "coordinates": [-82.494615,28.906711]}},
{ "type": "Feature", "properties": {"Name":"Black Hammock CDP","State":"Florida","State_Abbrev":"FL"},
"geometry":{ "type": "Point", "coordinates": [-81.177323,28.706005]}},
{ "type": "Feature", "properties": {"Name":"Bloomingdale CDP","State":"Florida","State_Abbrev":"FL"},
"geometry":{ "type": "Point", "coordinates": [-82.261418,27.876716]}},
{ "type": "Feature", "properties": {"Name":"Blountstown city","State":"Florida","State_Abbrev":"FL"},
"geometry":{ "type": "Point", "coordinates": [-85.045401,30.44285]}},
{ "type": "Feature", "properties": {"Name":"Boca Raton city","State":"Florida","State_Abbrev":"FL"},
"geometry":{ "type": "Point", "coordinates": [-80.103711,26.37269]}},
{ "type": "Feature", "properties": {"Name":"Bokeelia CDP","State":"Florida","State_Abbrev":"FL"},
"geometry":{ "type": "Point", "coordinates": [-82.141633,26.681353]}},
{ "type": "Feature", "properties": {"Name":"Bonifay city","State":"Florida","State_Abbrev":"FL"},
"geometry":{ "type": "Point", "coordinates": [-85.688758,30.781349]}},
{ "type": "Feature", "properties": {"Name":"Bonita Springs city","State":"Florida","State_Abbrev":"FL"},
"geometry":{ "type": "Point", "coordinates": [-81.784234,26.355011]}},
{ "type": "Feature", "properties": {"Name":"Boulevard Gardens CDP","State":"Florida","State_Abbrev":"FL"},
"geometry":{ "type": "Point", "coordinates": [-80.181174,26.127138]}},
{ "type": "Feature", "properties": {"Name":"Bowling Green city","State":"Florida","State_Abbrev":"FL"},
"geometry":{ "type": "Point", "coordinates": [-81.824773,27.637752]}},
{ "type": "Feature", "properties": {"Name":"Boynton Beach city","State":"Florida","State_Abbrev":"FL"},
"geometry":{ "type": "Point", "coordinates": [-80.080722,26.528334]}},
{ "type": "Feature", "properties": {"Name":"Bradenton city","State":"Florida","State_Abbrev":"FL"},
"geometry":{ "type": "Point", "coordinates": [-82.576804,27.489798]}},
{ "type": "Feature", "properties": {"Name":"Bradenton Beach city","State":"Florida","State_Abbrev":"FL"},
"geometry":{ "type": "Point", "coordinates": [-82.69651,27.461683]}},
{ "type": "Feature", "properties": {"Name":"Bradfordville CDP","State":"Florida","State_Abbrev":"FL"},
"geometry":{ "type": "Point", "coordinates": [-84.211143,30.573844]}},
{ "type": "Feature", "properties": {"Name":"Bradley Junction CDP","State":"Florida","State_Abbrev":"FL"},
"geometry":{ "type": "Point", "coordinates": [-81.978223,27.794569]}},
{ "type": "Feature", "properties": {"Name":"Brandon CDP","State":"Florida","State_Abbrev":"FL"},
"geometry":{ "type": "Point", "coordinates": [-82.299255,27.935985]}},
{ "type": "Feature", "properties": {"Name":"Branford town","State":"Florida","State_Abbrev":"FL"},
"geometry":{ "type": "Point", "coordinates": [-82.924284,29.96225]}},
{ "type": "Feature", "properties": {"Name":"Brent CDP","State":"Florida","State_Abbrev":"FL"},
"geometry":{ "type": "Point", "coordinates": [-87.250693,30.471891]}},
{ "type": "Feature", "properties": {"Name":"Briny Breezes town","State":"Florida","State_Abbrev":"FL"},
"geometry":{ "type": "Point", "coordinates": [-80.052246,26.508902]}},
{ "type": "Feature", "properties": {"Name":"Bristol city","State":"Florida","State_Abbrev":"FL"},
"geometry":{ "type": "Point", "coordinates": [-84.977292,30.425539]}},
{ "type": "Feature", "properties": {"Name":"Broadview Park CDP","State":"Florida","State_Abbrev":"FL"},
"geometry":{ "type": "Point", "coordinates": [-80.20847,26.09875]}},
{ "type": "Feature", "properties": {"Name":"Bronson town","State":"Florida","State_Abbrev":"FL"},
"geometry":{ "type": "Point", "coordinates": [-82.638474,29.449109]}},
{ "type": "Feature", "properties": {"Name":"Brooker town","State":"Florida","State_Abbrev":"FL"},
"geometry":{ "type": "Point", "coordinates": [-82.332666,29.887631]}},
{ "type": "Feature", "properties": {"Name":"Brookridge CDP","State":"Florida","State_Abbrev":"FL"},
"geometry":{ "type": "Point", "coordinates": [-82.489958,28.548069]}},
{ "type": "Feature", "properties": {"Name":"Brooksville city","State":"Florida","State_Abbrev":"FL"},
"geometry":{ "type": "Point", "coordinates": [-82.404665,28.516578]}},
{ "type": "Feature", "properties": {"Name":"Brownsdale CDP","State":"Florida","State_Abbrev":"FL"},
"geometry":{ "type": "Point", "coordinates": [-87.21502,30.894151]}},
{ "type": "Feature", "properties": {"Name":"Brownsville CDP","State":"Florida","State_Abbrev":"FL"},
"geometry":{ "type": "Point", "coordinates": [-80.241758,25.82161]}},
{ "type": "Feature", "properties": {"Name":"Buckhead Ridge CDP","State":"Florida","State_Abbrev":"FL"},
"geometry":{ "type": "Point", "coordinates": [-80.885148,27.132544]}},
{ "type": "Feature", "properties": {"Name":"Buckingham CDP","State":"Florida","State_Abbrev":"FL"},
"geometry":{ "type": "Point", "coordinates": [-81.747363,26.645484]}},
{ "type": "Feature", "properties": {"Name":"Buenaventura Lakes CDP","State":"Florida","State_Abbrev":"FL"},
"geometry":{ "type": "Point", "coordinates": [-81.352159,28.333421]}},
{ "type": "Feature", "properties": {"Name":"Bunnell city","State":"Florida","State_Abbrev":"FL"},
"geometry":{ "type": "Point", "coordinates": [-81.31948,29.418736]}},
{ "type": "Feature", "properties": {"Name":"Burnt Store Marina CDP","State":"Florida","State_Abbrev":"FL"},
"geometry":{ "type": "Point", "coordinates": [-82.051415,26.76709]}},
{ "type": "Feature", "properties": {"Name":"Bushnell city","State":"Florida","State_Abbrev":"FL"},
"geometry":{ "type": "Point", "coordinates": [-82.114406,28.686946]}},
{ "type": "Feature", "properties": {"Name":"Butler Beach CDP","State":"Florida","State_Abbrev":"FL"},
"geometry":{ "type": "Point", "coordinates": [-81.264799,29.798881]}},
{ "type": "Feature", "properties": {"Name":"Cabana Colony CDP","State":"Florida","State_Abbrev":"FL"},
"geometry":{ "type": "Point", "coordinates": [-80.086488,26.855441]}},
{ "type": "Feature", "properties": {"Name":"Callahan town","State":"Florida","State_Abbrev":"FL"},
"geometry":{ "type": "Point", "coordinates": [-81.831911,30.565441]}},
{ "type": "Feature", "properties": {"Name":"Callaway city","State":"Florida","State_Abbrev":"FL"},
"geometry":{ "type": "Point", "coordinates": [-85.548596,30.130399]}},
{ "type": "Feature", "properties": {"Name":"Campbell CDP","State":"Florida","State_Abbrev":"FL"},
"geometry":{ "type": "Point", "coordinates": [-81.450841,28.259287]}},
{ "type": "Feature", "properties": {"Name":"Campbellton town","State":"Florida","State_Abbrev":"FL"},
"geometry":{ "type": "Point", "coordinates": [-85.408601,30.957854]}},
{ "type": "Feature", "properties": {"Name":"Canal Point CDP","State":"Florida","State_Abbrev":"FL"},
"geometry":{ "type": "Point", "coordinates": [-80.622169,26.862568]}},
{ "type": "Feature", "properties": {"Name":"Cape Canaveral city","State":"Florida","State_Abbrev":"FL"},
"geometry":{ "type": "Point", "coordinates": [-80.604791,28.393226]}},
{ "type": "Feature", "properties": {"Name":"Cape Coral city","State":"Florida","State_Abbrev":"FL"},
"geometry":{ "type": "Point", "coordinates": [-81.993319,26.645022]}},
{ "type": "Feature", "properties": {"Name":"Capitola CDP","State":"Florida","State_Abbrev":"FL"},
"geometry":{ "type": "Point", "coordinates": [-84.079232,30.442416]}},
{ "type": "Feature", "properties": {"Name":"Captiva CDP","State":"Florida","State_Abbrev":"FL"},
"geometry":{ "type": "Point", "coordinates": [-82.187205,26.497641]}},
{ "type": "Feature", "properties": {"Name":"Carrabelle city","State":"Florida","State_Abbrev":"FL"},
"geometry":{ "type": "Point", "coordinates": [-84.66792,29.854391]}},
{ "type": "Feature", "properties": {"Name":"Carrollwood CDP","State":"Florida","State_Abbrev":"FL"},
"geometry":{ "type": "Point", "coordinates": [-82.515768,28.058222]}},
{ "type": "Feature", "properties": {"Name":"Caryville town","State":"Florida","State_Abbrev":"FL"},
"geometry":{ "type": "Point", "coordinates": [-85.811916,30.775167]}},
{ "type": "Feature", "properties": {"Name":"Casselberry city","State":"Florida","State_Abbrev":"FL"},
"geometry":{ "type": "Point", "coordinates": [-81.321926,28.661183]}},
{ "type": "Feature", "properties": {"Name":"Cedar Grove CDP","State":"Florida","State_Abbrev":"FL"},
"geometry":{ "type": "Point", "coordinates": [-85.626728,30.18103]}},
{ "type": "Feature", "properties": {"Name":"Cedar Key city","State":"Florida","State_Abbrev":"FL"},
"geometry":{ "type": "Point", "coordinates": [-83.037362,29.150265]}},
{ "type": "Feature", "properties": {"Name":"Celebration CDP","State":"Florida","State_Abbrev":"FL"},
"geometry":{ "type": "Point", "coordinates": [-81.55106,28.310344]}},
{ "type": "Feature", "properties": {"Name":"Center Hill city","State":"Florida","State_Abbrev":"FL"},
"geometry":{ "type": "Point", "coordinates": [-82.014974,28.621982]}},
{ "type": "Feature", "properties": {"Name":"Century town","State":"Florida","State_Abbrev":"FL"},
"geometry":{ "type": "Point", "coordinates": [-87.264724,30.977307]}},
{ "type": "Feature", "properties": {"Name":"Chaires CDP","State":"Florida","State_Abbrev":"FL"},
"geometry":{ "type": "Point", "coordinates": [-84.132033,30.444166]}},
{ "type": "Feature", "properties": {"Name":"Charleston Park CDP","State":"Florida","State_Abbrev":"FL"},
"geometry":{ "type": "Point", "coordinates": [-81.580674,26.705489]}},
{ "type": "Feature", "properties": {"Name":"Charlotte Harbor CDP","State":"Florida","State_Abbrev":"FL"},
"geometry":{ "type": "Point", "coordinates": [-82.059331,26.961501]}},
{ "type": "Feature", "properties": {"Name":"Charlotte Park CDP","State":"Florida","State_Abbrev":"FL"},
"geometry":{ "type": "Point", "coordinates": [-82.048963,26.904381]}},
{ "type": "Feature", "properties": {"Name":"Chattahoochee city","State":"Florida","State_Abbrev":"FL"},
"geometry":{ "type": "Point", "coordinates": [-84.83061,30.698344]}},
{ "type": "Feature", "properties": {"Name":"Cheval CDP","State":"Florida","State_Abbrev":"FL"},
"geometry":{ "type": "Point", "coordinates": [-82.517294,28.148049]}},
{ "type": "Feature", "properties": {"Name":"Chiefland city","State":"Florida","State_Abbrev":"FL"},
"geometry":{ "type": "Point", "coordinates": [-82.866334,29.492246]}},
{ "type": "Feature", "properties": {"Name":"Chipley city","State":"Florida","State_Abbrev":"FL"},
"geometry":{ "type": "Point", "coordinates": [-85.54005,30.775644]}},
{ "type": "Feature", "properties": {"Name":"Chokoloskee CDP","State":"Florida","State_Abbrev":"FL"},
"geometry":{ "type": "Point", "coordinates": [-81.360103,25.814223]}},
{ "type": "Feature", "properties": {"Name":"Christmas CDP","State":"Florida","State_Abbrev":"FL"},
"geometry":{ "type": "Point", "coordinates": [-80.990194,28.555569]}},
{ "type": "Feature", "properties": {"Name":"Chuluota CDP","State":"Florida","State_Abbrev":"FL"},
"geometry":{ "type": "Point", "coordinates": [-81.118405,28.640293]}},
{ "type": "Feature", "properties": {"Name":"Chumuckla CDP","State":"Florida","State_Abbrev":"FL"},
"geometry":{ "type": "Point", "coordinates": [-87.225978,30.788123]}},
{ "type": "Feature", "properties": {"Name":"Cinco Bayou town","State":"Florida","State_Abbrev":"FL"},
"geometry":{ "type": "Point", "coordinates": [-86.60956,30.42223]}},
{ "type": "Feature", "properties": {"Name":"Citrus Hills CDP","State":"Florida","State_Abbrev":"FL"},
"geometry":{ "type": "Point", "coordinates": [-82.430749,28.886829]}},
{ "type": "Feature", "properties": {"Name":"Citrus Park CDP","State":"Florida","State_Abbrev":"FL"},
"geometry":{ "type": "Point", "coordinates": [-82.562173,28.070996]}},
{ "type": "Feature", "properties": {"Name":"Citrus Springs CDP","State":"Florida","State_Abbrev":"FL"},
"geometry":{ "type": "Point", "coordinates": [-82.459486,28.993166]}},
{ "type": "Feature", "properties": {"Name":"Clarcona CDP","State":"Florida","State_Abbrev":"FL"},
"geometry":{ "type": "Point", "coordinates": [-81.501304,28.630931]}},
{ "type": "Feature", "properties": {"Name":"Clearwater city","State":"Florida","State_Abbrev":"FL"},
"geometry":{ "type": "Point", "coordinates": [-82.771256,27.979419]}},
{ "type": "Feature", "properties": {"Name":"Clermont city","State":"Florida","State_Abbrev":"FL"},
"geometry":{ "type": "Point", "coordinates": [-81.720238,28.533292]}},
{ "type": "Feature", "properties": {"Name":"Cleveland CDP","State":"Florida","State_Abbrev":"FL"},
"geometry":{ "type": "Point", "coordinates": [-81.989955,26.951675]}},
{ "type": "Feature", "properties": {"Name":"Clewiston city","State":"Florida","State_Abbrev":"FL"},
"geometry":{ "type": "Point", "coordinates": [-80.939194,26.752811]}},
{ "type": "Feature", "properties": {"Name":"Cloud Lake town","State":"Florida","State_Abbrev":"FL"},
"geometry":{ "type": "Point", "coordinates": [-80.071543,26.674876]}},
{ "type": "Feature", "properties": {"Name":"Cobbtown CDP","State":"Florida","State_Abbrev":"FL"},
"geometry":{ "type": "Point", "coordinates": [-87.128857,30.879675]}},
{ "type": "Feature", "properties": {"Name":"Cocoa city","State":"Florida","State_Abbrev":"FL"},
"geometry":{ "type": "Point", "coordinates": [-80.763306,28.376643]}},
{ "type": "Feature", "properties": {"Name":"Cocoa Beach city","State":"Florida","State_Abbrev":"FL"},
"geometry":{ "type": "Point", "coordinates": [-80.627539,28.32914]}},
{ "type": "Feature", "properties": {"Name":"Cocoa West CDP","State":"Florida","State_Abbrev":"FL"},
"geometry":{ "type": "Point", "coordinates": [-80.771299,28.35904]}},
{ "type": "Feature", "properties": {"Name":"Coconut Creek city","State":"Florida","State_Abbrev":"FL"},
"geometry":{ "type": "Point", "coordinates": [-80.184718,26.280943]}},
{ "type": "Feature", "properties": {"Name":"Coleman city","State":"Florida","State_Abbrev":"FL"},
"geometry":{ "type": "Point", "coordinates": [-82.070766,28.802773]}},
{ "type": "Feature", "properties": {"Name":"Combee Settlement CDP","State":"Florida","State_Abbrev":"FL"},
"geometry":{ "type": "Point", "coordinates": [-81.90424,28.060079]}},
{ "type": "Feature", "properties": {"Name":"Connerton CDP","State":"Florida","State_Abbrev":"FL"},
"geometry":{ "type": "Point", "coordinates": [-82.464832,28.307711]}},
{ "type": "Feature", "properties": {"Name":"Conway CDP","State":"Florida","State_Abbrev":"FL"},
"geometry":{ "type": "Point", "coordinates": [-81.333042,28.496937]}},
{ "type": "Feature", "properties": {"Name":"Cooper City city","State":"Florida","State_Abbrev":"FL"},
"geometry":{ "type": "Point", "coordinates": [-80.284961,26.04806]}},
{ "type": "Feature", "properties": {"Name":"Coral Gables city","State":"Florida","State_Abbrev":"FL"},
"geometry":{ "type": "Point", "coordinates": [-80.261659,25.683061]}},
{ "type": "Feature", "properties": {"Name":"Coral Springs city","State":"Florida","State_Abbrev":"FL"},
"geometry":{ "type": "Point", "coordinates": [-80.259301,26.270722]}},
{ "type": "Feature", "properties": {"Name":"Coral Terrace CDP","State":"Florida","State_Abbrev":"FL"},
"geometry":{ "type": "Point", "coordinates": [-80.304463,25.746187]}},
{ "type": "Feature", "properties": {"Name":"Cortez CDP","State":"Florida","State_Abbrev":"FL"},
"geometry":{ "type": "Point", "coordinates": [-82.668684,27.467748]}},
{ "type": "Feature", "properties": {"Name":"Cottondale town","State":"Florida","State_Abbrev":"FL"},
"geometry":{ "type": "Point", "coordinates": [-85.366039,30.78973]}},
{ "type": "Feature", "properties": {"Name":"Country Club CDP","State":"Florida","State_Abbrev":"FL"},
"geometry":{ "type": "Point", "coordinates": [-80.309225,25.939522]}},
{ "type": "Feature", "properties": {"Name":"Country Walk CDP","State":"Florida","State_Abbrev":"FL"},
"geometry":{ "type": "Point", "coordinates": [-80.433982,25.632882]}},
{ "type": "Feature", "properties": {"Name":"Crawfordville CDP","State":"Florida","State_Abbrev":"FL"},
"geometry":{ "type": "Point", "coordinates": [-84.363398,30.199552]}},
{ "type": "Feature", "properties": {"Name":"Crescent Beach CDP","State":"Florida","State_Abbrev":"FL"},
"geometry":{ "type": "Point", "coordinates": [-81.241709,29.730332]}},
{ "type": "Feature", "properties": {"Name":"Crescent City city","State":"Florida","State_Abbrev":"FL"},
"geometry":{ "type": "Point", "coordinates": [-81.513284,29.434538]}},
{ "type": "Feature", "properties": {"Name":"Crestview city","State":"Florida","State_Abbrev":"FL"},
"geometry":{ "type": "Point", "coordinates": [-86.579275,30.747932]}},
{ "type": "Feature", "properties": {"Name":"Crooked Lake Park CDP","State":"Florida","State_Abbrev":"FL"},
"geometry":{ "type": "Point", "coordinates": [-81.590233,27.830606]}},
{ "type": "Feature", "properties": {"Name":"Cross City town","State":"Florida","State_Abbrev":"FL"},
"geometry":{ "type": "Point", "coordinates": [-83.124836,29.638598]}},
{ "type": "Feature", "properties": {"Name":"Crystal Lake CDP","State":"Florida","State_Abbrev":"FL"},
"geometry":{ "type": "Point", "coordinates": [-81.899636,28.035979]}},
{ "type": "Feature", "properties": {"Name":"Crystal River city","State":"Florida","State_Abbrev":"FL"},
"geometry":{ "type": "Point", "coordinates": [-82.60187,28.895504]}},
{ "type": "Feature", "properties": {"Name":"Crystal Springs CDP","State":"Florida","State_Abbrev":"FL"},
"geometry":{ "type": "Point", "coordinates": [-82.152899,28.183617]}},
{ "type": "Feature", "properties": {"Name":"Cudjoe Key CDP","State":"Florida","State_Abbrev":"FL"},
"geometry":{ "type": "Point", "coordinates": [-81.499676,24.67875]}},
{ "type": "Feature", "properties": {"Name":"Cutler Bay town","State":"Florida","State_Abbrev":"FL"},
"geometry":{ "type": "Point", "coordinates": [-80.334007,25.576148]}},
{ "type": "Feature", "properties": {"Name":"Cypress Gardens CDP","State":"Florida","State_Abbrev":"FL"},
"geometry":{ "type": "Point", "coordinates": [-81.690566,28.003516]}},
{ "type": "Feature", "properties": {"Name":"Cypress Lake CDP","State":"Florida","State_Abbrev":"FL"},
"geometry":{ "type": "Point", "coordinates": [-81.899392,26.539284]}},
{ "type": "Feature", "properties": {"Name":"Cypress Quarters CDP","State":"Florida","State_Abbrev":"FL"},
"geometry":{ "type": "Point", "coordinates": [-80.809774,27.247714]}},
{ "type": "Feature", "properties": {"Name":"Dade City city","State":"Florida","State_Abbrev":"FL"},
"geometry":{ "type": "Point", "coordinates": [-82.193437,28.355933]}},
{ "type": "Feature", "properties": {"Name":"Dade City North CDP","State":"Florida","State_Abbrev":"FL"},
"geometry":{ "type": "Point", "coordinates": [-82.194265,28.384084]}},
{ "type": "Feature", "properties": {"Name":"Dania Beach city","State":"Florida","State_Abbrev":"FL"},
"geometry":{ "type": "Point", "coordinates": [-80.164585,26.057213]}},
{ "type": "Feature", "properties": {"Name":"Davenport city","State":"Florida","State_Abbrev":"FL"},
"geometry":{ "type": "Point", "coordinates": [-81.607702,28.158166]}},
{ "type": "Feature", "properties": {"Name":"Davie town","State":"Florida","State_Abbrev":"FL"},
"geometry":{ "type": "Point", "coordinates": [-80.283013,26.079169]}},
{ "type": "Feature", "properties": {"Name":"Day CDP","State":"Florida","State_Abbrev":"FL"},
"geometry":{ "type": "Point", "coordinates": [-83.28731,30.198419]}},
{ "type": "Feature", "properties": {"Name":"Daytona Beach city","State":"Florida","State_Abbrev":"FL"},
"geometry":{ "type": "Point", "coordinates": [-81.097083,29.19071]}},
{ "type": "Feature", "properties": {"Name":"Daytona Beach Shores city","State":"Florida","State_Abbrev":"FL"},
"geometry":{ "type": "Point", "coordinates": [-80.980749,29.171252]}},
{ "type": "Feature", "properties": {"Name":"DeBary city","State":"Florida","State_Abbrev":"FL"},
"geometry":{ "type": "Point", "coordinates": [-81.32427,28.881398]}},
{ "type": "Feature", "properties": {"Name":"Deerfield Beach city","State":"Florida","State_Abbrev":"FL"},
"geometry":{ "type": "Point", "coordinates": [-80.125378,26.311716]}},
{ "type": "Feature", "properties": {"Name":"DeFuniak Springs city","State":"Florida","State_Abbrev":"FL"},
"geometry":{ "type": "Point", "coordinates": [-86.119692,30.712522]}},
{ "type": "Feature", "properties": {"Name":"DeLand city","State":"Florida","State_Abbrev":"FL"},
"geometry":{ "type": "Point", "coordinates": [-81.286498,29.022663]}},
{ "type": "Feature", "properties": {"Name":"DeLand Southwest CDP","State":"Florida","State_Abbrev":"FL"},
"geometry":{ "type": "Point", "coordinates": [-81.311265,29.007711]}},
{ "type": "Feature", "properties": {"Name":"De Leon Springs CDP","State":"Florida","State_Abbrev":"FL"},
"geometry":{ "type": "Point", "coordinates": [-81.351571,29.117246]}},
{ "type": "Feature", "properties": {"Name":"Delray Beach city","State":"Florida","State_Abbrev":"FL"},
"geometry":{ "type": "Point", "coordinates": [-80.09042,26.455903]}},
{ "type": "Feature", "properties": {"Name":"Deltona city","State":"Florida","State_Abbrev":"FL"},
"geometry":{ "type": "Point", "coordinates": [-81.210978,28.905121]}},
{ "type": "Feature", "properties": {"Name":"Desoto Acres CDP","State":"Florida","State_Abbrev":"FL"},
"geometry":{ "type": "Point", "coordinates": [-82.518019,27.382576]}},
{ "type": "Feature", "properties": {"Name":"Desoto Lakes CDP","State":"Florida","State_Abbrev":"FL"},
"geometry":{ "type": "Point", "coordinates": [-82.498993,27.380515]}},
{ "type": "Feature", "properties": {"Name":"Destin city","State":"Florida","State_Abbrev":"FL"},
"geometry":{ "type": "Point", "coordinates": [-86.469048,30.402932]}},
{ "type": "Feature", "properties": {"Name":"Dickerson City CDP","State":"Florida","State_Abbrev":"FL"},
"geometry":{ "type": "Point", "coordinates": [-87.06904,30.477598]}},
{ "type": "Feature", "properties": {"Name":"Dixonville CDP","State":"Florida","State_Abbrev":"FL"},
"geometry":{ "type": "Point", "coordinates": [-87.052629,30.984173]}},
{ "type": "Feature", "properties": {"Name":"Doctor Phillips CDP","State":"Florida","State_Abbrev":"FL"},
"geometry":{ "type": "Point", "coordinates": [-81.490542,28.443262]}},
{ "type": "Feature", "properties": {"Name":"Doral city","State":"Florida","State_Abbrev":"FL"},
"geometry":{ "type": "Point", "coordinates": [-80.357556,25.815956]}},
{ "type": "Feature", "properties": {"Name":"Dover CDP","State":"Florida","State_Abbrev":"FL"},
"geometry":{ "type": "Point", "coordinates": [-82.231146,27.986821]}},
{ "type": "Feature", "properties": {"Name":"Duck Key CDP","State":"Florida","State_Abbrev":"FL"},
"geometry":{ "type": "Point", "coordinates": [-80.90952,24.772765]}},
{ "type": "Feature", "properties": {"Name":"Dundee town","State":"Florida","State_Abbrev":"FL"},
"geometry":{ "type": "Point", "coordinates": [-81.603436,28.017259]}},
{ "type": "Feature", "properties": {"Name":"Dunedin city","State":"Florida","State_Abbrev":"FL"},
"geometry":{ "type": "Point", "coordinates": [-82.815358,28.025744]}},
{ "type": "Feature", "properties": {"Name":"Dunnellon city","State":"Florida","State_Abbrev":"FL"},
"geometry":{ "type": "Point", "coordinates": [-82.42538,29.059608]}},
{ "type": "Feature", "properties": {"Name":"Eagle Lake city","State":"Florida","State_Abbrev":"FL"},
"geometry":{ "type": "Point", "coordinates": [-81.755395,27.97427]}},
{ "type": "Feature", "properties": {"Name":"East Bronson CDP","State":"Florida","State_Abbrev":"FL"},
"geometry":{ "type": "Point", "coordinates": [-82.59054,29.459296]}},
{ "type": "Feature", "properties": {"Name":"East Lake CDP","State":"Florida","State_Abbrev":"FL"},
"geometry":{ "type": "Point", "coordinates": [-82.689096,28.122877]}},
{ "type": "Feature", "properties": {"Name":"East Lake-Orient Park CDP","State":"Florida","State_Abbrev":"FL"},
"geometry":{ "type": "Point", "coordinates": [-82.364705,28.004443]}},
{ "type": "Feature", "properties": {"Name":"East Milton CDP","State":"Florida","State_Abbrev":"FL"},
"geometry":{ "type": "Point", "coordinates": [-86.964336,30.617223]}},
{ "type": "Feature", "properties": {"Name":"East Palatka CDP","State":"Florida","State_Abbrev":"FL"},
"geometry":{ "type": "Point", "coordinates": [-81.599037,29.649604]}},
{ "type": "Feature", "properties": {"Name":"Eastpoint CDP","State":"Florida","State_Abbrev":"FL"},
"geometry":{ "type": "Point", "coordinates": [-84.861719,29.756671]}},
{ "type": "Feature", "properties": {"Name":"East Williston CDP","State":"Florida","State_Abbrev":"FL"},
"geometry":{ "type": "Point", "coordinates": [-82.416482,29.38835]}},
{ "type": "Feature", "properties": {"Name":"Eatonville town","State":"Florida","State_Abbrev":"FL"},
"geometry":{ "type": "Point", "coordinates": [-81.392377,28.614993]}},
{ "type": "Feature", "properties": {"Name":"Ebro town","State":"Florida","State_Abbrev":"FL"},
"geometry":{ "type": "Point", "coordinates": [-85.882013,30.437284]}},
{ "type": "Feature", "properties": {"Name":"Edgewater city","State":"Florida","State_Abbrev":"FL"},
"geometry":{ "type": "Point", "coordinates": [-80.940857,28.954439]}},
{ "type": "Feature", "properties": {"Name":"Edgewood city","State":"Florida","State_Abbrev":"FL"},
"geometry":{ "type": "Point", "coordinates": [-81.370131,28.48151]}},
{ "type": "Feature", "properties": {"Name":"Eglin AFB CDP","State":"Florida","State_Abbrev":"FL"},
"geometry":{ "type": "Point", "coordinates": [-86.55054,30.46053]}},
{ "type": "Feature", "properties": {"Name":"Egypt Lake-Leto CDP","State":"Florida","State_Abbrev":"FL"},
"geometry":{ "type": "Point", "coordinates": [-82.506141,28.017322]}},
{ "type": "Feature", "properties": {"Name":"Elfers CDP","State":"Florida","State_Abbrev":"FL"},
"geometry":{ "type": "Point", "coordinates": [-82.722074,28.21387]}},
{ "type": "Feature", "properties": {"Name":"Ellenton CDP","State":"Florida","State_Abbrev":"FL"},
"geometry":{ "type": "Point", "coordinates": [-82.526683,27.52658]}},
{ "type": "Feature", "properties": {"Name":"El Portal village","State":"Florida","State_Abbrev":"FL"},
"geometry":{ "type": "Point", "coordinates": [-80.196161,25.855316]}},
{ "type": "Feature", "properties": {"Name":"Englewood CDP","State":"Florida","State_Abbrev":"FL"},
"geometry":{ "type": "Point", "coordinates": [-82.347886,26.96868]}},
{ "type": "Feature", "properties": {"Name":"Ensley CDP","State":"Florida","State_Abbrev":"FL"},
"geometry":{ "type": "Point", "coordinates": [-87.272268,30.525954]}},
{ "type": "Feature", "properties": {"Name":"Estero village","State":"Florida","State_Abbrev":"FL"},
"geometry":{ "type": "Point", "coordinates": [-81.799539,26.425585]}},
{ "type": "Feature", "properties": {"Name":"Esto town","State":"Florida","State_Abbrev":"FL"},
"geometry":{ "type": "Point", "coordinates": [-85.642959,30.981662]}},
{ "type": "Feature", "properties": {"Name":"Eustis city","State":"Florida","State_Abbrev":"FL"},
"geometry":{ "type": "Point", "coordinates": [-81.676824,28.857172]}},
{ "type": "Feature", "properties": {"Name":"Everglades city","State":"Florida","State_Abbrev":"FL"},
"geometry":{ "type": "Point", "coordinates": [-81.386481,25.857784]}},
{ "type": "Feature", "properties": {"Name":"Fairview Shores CDP","State":"Florida","State_Abbrev":"FL"},
"geometry":{ "type": "Point", "coordinates": [-81.397751,28.60048]}},
{ "type": "Feature", "properties": {"Name":"Fanning Springs city","State":"Florida","State_Abbrev":"FL"},
"geometry":{ "type": "Point", "coordinates": [-82.92507,29.58815]}},
{ "type": "Feature", "properties": {"Name":"Feather Sound CDP","State":"Florida","State_Abbrev":"FL"},
"geometry":{ "type": "Point", "coordinates": [-82.688765,27.910022]}},
{ "type": "Feature", "properties": {"Name":"Fellsmere city","State":"Florida","State_Abbrev":"FL"},
"geometry":{ "type": "Point", "coordinates": [-80.609944,27.721191]}},
{ "type": "Feature", "properties": {"Name":"Fernandina Beach city","State":"Florida","State_Abbrev":"FL"},
"geometry":{ "type": "Point", "coordinates": [-81.45152,30.65813]}},
{ "type": "Feature", "properties": {"Name":"Ferndale CDP","State":"Florida","State_Abbrev":"FL"},
"geometry":{ "type": "Point", "coordinates": [-81.692856,28.619512]}},
{ "type": "Feature", "properties": {"Name":"Fern Park CDP","State":"Florida","State_Abbrev":"FL"},
"geometry":{ "type": "Point", "coordinates": [-81.345571,28.648192]}},
{ "type": "Feature", "properties": {"Name":"Ferry Pass CDP","State":"Florida","State_Abbrev":"FL"},
"geometry":{ "type": "Point", "coordinates": [-87.186351,30.521127]}},
{ "type": "Feature", "properties": {"Name":"Fidelis CDP","State":"Florida","State_Abbrev":"FL"},
"geometry":{ "type": "Point", "coordinates": [-87.030735,30.930497]}},
{ "type": "Feature", "properties": {"Name":"Fisher Island CDP","State":"Florida","State_Abbrev":"FL"},
"geometry":{ "type": "Point", "coordinates": [-80.142283,25.761725]}},
{ "type": "Feature", "properties": {"Name":"Fish Hawk CDP","State":"Florida","State_Abbrev":"FL"},
"geometry":{ "type": "Point", "coordinates": [-82.21509,27.849253]}},
{ "type": "Feature", "properties": {"Name":"Five Points CDP","State":"Florida","State_Abbrev":"FL"},
"geometry":{ "type": "Point", "coordinates": [-82.644755,30.22013]}},
{ "type": "Feature", "properties": {"Name":"Flagler Beach city","State":"Florida","State_Abbrev":"FL"},
"geometry":{ "type": "Point", "coordinates": [-81.13102,29.473852]}},
{ "type": "Feature", "properties": {"Name":"Flagler Estates CDP","State":"Florida","State_Abbrev":"FL"},
"geometry":{ "type": "Point", "coordinates": [-81.457729,29.648445]}},
{ "type": "Feature", "properties": {"Name":"Fleming Island CDP","State":"Florida","State_Abbrev":"FL"},
"geometry":{ "type": "Point", "coordinates": [-81.711918,30.099018]}},
{ "type": "Feature", "properties": {"Name":"Floral City CDP","State":"Florida","State_Abbrev":"FL"},
"geometry":{ "type": "Point", "coordinates": [-82.306726,28.70668]}},
{ "type": "Feature", "properties": {"Name":"Florida City city","State":"Florida","State_Abbrev":"FL"},
"geometry":{ "type": "Point", "coordinates": [-80.467665,25.444071]}},
{ "type": "Feature", "properties": {"Name":"Florida Gulf Coast University CDP","State":"Florida","State_Abbrev":"FL"},
"geometry":{ "type": "Point", "coordinates": [-81.763678,26.46768]}},
{ "type": "Feature", "properties": {"Name":"Florida Ridge CDP","State":"Florida","State_Abbrev":"FL"},
"geometry":{ "type": "Point", "coordinates": [-80.383467,27.583462]}},
{ "type": "Feature", "properties": {"Name":"Floridatown CDP","State":"Florida","State_Abbrev":"FL"},
"geometry":{ "type": "Point", "coordinates": [-87.160944,30.582419]}},
{ "type": "Feature", "properties": {"Name":"Forest City CDP","State":"Florida","State_Abbrev":"FL"},
"geometry":{ "type": "Point", "coordinates": [-81.444877,28.661479]}},
{ "type": "Feature", "properties": {"Name":"Fort Braden CDP","State":"Florida","State_Abbrev":"FL"},
"geometry":{ "type": "Point", "coordinates": [-84.542655,30.426034]}},
{ "type": "Feature", "properties": {"Name":"Fort Denaud CDP","State":"Florida","State_Abbrev":"FL"},
"geometry":{ "type": "Point", "coordinates": [-81.554106,26.72271]}},
{ "type": "Feature", "properties": {"Name":"Fort Green CDP","State":"Florida","State_Abbrev":"FL"},
"geometry":{ "type": "Point", "coordinates": [-81.939711,27.625455]}},
{ "type": "Feature", "properties": {"Name":"Fort Green Springs CDP","State":"Florida","State_Abbrev":"FL"},
"geometry":{ "type": "Point", "coordinates": [-81.940198,27.587623]}},
{ "type": "Feature", "properties": {"Name":"Fort Lauderdale city","State":"Florida","State_Abbrev":"FL"},
"geometry":{ "type": "Point", "coordinates": [-80.146731,26.141227]}},
{ "type": "Feature", "properties": {"Name":"Fort Meade city","State":"Florida","State_Abbrev":"FL"},
"geometry":{ "type": "Point", "coordinates": [-81.805464,27.765879]}},
{ "type": "Feature", "properties": {"Name":"Fort Myers city","State":"Florida","State_Abbrev":"FL"},
"geometry":{ "type": "Point", "coordinates": [-81.829547,26.620074]}},
{ "type": "Feature", "properties": {"Name":"Fort Myers Beach town","State":"Florida","State_Abbrev":"FL"},
"geometry":{ "type": "Point", "coordinates": [-81.91404,26.430176]}},
{ "type": "Feature", "properties": {"Name":"Fort Myers Shores CDP","State":"Florida","State_Abbrev":"FL"},
"geometry":{ "type": "Point", "coordinates": [-81.743795,26.713889]}},
{ "type": "Feature", "properties": {"Name":"Fort Pierce city","State":"Florida","State_Abbrev":"FL"},
"geometry":{ "type": "Point", "coordinates": [-80.342488,27.426112]}},
{ "type": "Feature", "properties": {"Name":"Fort Pierce North CDP","State":"Florida","State_Abbrev":"FL"},
"geometry":{ "type": "Point", "coordinates": [-80.359341,27.474942]}},
{ "type": "Feature", "properties": {"Name":"Fort Pierce South CDP","State":"Florida","State_Abbrev":"FL"},
"geometry":{ "type": "Point", "coordinates": [-80.354068,27.409718]}},
{ "type": "Feature", "properties": {"Name":"Fort Walton Beach city","State":"Florida","State_Abbrev":"FL"},
"geometry":{ "type": "Point", "coordinates": [-86.621762,30.424904]}},
{ "type": "Feature", "properties": {"Name":"Fort White town","State":"Florida","State_Abbrev":"FL"},
"geometry":{ "type": "Point", "coordinates": [-82.713558,29.92243]}},
{ "type": "Feature", "properties": {"Name":"Fountainebleau CDP","State":"Florida","State_Abbrev":"FL"},
"geometry":{ "type": "Point", "coordinates": [-80.346246,25.772279]}},
{ "type": "Feature", "properties": {"Name":"Four Corners CDP","State":"Florida","State_Abbrev":"FL"},
"geometry":{ "type": "Point", "coordinates": [-81.647492,28.333179]}},
{ "type": "Feature", "properties": {"Name":"Franklin Park CDP","State":"Florida","State_Abbrev":"FL"},
"geometry":{ "type": "Point", "coordinates": [-80.176326,26.132652]}},
{ "type": "Feature", "properties": {"Name":"Freeport city","State":"Florida","State_Abbrev":"FL"},
"geometry":{ "type": "Point", "coordinates": [-86.136241,30.515421]}},
{ "type": "Feature", "properties": {"Name":"Frostproof city","State":"Florida","State_Abbrev":"FL"},
"geometry":{ "type": "Point", "coordinates": [-81.524351,27.750043]}},
{ "type": "Feature", "properties": {"Name":"Fruit Cove CDP","State":"Florida","State_Abbrev":"FL"},
"geometry":{ "type": "Point", "coordinates": [-81.621051,30.096829]}},
{ "type": "Feature", "properties": {"Name":"Fruitland Park city","State":"Florida","State_Abbrev":"FL"},
"geometry":{ "type": "Point", "coordinates": [-81.936899,28.849595]}},
{ "type": "Feature", "properties": {"Name":"Fruitville CDP","State":"Florida","State_Abbrev":"FL"},
"geometry":{ "type": "Point", "coordinates": [-82.459479,27.332867]}},
{ "type": "Feature", "properties": {"Name":"Fuller Heights CDP","State":"Florida","State_Abbrev":"FL"},
"geometry":{ "type": "Point", "coordinates": [-81.996569,27.923312]}},
{ "type": "Feature", "properties": {"Name":"Fussels Corner CDP","State":"Florida","State_Abbrev":"FL"},
"geometry":{ "type": "Point", "coordinates": [-81.860679,28.057629]}},
{ "type": "Feature", "properties": {"Name":"Gainesville city","State":"Florida","State_Abbrev":"FL"},
"geometry":{ "type": "Point", "coordinates": [-82.346793,29.679537]}},
{ "type": "Feature", "properties": {"Name":"Garcon Point CDP","State":"Florida","State_Abbrev":"FL"},
"geometry":{ "type": "Point", "coordinates": [-87.085947,30.476311]}},
{ "type": "Feature", "properties": {"Name":"Garden Grove CDP","State":"Florida","State_Abbrev":"FL"},
"geometry":{ "type": "Point", "coordinates": [-82.434493,28.471735]}},
{ "type": "Feature", "properties": {"Name":"Gardner CDP","State":"Florida","State_Abbrev":"FL"},
"geometry":{ "type": "Point", "coordinates": [-81.786258,27.36299]}},
{ "type": "Feature", "properties": {"Name":"Gateway CDP","State":"Florida","State_Abbrev":"FL"},
"geometry":{ "type": "Point", "coordinates": [-81.747645,26.580042]}},
{ "type": "Feature", "properties": {"Name":"Geneva CDP","State":"Florida","State_Abbrev":"FL"},
"geometry":{ "type": "Point", "coordinates": [-81.116237,28.736626]}},
{ "type": "Feature", "properties": {"Name":"Gibsonton CDP","State":"Florida","State_Abbrev":"FL"},
"geometry":{ "type": "Point", "coordinates": [-82.379282,27.827564]}},
{ "type": "Feature", "properties": {"Name":"Gifford CDP","State":"Florida","State_Abbrev":"FL"},
"geometry":{ "type": "Point", "coordinates": [-80.425157,27.675621]}},
{ "type": "Feature", "properties": {"Name":"Gladeview CDP","State":"Florida","State_Abbrev":"FL"},
"geometry":{ "type": "Point", "coordinates": [-80.238852,25.839908]}},
{ "type": "Feature", "properties": {"Name":"Glencoe CDP","State":"Florida","State_Abbrev":"FL"},
"geometry":{ "type": "Point", "coordinates": [-80.969962,29.015674]}},
{ "type": "Feature", "properties": {"Name":"Glen Ridge town","State":"Florida","State_Abbrev":"FL"},
"geometry":{ "type": "Point", "coordinates": [-80.076686,26.67213]}},
{ "type": "Feature", "properties": {"Name":"Glen St. Mary town","State":"Florida","State_Abbrev":"FL"},
"geometry":{ "type": "Point", "coordinates": [-82.160296,30.275166]}},
{ "type": "Feature", "properties": {"Name":"Glenvar Heights CDP","State":"Florida","State_Abbrev":"FL"},
"geometry":{ "type": "Point", "coordinates": [-80.315857,25.709369]}},
{ "type": "Feature", "properties": {"Name":"Golden Beach town","State":"Florida","State_Abbrev":"FL"},
"geometry":{ "type": "Point", "coordinates": [-80.122149,25.963274]}},
{ "type": "Feature", "properties": {"Name":"Golden Gate CDP","State":"Florida","State_Abbrev":"FL"},
"geometry":{ "type": "Point", "coordinates": [-81.703694,26.183598]}},
{ "type": "Feature", "properties": {"Name":"Golden Glades CDP","State":"Florida","State_Abbrev":"FL"},
"geometry":{ "type": "Point", "coordinates": [-80.200668,25.913038]}},
{ "type": "Feature", "properties": {"Name":"Goldenrod CDP","State":"Florida","State_Abbrev":"FL"},
"geometry":{ "type": "Point", "coordinates": [-81.291229,28.611918]}},
{ "type": "Feature", "properties": {"Name":"Golf village","State":"Florida","State_Abbrev":"FL"},
"geometry":{ "type": "Point", "coordinates": [-80.105766,26.50286]}},
{ "type": "Feature", "properties": {"Name":"Gonzalez CDP","State":"Florida","State_Abbrev":"FL"},
"geometry":{ "type": "Point", "coordinates": [-87.286299,30.588748]}},
{ "type": "Feature", "properties": {"Name":"Goodland CDP","State":"Florida","State_Abbrev":"FL"},
"geometry":{ "type": "Point", "coordinates": [-81.647592,25.925252]}},
{ "type": "Feature", "properties": {"Name":"Gotha CDP","State":"Florida","State_Abbrev":"FL"},
"geometry":{ "type": "Point", "coordinates": [-81.516577,28.530986]}},
{ "type": "Feature", "properties": {"Name":"Goulding CDP","State":"Florida","State_Abbrev":"FL"},
"geometry":{ "type": "Point", "coordinates": [-87.229479,30.439911]}},
{ "type": "Feature", "properties": {"Name":"Goulds CDP","State":"Florida","State_Abbrev":"FL"},
"geometry":{ "type": "Point", "coordinates": [-80.388073,25.561249]}},
{ "type": "Feature", "properties": {"Name":"Graceville city","State":"Florida","State_Abbrev":"FL"},
"geometry":{ "type": "Point", "coordinates": [-85.512828,30.960272]}},
{ "type": "Feature", "properties": {"Name":"Grand Ridge town","State":"Florida","State_Abbrev":"FL"},
"geometry":{ "type": "Point", "coordinates": [-85.022609,30.70411]}},
{ "type": "Feature", "properties": {"Name":"Grant-Valkaria town","State":"Florida","State_Abbrev":"FL"},
"geometry":{ "type": "Point", "coordinates": [-80.565885,27.934301]}},
{ "type": "Feature", "properties": {"Name":"Greenacres city","State":"Florida","State_Abbrev":"FL"},
"geometry":{ "type": "Point", "coordinates": [-80.13761,26.627009]}},
{ "type": "Feature", "properties": {"Name":"Greenbriar CDP","State":"Florida","State_Abbrev":"FL"},
"geometry":{ "type": "Point", "coordinates": [-82.752725,28.011284]}},
{ "type": "Feature", "properties": {"Name":"Green Cove Springs city","State":"Florida","State_Abbrev":"FL"},
"geometry":{ "type": "Point", "coordinates": [-81.680979,29.985312]}},
{ "type": "Feature", "properties": {"Name":"Greensboro town","State":"Florida","State_Abbrev":"FL"},
"geometry":{ "type": "Point", "coordinates": [-84.72287,30.570966]}},
{ "type": "Feature", "properties": {"Name":"Greenville town","State":"Florida","State_Abbrev":"FL"},
"geometry":{ "type": "Point", "coordinates": [-83.635254,30.466762]}},
{ "type": "Feature", "properties": {"Name":"Greenwood town","State":"Florida","State_Abbrev":"FL"},
"geometry":{ "type": "Point", "coordinates": [-85.161169,30.872685]}},
{ "type": "Feature", "properties": {"Name":"Grenelefe CDP","State":"Florida","State_Abbrev":"FL"},
"geometry":{ "type": "Point", "coordinates": [-81.547436,28.049204]}},
{ "type": "Feature", "properties": {"Name":"Gretna city","State":"Florida","State_Abbrev":"FL"},
"geometry":{ "type": "Point", "coordinates": [-84.710972,30.579594]}},
{ "type": "Feature", "properties": {"Name":"Grove City CDP","State":"Florida","State_Abbrev":"FL"},
"geometry":{ "type": "Point", "coordinates": [-82.326071,26.906715]}},
{ "type": "Feature", "properties": {"Name":"Groveland city","State":"Florida","State_Abbrev":"FL"},
"geometry":{ "type": "Point", "coordinates": [-81.827086,28.610215]}},
{ "type": "Feature", "properties": {"Name":"Gulf Breeze city","State":"Florida","State_Abbrev":"FL"},
"geometry":{ "type": "Point", "coordinates": [-87.173449,30.368257]}},
{ "type": "Feature", "properties": {"Name":"Gulf Gate CDP","State":"Florida","State_Abbrev":"FL"},
"geometry":{ "type": "Point", "coordinates": [-82.507551,27.257722]}},
{ "type": "Feature", "properties": {"Name":"Gulfport city","State":"Florida","State_Abbrev":"FL"},
"geometry":{ "type": "Point", "coordinates": [-82.709943,27.746437]}},
{ "type": "Feature", "properties": {"Name":"Gulf Stream town","State":"Florida","State_Abbrev":"FL"},
"geometry":{ "type": "Point", "coordinates": [-80.057414,26.486008]}},
{ "type": "Feature", "properties": {"Name":"Gun Club Estates CDP","State":"Florida","State_Abbrev":"FL"},
"geometry":{ "type": "Point", "coordinates": [-80.108413,26.67535]}},
{ "type": "Feature", "properties": {"Name":"Haines City city","State":"Florida","State_Abbrev":"FL"},
"geometry":{ "type": "Point", "coordinates": [-81.616537,28.112817]}},
{ "type": "Feature", "properties": {"Name":"Hallandale Beach city","State":"Florida","State_Abbrev":"FL"},
"geometry":{ "type": "Point", "coordinates": [-80.140766,25.983955]}},
{ "type": "Feature", "properties": {"Name":"Hampton city","State":"Florida","State_Abbrev":"FL"},
"geometry":{ "type": "Point", "coordinates": [-82.138025,29.864296]}},
{ "type": "Feature", "properties": {"Name":"Harbor Bluffs CDP","State":"Florida","State_Abbrev":"FL"},
"geometry":{ "type": "Point", "coordinates": [-82.826538,27.907816]}},
{ "type": "Feature", "properties": {"Name":"Harbour Heights CDP","State":"Florida","State_Abbrev":"FL"},
"geometry":{ "type": "Point", "coordinates": [-82.005987,26.992987]}},
{ "type": "Feature", "properties": {"Name":"Harlem CDP","State":"Florida","State_Abbrev":"FL"},
"geometry":{ "type": "Point", "coordinates": [-80.951845,26.73237]}},
{ "type": "Feature", "properties": {"Name":"Harlem Heights CDP","State":"Florida","State_Abbrev":"FL"},
"geometry":{ "type": "Point", "coordinates": [-81.928186,26.515132]}},
{ "type": "Feature", "properties": {"Name":"Harold CDP","State":"Florida","State_Abbrev":"FL"},
"geometry":{ "type": "Point", "coordinates": [-86.847369,30.673827]}},
{ "type": "Feature", "properties": {"Name":"Hastings CDP","State":"Florida","State_Abbrev":"FL"},
"geometry":{ "type": "Point", "coordinates": [-81.499154,29.71439]}},
{ "type": "Feature", "properties": {"Name":"Havana town","State":"Florida","State_Abbrev":"FL"},
"geometry":{ "type": "Point", "coordinates": [-84.413796,30.630326]}},
{ "type": "Feature", "properties": {"Name":"Haverhill town","State":"Florida","State_Abbrev":"FL"},
"geometry":{ "type": "Point", "coordinates": [-80.121683,26.690976]}},
{ "type": "Feature", "properties": {"Name":"Hawthorne city","State":"Florida","State_Abbrev":"FL"},
"geometry":{ "type": "Point", "coordinates": [-82.094467,29.593677]}},
{ "type": "Feature", "properties": {"Name":"Heathrow CDP","State":"Florida","State_Abbrev":"FL"},
"geometry":{ "type": "Point", "coordinates": [-81.371052,28.778682]}},
{ "type": "Feature", "properties": {"Name":"Heritage Bay CDP","State":"Florida","State_Abbrev":"FL"},
"geometry":{ "type": "Point", "coordinates": [-81.662408,26.28453]}},
{ "type": "Feature", "properties": {"Name":"Heritage Pines CDP","State":"Florida","State_Abbrev":"FL"},
"geometry":{ "type": "Point", "coordinates": [-82.623382,28.428758]}},
{ "type": "Feature", "properties": {"Name":"Hernando CDP","State":"Florida","State_Abbrev":"FL"},
"geometry":{ "type": "Point", "coordinates": [-82.393459,28.954529]}},
{ "type": "Feature", "properties": {"Name":"Hernando Beach CDP","State":"Florida","State_Abbrev":"FL"},
"geometry":{ "type": "Point", "coordinates": [-82.667265,28.468093]}},
{ "type": "Feature", "properties": {"Name":"Hialeah city","State":"Florida","State_Abbrev":"FL"},
"geometry":{ "type": "Point", "coordinates": [-80.302865,25.869941]}},
{ "type": "Feature", "properties": {"Name":"Hialeah Gardens city","State":"Florida","State_Abbrev":"FL"},
"geometry":{ "type": "Point", "coordinates": [-80.356925,25.887713]}},
{ "type": "Feature", "properties": {"Name":"Highland Beach town","State":"Florida","State_Abbrev":"FL"},
"geometry":{ "type": "Point", "coordinates": [-80.064352,26.411621]}},
{ "type": "Feature", "properties": {"Name":"Highland City CDP","State":"Florida","State_Abbrev":"FL"},
"geometry":{ "type": "Point", "coordinates": [-81.878623,27.963473]}},
{ "type": "Feature", "properties": {"Name":"Highland Park village","State":"Florida","State_Abbrev":"FL"},
"geometry":{ "type": "Point", "coordinates": [-81.566374,27.862111]}},
{ "type": "Feature", "properties": {"Name":"High Point CDP","State":"Florida","State_Abbrev":"FL"},
"geometry":{ "type": "Point", "coordinates": [-82.520941,28.547252]}},
{ "type": "Feature", "properties": {"Name":"High Springs city","State":"Florida","State_Abbrev":"FL"},
"geometry":{ "type": "Point", "coordinates": [-82.589322,29.799634]}},
{ "type": "Feature", "properties": {"Name":"Hillcrest Heights town","State":"Florida","State_Abbrev":"FL"},
"geometry":{ "type": "Point", "coordinates": [-81.536196,27.824864]}},
{ "type": "Feature", "properties": {"Name":"Hilliard town","State":"Florida","State_Abbrev":"FL"},
"geometry":{ "type": "Point", "coordinates": [-81.921197,30.686551]}},
{ "type": "Feature", "properties": {"Name":"Hill 'n Dale CDP","State":"Florida","State_Abbrev":"FL"},
"geometry":{ "type": "Point", "coordinates": [-82.29086,28.513764]}},
{ "type": "Feature", "properties": {"Name":"Hillsboro Beach town","State":"Florida","State_Abbrev":"FL"},
"geometry":{ "type": "Point", "coordinates": [-80.079208,26.281529]}},
{ "type": "Feature", "properties": {"Name":"Hillsboro Pines CDP","State":"Florida","State_Abbrev":"FL"},
"geometry":{ "type": "Point", "coordinates": [-80.192141,26.325108]}},
{ "type": "Feature", "properties": {"Name":"Hobe Sound CDP","State":"Florida","State_Abbrev":"FL"},
"geometry":{ "type": "Point", "coordinates": [-80.142367,27.072663]}},
{ "type": "Feature", "properties": {"Name":"Holden Heights CDP","State":"Florida","State_Abbrev":"FL"},
"geometry":{ "type": "Point", "coordinates": [-81.400187,28.51954]}},
{ "type": "Feature", "properties": {"Name":"Holden Lakes CDP","State":"Florida","State_Abbrev":"FL"},
"geometry":{ "type": "Point", "coordinates": [-81.384594,28.498555]}},
{ "type": "Feature", "properties": {"Name":"Holiday CDP","State":"Florida","State_Abbrev":"FL"},
"geometry":{ "type": "Point", "coordinates": [-82.742637,28.186216]}},
{ "type": "Feature", "properties": {"Name":"Holley CDP","State":"Florida","State_Abbrev":"FL"},
"geometry":{ "type": "Point", "coordinates": [-86.904342,30.452894]}},
{ "type": "Feature", "properties": {"Name":"Holly Hill city","State":"Florida","State_Abbrev":"FL"},
"geometry":{ "type": "Point", "coordinates": [-81.047045,29.245606]}},
{ "type": "Feature", "properties": {"Name":"Hollywood city","State":"Florida","State_Abbrev":"FL"},
"geometry":{ "type": "Point", "coordinates": [-80.164609,26.030967]}},
{ "type": "Feature", "properties": {"Name":"Holmes Beach city","State":"Florida","State_Abbrev":"FL"},
"geometry":{ "type": "Point", "coordinates": [-82.715538,27.510568]}},
{ "type": "Feature", "properties": {"Name":"Homeland CDP","State":"Florida","State_Abbrev":"FL"},
"geometry":{ "type": "Point", "coordinates": [-81.826981,27.818138]}},
{ "type": "Feature", "properties": {"Name":"Homestead city","State":"Florida","State_Abbrev":"FL"},
"geometry":{ "type": "Point", "coordinates": [-80.443046,25.466326]}},
{ "type": "Feature", "properties": {"Name":"Homestead Base CDP","State":"Florida","State_Abbrev":"FL"},
"geometry":{ "type": "Point", "coordinates": [-80.39022,25.49328]}},
{ "type": "Feature", "properties": {"Name":"Homosassa CDP","State":"Florida","State_Abbrev":"FL"},
"geometry":{ "type": "Point", "coordinates": [-82.607604,28.784867]}},
{ "type": "Feature", "properties": {"Name":"Homosassa Springs CDP","State":"Florida","State_Abbrev":"FL"},
"geometry":{ "type": "Point", "coordinates": [-82.540848,28.809314]}},
{ "type": "Feature", "properties": {"Name":"Horizon West CDP","State":"Florida","State_Abbrev":"FL"},
"geometry":{ "type": "Point", "coordinates": [-81.613449,28.44022]}},
{ "type": "Feature", "properties": {"Name":"Horseshoe Beach town","State":"Florida","State_Abbrev":"FL"},
"geometry":{ "type": "Point", "coordinates": [-83.288445,29.443609]}},
{ "type": "Feature", "properties": {"Name":"Hosford CDP","State":"Florida","State_Abbrev":"FL"},
"geometry":{ "type": "Point", "coordinates": [-84.808087,30.403387]}},
{ "type": "Feature", "properties": {"Name":"Howey-in-the-Hills town","State":"Florida","State_Abbrev":"FL"},
"geometry":{ "type": "Point", "coordinates": [-81.784045,28.704409]}},
{ "type": "Feature", "properties": {"Name":"Hudson CDP","State":"Florida","State_Abbrev":"FL"},
"geometry":{ "type": "Point", "coordinates": [-82.689659,28.359232]}},
{ "type": "Feature", "properties": {"Name":"Hunters Creek CDP","State":"Florida","State_Abbrev":"FL"},
"geometry":{ "type": "Point", "coordinates": [-81.437045,28.359757]}},
{ "type": "Feature", "properties": {"Name":"Hurlburt Field CDP","State":"Florida","State_Abbrev":"FL"},
"geometry":{ "type": "Point", "coordinates": [-86.719287,30.426372]}},
{ "type": "Feature", "properties": {"Name":"Hutchinson Island South CDP","State":"Florida","State_Abbrev":"FL"},
"geometry":{ "type": "Point", "coordinates": [-80.220243,27.305322]}},
{ "type": "Feature", "properties": {"Name":"Hypoluxo town","State":"Florida","State_Abbrev":"FL"},
"geometry":{ "type": "Point", "coordinates": [-80.051812,26.567253]}},
{ "type": "Feature", "properties": {"Name":"Immokalee CDP","State":"Florida","State_Abbrev":"FL"},
"geometry":{ "type": "Point", "coordinates": [-81.421556,26.424012]}},
{ "type": "Feature", "properties": {"Name":"Indialantic town","State":"Florida","State_Abbrev":"FL"},
"geometry":{ "type": "Point", "coordinates": [-80.568302,28.08622]}},
{ "type": "Feature", "properties": {"Name":"Indian Creek village","State":"Florida","State_Abbrev":"FL"},
"geometry":{ "type": "Point", "coordinates": [-80.137303,25.877871]}},
{ "type": "Feature", "properties": {"Name":"Indian Harbour Beach city","State":"Florida","State_Abbrev":"FL"},
"geometry":{ "type": "Point", "coordinates": [-80.600147,28.157468]}},
{ "type": "Feature", "properties": {"Name":"Indian Lake Estates CDP","State":"Florida","State_Abbrev":"FL"},
"geometry":{ "type": "Point", "coordinates": [-81.356231,27.798648]}},
{ "type": "Feature", "properties": {"Name":"Indian River Estates CDP","State":"Florida","State_Abbrev":"FL"},
"geometry":{ "type": "Point", "coordinates": [-80.298032,27.355216]}},
{ "type": "Feature", "properties": {"Name":"Indian River Shores town","State":"Florida","State_Abbrev":"FL"},
"geometry":{ "type": "Point", "coordinates": [-80.382032,27.710084]}},
{ "type": "Feature", "properties": {"Name":"Indian Rocks Beach city","State":"Florida","State_Abbrev":"FL"},
"geometry":{ "type": "Point", "coordinates": [-82.846238,27.895812]}},
{ "type": "Feature", "properties": {"Name":"Indian Shores town","State":"Florida","State_Abbrev":"FL"},
"geometry":{ "type": "Point", "coordinates": [-82.844616,27.853154]}},
{ "type": "Feature", "properties": {"Name":"Indiantown village","State":"Florida","State_Abbrev":"FL"},
"geometry":{ "type": "Point", "coordinates": [-80.488242,27.040053]}},
{ "type": "Feature", "properties": {"Name":"Inglis town","State":"Florida","State_Abbrev":"FL"},
"geometry":{ "type": "Point", "coordinates": [-82.661004,29.033046]}},
{ "type": "Feature", "properties": {"Name":"Interlachen town","State":"Florida","State_Abbrev":"FL"},
"geometry":{ "type": "Point", "coordinates": [-81.894733,29.622267]}},
{ "type": "Feature", "properties": {"Name":"Inverness city","State":"Florida","State_Abbrev":"FL"},
"geometry":{ "type": "Point", "coordinates": [-82.342295,28.84221]}},
{ "type": "Feature", "properties": {"Name":"Inverness Highlands North CDP","State":"Florida","State_Abbrev":"FL"},
"geometry":{ "type": "Point", "coordinates": [-82.376959,28.864505]}},
{ "type": "Feature", "properties": {"Name":"Inverness Highlands South CDP","State":"Florida","State_Abbrev":"FL"},
"geometry":{ "type": "Point", "coordinates": [-82.337182,28.800689]}},
{ "type": "Feature", "properties": {"Name":"Inwood CDP","State":"Florida","State_Abbrev":"FL"},
"geometry":{ "type": "Point", "coordinates": [-81.767361,28.038474]}},
{ "type": "Feature", "properties": {"Name":"Iona CDP","State":"Florida","State_Abbrev":"FL"},
"geometry":{ "type": "Point", "coordinates": [-81.960811,26.51719]}},
{ "type": "Feature", "properties": {"Name":"Islamorada, Village of Islands village","State":"Florida","State_Abbrev":"FL"},
"geometry":{ "type": "Point", "coordinates": [-80.543296,24.984352]}},
{ "type": "Feature", "properties": {"Name":"Island Walk CDP","State":"Florida","State_Abbrev":"FL"},
"geometry":{ "type": "Point", "coordinates": [-81.710982,26.25103]}},
{ "type": "Feature", "properties": {"Name":"Istachatta CDP","State":"Florida","State_Abbrev":"FL"},
"geometry":{ "type": "Point", "coordinates": [-82.274532,28.661859]}},
{ "type": "Feature", "properties": {"Name":"Ives Estates CDP","State":"Florida","State_Abbrev":"FL"},
"geometry":{ "type": "Point", "coordinates": [-80.182871,25.963406]}},
{ "type": "Feature", "properties": {"Name":"Jacksonville city","State":"Florida","State_Abbrev":"FL"},
"geometry":{ "type": "Point", "coordinates": [-81.661603,30.336864]}},
{ "type": "Feature", "properties": {"Name":"Jacksonville Beach city","State":"Florida","State_Abbrev":"FL"},
"geometry":{ "type": "Point", "coordinates": [-81.385604,30.272466]}},
{ "type": "Feature", "properties": {"Name":"Jacob City city","State":"Florida","State_Abbrev":"FL"},
"geometry":{ "type": "Point", "coordinates": [-85.413569,30.885534]}},
{ "type": "Feature", "properties": {"Name":"Jan Phyl Village CDP","State":"Florida","State_Abbrev":"FL"},
"geometry":{ "type": "Point", "coordinates": [-81.793764,28.016212]}},
{ "type": "Feature", "properties": {"Name":"Jasmine Estates CDP","State":"Florida","State_Abbrev":"FL"},
"geometry":{ "type": "Point", "coordinates": [-82.689171,28.296095]}},
{ "type": "Feature", "properties": {"Name":"Jasper city","State":"Florida","State_Abbrev":"FL"},
"geometry":{ "type": "Point", "coordinates": [-82.934214,30.455935]}},
{ "type": "Feature", "properties": {"Name":"Jay town","State":"Florida","State_Abbrev":"FL"},
"geometry":{ "type": "Point", "coordinates": [-87.152265,30.950365]}},
{ "type": "Feature", "properties": {"Name":"Jennings town","State":"Florida","State_Abbrev":"FL"},
"geometry":{ "type": "Point", "coordinates": [-83.106994,30.596821]}},
{ "type": "Feature", "properties": {"Name":"Jensen Beach CDP","State":"Florida","State_Abbrev":"FL"},
"geometry":{ "type": "Point", "coordinates": [-80.241136,27.24398]}},
{ "type": "Feature", "properties": {"Name":"June Park CDP","State":"Florida","State_Abbrev":"FL"},
"geometry":{ "type": "Point", "coordinates": [-80.687788,28.071734]}},
{ "type": "Feature", "properties": {"Name":"Juno Beach town","State":"Florida","State_Abbrev":"FL"},
"geometry":{ "type": "Point", "coordinates": [-80.059625,26.875457]}},
{ "type": "Feature", "properties": {"Name":"Juno Ridge CDP","State":"Florida","State_Abbrev":"FL"},
"geometry":{ "type": "Point", "coordinates": [-80.062029,26.849018]}},
{ "type": "Feature", "properties": {"Name":"Jupiter town","State":"Florida","State_Abbrev":"FL"},
"geometry":{ "type": "Point", "coordinates": [-80.11694,26.918551]}},
{ "type": "Feature", "properties": {"Name":"Jupiter Farms CDP","State":"Florida","State_Abbrev":"FL"},
"geometry":{ "type": "Point", "coordinates": [-80.218037,26.922525]}},
{ "type": "Feature", "properties": {"Name":"Jupiter Inlet Colony town","State":"Florida","State_Abbrev":"FL"},
"geometry":{ "type": "Point", "coordinates": [-80.075174,26.947962]}},
{ "type": "Feature", "properties": {"Name":"Jupiter Island town","State":"Florida","State_Abbrev":"FL"},
"geometry":{ "type": "Point", "coordinates": [-80.101888,27.026945]}},
{ "type": "Feature", "properties": {"Name":"Kathleen CDP","State":"Florida","State_Abbrev":"FL"},
"geometry":{ "type": "Point", "coordinates": [-82.040006,28.119175]}},
{ "type": "Feature", "properties": {"Name":"Kendale Lakes CDP","State":"Florida","State_Abbrev":"FL"},
"geometry":{ "type": "Point", "coordinates": [-80.411595,25.706946]}},
{ "type": "Feature", "properties": {"Name":"Kendall CDP","State":"Florida","State_Abbrev":"FL"},
"geometry":{ "type": "Point", "coordinates": [-80.354741,25.669538]}},
{ "type": "Feature", "properties": {"Name":"Kendall West CDP","State":"Florida","State_Abbrev":"FL"},
"geometry":{ "type": "Point", "coordinates": [-80.440697,25.706816]}},
{ "type": "Feature", "properties": {"Name":"Kenneth City town","State":"Florida","State_Abbrev":"FL"},
"geometry":{ "type": "Point", "coordinates": [-82.714643,27.816064]}},
{ "type": "Feature", "properties": {"Name":"Kensington Park CDP","State":"Florida","State_Abbrev":"FL"},
"geometry":{ "type": "Point", "coordinates": [-82.494987,27.356661]}},
{ "type": "Feature", "properties": {"Name":"Kenwood Estates CDP","State":"Florida","State_Abbrev":"FL"},
"geometry":{ "type": "Point", "coordinates": [-80.115194,26.627619]}},
{ "type": "Feature", "properties": {"Name":"Key Biscayne village","State":"Florida","State_Abbrev":"FL"},
"geometry":{ "type": "Point", "coordinates": [-80.165587,25.69068]}},
{ "type": "Feature", "properties": {"Name":"Key Colony Beach city","State":"Florida","State_Abbrev":"FL"},
"geometry":{ "type": "Point", "coordinates": [-81.021325,24.721256]}},
{ "type": "Feature", "properties": {"Name":"Key Largo CDP","State":"Florida","State_Abbrev":"FL"},
"geometry":{ "type": "Point", "coordinates": [-80.411571,25.122584]}},
{ "type": "Feature", "properties": {"Name":"Keystone CDP","State":"Florida","State_Abbrev":"FL"},
"geometry":{ "type": "Point", "coordinates": [-82.608095,28.127642]}},
{ "type": "Feature", "properties": {"Name":"Keystone Heights city","State":"Florida","State_Abbrev":"FL"},
"geometry":{ "type": "Point", "coordinates": [-82.035615,29.78294]}},
{ "type": "Feature", "properties": {"Name":"Key Vista CDP","State":"Florida","State_Abbrev":"FL"},
"geometry":{ "type": "Point", "coordinates": [-82.769807,28.194078]}},
{ "type": "Feature", "properties": {"Name":"Key West city","State":"Florida","State_Abbrev":"FL"},
"geometry":{ "type": "Point", "coordinates": [-81.775539,24.565063]}},
{ "type": "Feature", "properties": {"Name":"Kissimmee city","State":"Florida","State_Abbrev":"FL"},
"geometry":{ "type": "Point", "coordinates": [-81.417831,28.30278]}},
{ "type": "Feature", "properties": {"Name":"LaBelle city","State":"Florida","State_Abbrev":"FL"},
"geometry":{ "type": "Point", "coordinates": [-81.452477,26.720952]}},
{ "type": "Feature", "properties": {"Name":"Lacoochee CDP","State":"Florida","State_Abbrev":"FL"},
"geometry":{ "type": "Point", "coordinates": [-82.170417,28.466059]}},
{ "type": "Feature", "properties": {"Name":"La Crosse town","State":"Florida","State_Abbrev":"FL"},
"geometry":{ "type": "Point", "coordinates": [-82.402638,29.850087]}},
{ "type": "Feature", "properties": {"Name":"Lady Lake town","State":"Florida","State_Abbrev":"FL"},
"geometry":{ "type": "Point", "coordinates": [-81.932759,28.919754]}},
{ "type": "Feature", "properties": {"Name":"Laguna Beach CDP","State":"Florida","State_Abbrev":"FL"},
"geometry":{ "type": "Point", "coordinates": [-85.951148,30.254727]}},
{ "type": "Feature", "properties": {"Name":"Lake Alfred city","State":"Florida","State_Abbrev":"FL"},
"geometry":{ "type": "Point", "coordinates": [-81.724834,28.098804]}},
{ "type": "Feature", "properties": {"Name":"Lake Belvedere Estates CDP","State":"Florida","State_Abbrev":"FL"},
"geometry":{ "type": "Point", "coordinates": [-80.135153,26.690674]}},
{ "type": "Feature", "properties": {"Name":"Lake Buena Vista city","State":"Florida","State_Abbrev":"FL"},
"geometry":{ "type": "Point", "coordinates": [-81.524813,28.377311]}},
{ "type": "Feature", "properties": {"Name":"Lake Butler CDP","State":"Florida","State_Abbrev":"FL"},
"geometry":{ "type": "Point", "coordinates": [-81.538656,28.482847]}},
{ "type": "Feature", "properties": {"Name":"Lake Butler city","State":"Florida","State_Abbrev":"FL"},
"geometry":{ "type": "Point", "coordinates": [-82.342644,30.018408]}},
{ "type": "Feature", "properties": {"Name":"Lake City city","State":"Florida","State_Abbrev":"FL"},
"geometry":{ "type": "Point", "coordinates": [-82.642246,30.188638]}},
{ "type": "Feature", "properties": {"Name":"Lake Clarke Shores town","State":"Florida","State_Abbrev":"FL"},
"geometry":{ "type": "Point", "coordinates": [-80.075276,26.645628]}},
{ "type": "Feature", "properties": {"Name":"Lake Hamilton town","State":"Florida","State_Abbrev":"FL"},
"geometry":{ "type": "Point", "coordinates": [-81.62685,28.049203]}},
{ "type": "Feature", "properties": {"Name":"Lake Harbor CDP","State":"Florida","State_Abbrev":"FL"},
"geometry":{ "type": "Point", "coordinates": [-80.807923,26.688498]}},
{ "type": "Feature", "properties": {"Name":"Lake Hart CDP","State":"Florida","State_Abbrev":"FL"},
"geometry":{ "type": "Point", "coordinates": [-81.231847,28.38128]}},
{ "type": "Feature", "properties": {"Name":"Lake Helen city","State":"Florida","State_Abbrev":"FL"},
"geometry":{ "type": "Point", "coordinates": [-81.231087,28.983864]}},
{ "type": "Feature", "properties": {"Name":"Lake Kathryn CDP","State":"Florida","State_Abbrev":"FL"},
"geometry":{ "type": "Point", "coordinates": [-81.488413,28.99807]}},
{ "type": "Feature", "properties": {"Name":"Lake Kerr CDP","State":"Florida","State_Abbrev":"FL"},
"geometry":{ "type": "Point", "coordinates": [-81.792387,29.349169]}},
{ "type": "Feature", "properties": {"Name":"Lakeland city","State":"Florida","State_Abbrev":"FL"},
"geometry":{ "type": "Point", "coordinates": [-81.954772,28.055496]}},
{ "type": "Feature", "properties": {"Name":"Lakeland Highlands CDP","State":"Florida","State_Abbrev":"FL"},
"geometry":{ "type": "Point", "coordinates": [-81.951054,27.957379]}},
{ "type": "Feature", "properties": {"Name":"Lake Lindsey CDP","State":"Florida","State_Abbrev":"FL"},
"geometry":{ "type": "Point", "coordinates": [-82.361693,28.632263]}},
{ "type": "Feature", "properties": {"Name":"Lake Lorraine CDP","State":"Florida","State_Abbrev":"FL"},
"geometry":{ "type": "Point", "coordinates": [-86.565364,30.440566]}},
{ "type": "Feature", "properties": {"Name":"Lake Mack-Forest Hills CDP","State":"Florida","State_Abbrev":"FL"},
"geometry":{ "type": "Point", "coordinates": [-81.406347,29.000455]}},
{ "type": "Feature", "properties": {"Name":"Lake Magdalene CDP","State":"Florida","State_Abbrev":"FL"},
"geometry":{ "type": "Point", "coordinates": [-82.484183,28.081724]}},
{ "type": "Feature", "properties": {"Name":"Lake Mary city","State":"Florida","State_Abbrev":"FL"},
"geometry":{ "type": "Point", "coordinates": [-81.332813,28.759104]}},
{ "type": "Feature", "properties": {"Name":"Lake Mary Jane CDP","State":"Florida","State_Abbrev":"FL"},
"geometry":{ "type": "Point", "coordinates": [-81.170158,28.37897]}},
{ "type": "Feature", "properties": {"Name":"Lake Mystic CDP","State":"Florida","State_Abbrev":"FL"},
"geometry":{ "type": "Point", "coordinates": [-84.991325,30.391558]}},
{ "type": "Feature", "properties": {"Name":"Lake Panasoffkee CDP","State":"Florida","State_Abbrev":"FL"},
"geometry":{ "type": "Point", "coordinates": [-82.123072,28.784289]}},
{ "type": "Feature", "properties": {"Name":"Lake Park town","State":"Florida","State_Abbrev":"FL"},
"geometry":{ "type": "Point", "coordinates": [-80.06746,26.800059]}},
{ "type": "Feature", "properties": {"Name":"Lake Placid town","State":"Florida","State_Abbrev":"FL"},
"geometry":{ "type": "Point", "coordinates": [-81.371476,27.302605]}},
{ "type": "Feature", "properties": {"Name":"Lake Sarasota CDP","State":"Florida","State_Abbrev":"FL"},
"geometry":{ "type": "Point", "coordinates": [-82.433175,27.294739]}},
{ "type": "Feature", "properties": {"Name":"Lakeside CDP","State":"Florida","State_Abbrev":"FL"},
"geometry":{ "type": "Point", "coordinates": [-81.769246,30.136548]}},
{ "type": "Feature", "properties": {"Name":"Lake Wales city","State":"Florida","State_Abbrev":"FL"},
"geometry":{ "type": "Point", "coordinates": [-81.599505,27.920697]}},
{ "type": "Feature", "properties": {"Name":"Lakewood Park CDP","State":"Florida","State_Abbrev":"FL"},
"geometry":{ "type": "Point", "coordinates": [-80.38716,27.539014]}},
{ "type": "Feature", "properties": {"Name":"Lakewood Ranch CDP","State":"Florida","State_Abbrev":"FL"},
"geometry":{ "type": "Point", "coordinates": [-82.386716,27.423532]}},
{ "type": "Feature", "properties": {"Name":"Lake Worth Beach city","State":"Florida","State_Abbrev":"FL"},
"geometry":{ "type": "Point", "coordinates": [-80.058718,26.61972]}},
{ "type": "Feature", "properties": {"Name":"Lamont CDP","State":"Florida","State_Abbrev":"FL"},
"geometry":{ "type": "Point", "coordinates": [-83.813376,30.379675]}},
{ "type": "Feature", "properties": {"Name":"Land O' Lakes CDP","State":"Florida","State_Abbrev":"FL"},
"geometry":{ "type": "Point", "coordinates": [-82.445842,28.208307]}},
{ "type": "Feature", "properties": {"Name":"Lantana town","State":"Florida","State_Abbrev":"FL"},
"geometry":{ "type": "Point", "coordinates": [-80.05538,26.58336]}},
{ "type": "Feature", "properties": {"Name":"Largo city","State":"Florida","State_Abbrev":"FL"},
"geometry":{ "type": "Point", "coordinates": [-82.767236,27.905913]}},
{ "type": "Feature", "properties": {"Name":"Lauderdale-by-the-Sea town","State":"Florida","State_Abbrev":"FL"},
"geometry":{ "type": "Point", "coordinates": [-80.09946,26.191337]}},
{ "type": "Feature", "properties": {"Name":"Lauderdale Lakes city","State":"Florida","State_Abbrev":"FL"},
"geometry":{ "type": "Point", "coordinates": [-80.200826,26.166932]}},
{ "type": "Feature", "properties": {"Name":"Lauderhill city","State":"Florida","State_Abbrev":"FL"},
"geometry":{ "type": "Point", "coordinates": [-80.224434,26.162225]}},
{ "type": "Feature", "properties": {"Name":"Laurel CDP","State":"Florida","State_Abbrev":"FL"},
"geometry":{ "type": "Point", "coordinates": [-82.455873,27.153118]}},
{ "type": "Feature", "properties": {"Name":"Laurel Hill city","State":"Florida","State_Abbrev":"FL"},
"geometry":{ "type": "Point", "coordinates": [-86.457819,30.960581]}},
{ "type": "Feature", "properties": {"Name":"Lawtey city","State":"Florida","State_Abbrev":"FL"},
"geometry":{ "type": "Point", "coordinates": [-82.072478,30.04844]}},
{ "type": "Feature", "properties": {"Name":"Layton city","State":"Florida","State_Abbrev":"FL"},
"geometry":{ "type": "Point", "coordinates": [-80.811624,24.825131]}},
{ "type": "Feature", "properties": {"Name":"Lazy Lake village","State":"Florida","State_Abbrev":"FL"},
"geometry":{ "type": "Point", "coordinates": [-80.145203,26.156345]}},
{ "type": "Feature", "properties": {"Name":"Lealman CDP","State":"Florida","State_Abbrev":"FL"},
"geometry":{ "type": "Point", "coordinates": [-82.68461,27.819699]}},
{ "type": "Feature", "properties": {"Name":"Lecanto CDP","State":"Florida","State_Abbrev":"FL"},
"geometry":{ "type": "Point", "coordinates": [-82.500918,28.824131]}},
{ "type": "Feature", "properties": {"Name":"Lee town","State":"Florida","State_Abbrev":"FL"},
"geometry":{ "type": "Point", "coordinates": [-83.304142,30.413101]}},
{ "type": "Feature", "properties": {"Name":"Leesburg city","State":"Florida","State_Abbrev":"FL"},
"geometry":{ "type": "Point", "coordinates": [-81.903089,28.717206]}},
{ "type": "Feature", "properties": {"Name":"Lehigh Acres CDP","State":"Florida","State_Abbrev":"FL"},
"geometry":{ "type": "Point", "coordinates": [-81.638845,26.612695]}},
{ "type": "Feature", "properties": {"Name":"Leisure City CDP","State":"Florida","State_Abbrev":"FL"},
"geometry":{ "type": "Point", "coordinates": [-80.436093,25.493935]}},
{ "type": "Feature", "properties": {"Name":"Lely CDP","State":"Florida","State_Abbrev":"FL"},
"geometry":{ "type": "Point", "coordinates": [-81.727846,26.105492]}},
{ "type": "Feature", "properties": {"Name":"Lely Resort CDP","State":"Florida","State_Abbrev":"FL"},
"geometry":{ "type": "Point", "coordinates": [-81.704481,26.096381]}},
{ "type": "Feature", "properties": {"Name":"Lemon Grove CDP","State":"Florida","State_Abbrev":"FL"},
"geometry":{ "type": "Point", "coordinates": [-81.650293,27.593128]}},
{ "type": "Feature", "properties": {"Name":"Liberty Triangle CDP","State":"Florida","State_Abbrev":"FL"},
"geometry":{ "type": "Point", "coordinates": [-82.219131,29.075982]}},
{ "type": "Feature", "properties": {"Name":"Lighthouse Point city","State":"Florida","State_Abbrev":"FL"},
"geometry":{ "type": "Point", "coordinates": [-80.088619,26.277756]}},
{ "type": "Feature", "properties": {"Name":"Limestone CDP","State":"Florida","State_Abbrev":"FL"},
"geometry":{ "type": "Point", "coordinates": [-81.904786,27.367249]}},
{ "type": "Feature", "properties": {"Name":"Limestone Creek CDP","State":"Florida","State_Abbrev":"FL"},
"geometry":{ "type": "Point", "coordinates": [-80.140784,26.943291]}},
{ "type": "Feature", "properties": {"Name":"Lisbon CDP","State":"Florida","State_Abbrev":"FL"},
"geometry":{ "type": "Point", "coordinates": [-81.774316,28.882515]}},
{ "type": "Feature", "properties": {"Name":"Live Oak city","State":"Florida","State_Abbrev":"FL"},
"geometry":{ "type": "Point", "coordinates": [-82.985117,30.29565]}},
{ "type": "Feature", "properties": {"Name":"Lloyd CDP","State":"Florida","State_Abbrev":"FL"},
"geometry":{ "type": "Point", "coordinates": [-84.026123,30.483413]}},
{ "type": "Feature", "properties": {"Name":"Lochmoor Waterway Estates CDP","State":"Florida","State_Abbrev":"FL"},
"geometry":{ "type": "Point", "coordinates": [-81.907186,26.642486]}},
{ "type": "Feature", "properties": {"Name":"Lockhart CDP","State":"Florida","State_Abbrev":"FL"},
"geometry":{ "type": "Point", "coordinates": [-81.433784,28.627103]}},
{ "type": "Feature", "properties": {"Name":"Longboat Key town","State":"Florida","State_Abbrev":"FL"},
"geometry":{ "type": "Point", "coordinates": [-82.644175,27.400457]}},
{ "type": "Feature", "properties": {"Name":"Longwood city","State":"Florida","State_Abbrev":"FL"},
"geometry":{ "type": "Point", "coordinates": [-81.348389,28.701396]}},
{ "type": "Feature", "properties": {"Name":"Loughman CDP","State":"Florida","State_Abbrev":"FL"},
"geometry":{ "type": "Point", "coordinates": [-81.569837,28.237997]}},
{ "type": "Feature", "properties": {"Name":"Lower Grand Lagoon CDP","State":"Florida","State_Abbrev":"FL"},
"geometry":{ "type": "Point", "coordinates": [-85.752221,30.143134]}},
{ "type": "Feature", "properties": {"Name":"Loxahatchee Groves town","State":"Florida","State_Abbrev":"FL"},
"geometry":{ "type": "Point", "coordinates": [-80.277195,26.720882]}},
{ "type": "Feature", "properties": {"Name":"Lutz CDP","State":"Florida","State_Abbrev":"FL"},
"geometry":{ "type": "Point", "coordinates": [-82.44972,28.140689]}},
{ "type": "Feature", "properties": {"Name":"Lynn Haven city","State":"Florida","State_Abbrev":"FL"},
"geometry":{ "type": "Point", "coordinates": [-85.636917,30.233571]}},
{ "type": "Feature", "properties": {"Name":"Macclenny city","State":"Florida","State_Abbrev":"FL"},
"geometry":{ "type": "Point", "coordinates": [-82.125253,30.281039]}},
{ "type": "Feature", "properties": {"Name":"McGregor CDP","State":"Florida","State_Abbrev":"FL"},
"geometry":{ "type": "Point", "coordinates": [-81.912922,26.561555]}},
{ "type": "Feature", "properties": {"Name":"McIntosh town","State":"Florida","State_Abbrev":"FL"},
"geometry":{ "type": "Point", "coordinates": [-82.220739,29.449355]}},
{ "type": "Feature", "properties": {"Name":"Madeira Beach city","State":"Florida","State_Abbrev":"FL"},
"geometry":{ "type": "Point", "coordinates": [-82.791566,27.79556]}},
{ "type": "Feature", "properties": {"Name":"Madison city","State":"Florida","State_Abbrev":"FL"},
"geometry":{ "type": "Point", "coordinates": [-83.413453,30.471487]}},
{ "type": "Feature", "properties": {"Name":"Maitland city","State":"Florida","State_Abbrev":"FL"},
"geometry":{ "type": "Point", "coordinates": [-81.37291,28.629625]}},
{ "type": "Feature", "properties": {"Name":"Malabar town","State":"Florida","State_Abbrev":"FL"},
"geometry":{ "type": "Point", "coordinates": [-80.58245,27.987057]}},
{ "type": "Feature", "properties": {"Name":"Malone town","State":"Florida","State_Abbrev":"FL"},
"geometry":{ "type": "Point", "coordinates": [-85.162154,30.95895]}},
{ "type": "Feature", "properties": {"Name":"Manalapan town","State":"Florida","State_Abbrev":"FL"},
"geometry":{ "type": "Point", "coordinates": [-80.040186,26.56664]}},
{ "type": "Feature", "properties": {"Name":"Manasota Key CDP","State":"Florida","State_Abbrev":"FL"},
"geometry":{ "type": "Point", "coordinates": [-82.353116,26.924043]}},
{ "type": "Feature", "properties": {"Name":"Manatee Road CDP","State":"Florida","State_Abbrev":"FL"},
"geometry":{ "type": "Point", "coordinates": [-82.919212,29.514538]}},
{ "type": "Feature", "properties": {"Name":"Mango CDP","State":"Florida","State_Abbrev":"FL"},
"geometry":{ "type": "Point", "coordinates": [-82.307312,27.992201]}},
{ "type": "Feature", "properties": {"Name":"Mangonia Park town","State":"Florida","State_Abbrev":"FL"},
"geometry":{ "type": "Point", "coordinates": [-80.076142,26.758597]}},
{ "type": "Feature", "properties": {"Name":"Marathon city","State":"Florida","State_Abbrev":"FL"},
"geometry":{ "type": "Point", "coordinates": [-81.025122,24.732338]}},
{ "type": "Feature", "properties": {"Name":"Marco Island city","State":"Florida","State_Abbrev":"FL"},
"geometry":{ "type": "Point", "coordinates": [-81.704838,25.932025]}},
{ "type": "Feature", "properties": {"Name":"Marco Shores-Hammock Bay CDP","State":"Florida","State_Abbrev":"FL"},
"geometry":{ "type": "Point", "coordinates": [-81.695858,25.995653]}},
{ "type": "Feature", "properties": {"Name":"Margate city","State":"Florida","State_Abbrev":"FL"},
"geometry":{ "type": "Point", "coordinates": [-80.211169,26.248037]}},
{ "type": "Feature", "properties": {"Name":"Marianna city","State":"Florida","State_Abbrev":"FL"},
"geometry":{ "type": "Point", "coordinates": [-85.256258,30.761445]}},
{ "type": "Feature", "properties": {"Name":"Marineland town","State":"Florida","State_Abbrev":"FL"},
"geometry":{ "type": "Point", "coordinates": [-81.214833,29.66953]}},
{ "type": "Feature", "properties": {"Name":"Marion Oaks CDP","State":"Florida","State_Abbrev":"FL"},
"geometry":{ "type": "Point", "coordinates": [-82.195305,29.001261]}},
{ "type": "Feature", "properties": {"Name":"Mary Esther city","State":"Florida","State_Abbrev":"FL"},
"geometry":{ "type": "Point", "coordinates": [-86.659006,30.411654]}},
{ "type": "Feature", "properties": {"Name":"Masaryktown CDP","State":"Florida","State_Abbrev":"FL"},
"geometry":{ "type": "Point", "coordinates": [-82.460736,28.44184]}},
{ "type": "Feature", "properties": {"Name":"Mascotte city","State":"Florida","State_Abbrev":"FL"},
"geometry":{ "type": "Point", "coordinates": [-81.905549,28.604341]}},
{ "type": "Feature", "properties": {"Name":"Matlacha CDP","State":"Florida","State_Abbrev":"FL"},
"geometry":{ "type": "Point", "coordinates": [-82.076605,26.636436]}},
{ "type": "Feature", "properties": {"Name":"Matlacha Isles-Matlacha Shores CDP","State":"Florida","State_Abbrev":"FL"},
"geometry":{ "type": "Point", "coordinates": [-82.058719,26.629311]}},
{ "type": "Feature", "properties": {"Name":"Mayo town","State":"Florida","State_Abbrev":"FL"},
"geometry":{ "type": "Point", "coordinates": [-83.176898,30.051197]}},
{ "type": "Feature", "properties": {"Name":"Meadow Oaks CDP","State":"Florida","State_Abbrev":"FL"},
"geometry":{ "type": "Point", "coordinates": [-82.597647,28.349751]}},
{ "type": "Feature", "properties": {"Name":"Meadow Woods CDP","State":"Florida","State_Abbrev":"FL"},
"geometry":{ "type": "Point", "coordinates": [-81.333706,28.372902]}},
{ "type": "Feature", "properties": {"Name":"Medley town","State":"Florida","State_Abbrev":"FL"},
"geometry":{ "type": "Point", "coordinates": [-80.357618,25.864855]}},
{ "type": "Feature", "properties": {"Name":"Medulla CDP","State":"Florida","State_Abbrev":"FL"},
"geometry":{ "type": "Point", "coordinates": [-81.981212,27.958507]}},
{ "type": "Feature", "properties": {"Name":"Melbourne city","State":"Florida","State_Abbrev":"FL"},
"geometry":{ "type": "Point", "coordinates": [-80.662717,28.110438]}},
{ "type": "Feature", "properties": {"Name":"Melbourne Beach town","State":"Florida","State_Abbrev":"FL"},
"geometry":{ "type": "Point", "coordinates": [-80.559603,28.066869]}},
{ "type": "Feature", "properties": {"Name":"Melbourne Village town","State":"Florida","State_Abbrev":"FL"},
"geometry":{ "type": "Point", "coordinates": [-80.665121,28.087962]}},
{ "type": "Feature", "properties": {"Name":"Memphis CDP","State":"Florida","State_Abbrev":"FL"},
"geometry":{ "type": "Point", "coordinates": [-82.555899,27.54495]}},
{ "type": "Feature", "properties": {"Name":"Merritt Island CDP","State":"Florida","State_Abbrev":"FL"},
"geometry":{ "type": "Point", "coordinates": [-80.675956,28.309239]}},
{ "type": "Feature", "properties": {"Name":"Mexico Beach city","State":"Florida","State_Abbrev":"FL"},
"geometry":{ "type": "Point", "coordinates": [-85.416059,29.947711]}},
{ "type": "Feature", "properties": {"Name":"Miami city","State":"Florida","State_Abbrev":"FL"},
"geometry":{ "type": "Point", "coordinates": [-80.208615,25.775163]}},
{ "type": "Feature", "properties": {"Name":"Miami Beach city","State":"Florida","State_Abbrev":"FL"},
"geometry":{ "type": "Point", "coordinates": [-80.148852,25.810596]}},
{ "type": "Feature", "properties": {"Name":"Miami Gardens city","State":"Florida","State_Abbrev":"FL"},
"geometry":{ "type": "Point", "coordinates": [-80.243585,25.948892]}},
{ "type": "Feature", "properties": {"Name":"Miami Lakes town","State":"Florida","State_Abbrev":"FL"},
"geometry":{ "type": "Point", "coordinates": [-80.320422,25.912739]}},
{ "type": "Feature", "properties": {"Name":"Miami Shores village","State":"Florida","State_Abbrev":"FL"},
"geometry":{ "type": "Point", "coordinates": [-80.178341,25.867011]}},
{ "type": "Feature", "properties": {"Name":"Miami Springs city","State":"Florida","State_Abbrev":"FL"},
"geometry":{ "type": "Point", "coordinates": [-80.288945,25.820164]}},
{ "type": "Feature", "properties": {"Name":"Micanopy town","State":"Florida","State_Abbrev":"FL"},
"geometry":{ "type": "Point", "coordinates": [-82.280499,29.506351]}},
{ "type": "Feature", "properties": {"Name":"Micco CDP","State":"Florida","State_Abbrev":"FL"},
"geometry":{ "type": "Point", "coordinates": [-80.51129,27.856377]}},
{ "type": "Feature", "properties": {"Name":"Miccosukee CDP","State":"Florida","State_Abbrev":"FL"},
"geometry":{ "type": "Point", "coordinates": [-84.046779,30.593056]}},
{ "type": "Feature", "properties": {"Name":"Middleburg CDP","State":"Florida","State_Abbrev":"FL"},
"geometry":{ "type": "Point", "coordinates": [-81.901075,30.050226]}},
{ "type": "Feature", "properties": {"Name":"Midway city","State":"Florida","State_Abbrev":"FL"},
"geometry":{ "type": "Point", "coordinates": [-84.460593,30.502715]}},
{ "type": "Feature", "properties": {"Name":"Midway CDP","State":"Florida","State_Abbrev":"FL"},
"geometry":{ "type": "Point", "coordinates": [-87.009612,30.405055]}},
{ "type": "Feature", "properties": {"Name":"Midway CDP","State":"Florida","State_Abbrev":"FL"},
"geometry":{ "type": "Point", "coordinates": [-81.231279,28.792398]}},
{ "type": "Feature", "properties": {"Name":"Milton city","State":"Florida","State_Abbrev":"FL"},
"geometry":{ "type": "Point", "coordinates": [-87.052598,30.629413]}},
{ "type": "Feature", "properties": {"Name":"Mims CDP","State":"Florida","State_Abbrev":"FL"},
"geometry":{ "type": "Point", "coordinates": [-80.843999,28.691319]}},
{ "type": "Feature", "properties": {"Name":"Minneola city","State":"Florida","State_Abbrev":"FL"},
"geometry":{ "type": "Point", "coordinates": [-81.729452,28.602324]}},
{ "type": "Feature", "properties": {"Name":"Miramar city","State":"Florida","State_Abbrev":"FL"},
"geometry":{ "type": "Point", "coordinates": [-80.338582,25.972529]}},
{ "type": "Feature", "properties": {"Name":"Miramar Beach CDP","State":"Florida","State_Abbrev":"FL"},
"geometry":{ "type": "Point", "coordinates": [-86.343631,30.384881]}},
{ "type": "Feature", "properties": {"Name":"Molino CDP","State":"Florida","State_Abbrev":"FL"},
"geometry":{ "type": "Point", "coordinates": [-87.320706,30.702751]}},
{ "type": "Feature", "properties": {"Name":"Monticello city","State":"Florida","State_Abbrev":"FL"},
"geometry":{ "type": "Point", "coordinates": [-83.872178,30.542248]}},
{ "type": "Feature", "properties": {"Name":"Montura CDP","State":"Florida","State_Abbrev":"FL"},
"geometry":{ "type": "Point", "coordinates": [-81.093769,26.642838]}},
{ "type": "Feature", "properties": {"Name":"Montverde town","State":"Florida","State_Abbrev":"FL"},
"geometry":{ "type": "Point", "coordinates": [-81.674134,28.602468]}},
{ "type": "Feature", "properties": {"Name":"Moon Lake CDP","State":"Florida","State_Abbrev":"FL"},
"geometry":{ "type": "Point", "coordinates": [-82.605576,28.297893]}},
{ "type": "Feature", "properties": {"Name":"Moore Haven city","State":"Florida","State_Abbrev":"FL"},
"geometry":{ "type": "Point", "coordinates": [-81.098451,26.833752]}},
{ "type": "Feature", "properties": {"Name":"Morriston CDP","State":"Florida","State_Abbrev":"FL"},
"geometry":{ "type": "Point", "coordinates": [-82.440031,29.281127]}},
{ "type": "Feature", "properties": {"Name":"Mount Carmel CDP","State":"Florida","State_Abbrev":"FL"},
"geometry":{ "type": "Point", "coordinates": [-87.124366,30.991549]}},
{ "type": "Feature", "properties": {"Name":"Mount Dora city","State":"Florida","State_Abbrev":"FL"},
"geometry":{ "type": "Point", "coordinates": [-81.633411,28.813349]}},
{ "type": "Feature", "properties": {"Name":"Mount Plymouth CDP","State":"Florida","State_Abbrev":"FL"},
"geometry":{ "type": "Point", "coordinates": [-81.53449,28.803875]}},
{ "type": "Feature", "properties": {"Name":"Mulat CDP","State":"Florida","State_Abbrev":"FL"},
"geometry":{ "type": "Point", "coordinates": [-87.130062,30.559771]}},
{ "type": "Feature", "properties": {"Name":"Mulberry city","State":"Florida","State_Abbrev":"FL"},
"geometry":{ "type": "Point", "coordinates": [-82.012217,27.899555]}},
{ "type": "Feature", "properties": {"Name":"Munson CDP","State":"Florida","State_Abbrev":"FL"},
"geometry":{ "type": "Point", "coordinates": [-86.889723,30.829059]}},
{ "type": "Feature", "properties": {"Name":"Myrtle Grove CDP","State":"Florida","State_Abbrev":"FL"},
"geometry":{ "type": "Point", "coordinates": [-87.302824,30.414537]}},
{ "type": "Feature", "properties": {"Name":"Naples city","State":"Florida","State_Abbrev":"FL"},
"geometry":{ "type": "Point", "coordinates": [-81.795299,26.150485]}},
{ "type": "Feature", "properties": {"Name":"Naples Manor CDP","State":"Florida","State_Abbrev":"FL"},
"geometry":{ "type": "Point", "coordinates": [-81.724811,26.08969]}},
{ "type": "Feature", "properties": {"Name":"Naples Park CDP","State":"Florida","State_Abbrev":"FL"},
"geometry":{ "type": "Point", "coordinates": [-81.811316,26.262921]}},
{ "type": "Feature", "properties": {"Name":"Naranja CDP","State":"Florida","State_Abbrev":"FL"},
"geometry":{ "type": "Point", "coordinates": [-80.421926,25.516148]}},
{ "type": "Feature", "properties": {"Name":"Nassau Village-Ratliff CDP","State":"Florida","State_Abbrev":"FL"},
"geometry":{ "type": "Point", "coordinates": [-81.80884,30.510826]}},
{ "type": "Feature", "properties": {"Name":"Navarre CDP","State":"Florida","State_Abbrev":"FL"},
"geometry":{ "type": "Point", "coordinates": [-86.888674,30.416071]}},
{ "type": "Feature", "properties": {"Name":"Navarre Beach CDP","State":"Florida","State_Abbrev":"FL"},
"geometry":{ "type": "Point", "coordinates": [-86.893666,30.376448]}},
{ "type": "Feature", "properties": {"Name":"Neptune Beach city","State":"Florida","State_Abbrev":"FL"},
"geometry":{ "type": "Point", "coordinates": [-81.393123,30.312573]}},
{ "type": "Feature", "properties": {"Name":"Newberry city","State":"Florida","State_Abbrev":"FL"},
"geometry":{ "type": "Point", "coordinates": [-82.594604,29.645825]}},
{ "type": "Feature", "properties": {"Name":"New Port Richey city","State":"Florida","State_Abbrev":"FL"},
"geometry":{ "type": "Point", "coordinates": [-82.717502,28.246638]}},
{ "type": "Feature", "properties": {"Name":"New Port Richey East CDP","State":"Florida","State_Abbrev":"FL"},
"geometry":{ "type": "Point", "coordinates": [-82.6942,28.263251]}},
{ "type": "Feature", "properties": {"Name":"New Smyrna Beach city","State":"Florida","State_Abbrev":"FL"},
"geometry":{ "type": "Point", "coordinates": [-80.95486,29.02936]}},
{ "type": "Feature", "properties": {"Name":"Niceville city","State":"Florida","State_Abbrev":"FL"},
"geometry":{ "type": "Point", "coordinates": [-86.475995,30.528825]}},
{ "type": "Feature", "properties": {"Name":"Nobleton CDP","State":"Florida","State_Abbrev":"FL"},
"geometry":{ "type": "Point", "coordinates": [-82.261536,28.645075]}},
{ "type": "Feature", "properties": {"Name":"Nocatee CDP","State":"Florida","State_Abbrev":"FL"},
"geometry":{ "type": "Point", "coordinates": [-81.409909,30.085107]}},
{ "type": "Feature", "properties": {"Name":"Nokomis CDP","State":"Florida","State_Abbrev":"FL"},
"geometry":{ "type": "Point", "coordinates": [-82.435785,27.123799]}},
{ "type": "Feature", "properties": {"Name":"Noma town","State":"Florida","State_Abbrev":"FL"},
"geometry":{ "type": "Point", "coordinates": [-85.620983,30.978109]}},
{ "type": "Feature", "properties": {"Name":"North Bay Village city","State":"Florida","State_Abbrev":"FL"},
"geometry":{ "type": "Point", "coordinates": [-80.151029,25.849129]}},
{ "type": "Feature", "properties": {"Name":"North Brooksville CDP","State":"Florida","State_Abbrev":"FL"},
"geometry":{ "type": "Point", "coordinates": [-82.331867,28.577393]}},
{ "type": "Feature", "properties": {"Name":"Northdale CDP","State":"Florida","State_Abbrev":"FL"},
"geometry":{ "type": "Point", "coordinates": [-82.528112,28.104607]}},
{ "type": "Feature", "properties": {"Name":"North DeLand CDP","State":"Florida","State_Abbrev":"FL"},
"geometry":{ "type": "Point", "coordinates": [-81.296528,29.048415]}},
{ "type": "Feature", "properties": {"Name":"North Fort Myers CDP","State":"Florida","State_Abbrev":"FL"},
"geometry":{ "type": "Point", "coordinates": [-81.845811,26.717956]}},
{ "type": "Feature", "properties": {"Name":"North Key Largo CDP","State":"Florida","State_Abbrev":"FL"},
"geometry":{ "type": "Point", "coordinates": [-80.321566,25.260754]}},
{ "type": "Feature", "properties": {"Name":"North Lauderdale city","State":"Florida","State_Abbrev":"FL"},
"geometry":{ "type": "Point", "coordinates": [-80.221392,26.21245]}},
{ "type": "Feature", "properties": {"Name":"North Merritt Island CDP","State":"Florida","State_Abbrev":"FL"},
"geometry":{ "type": "Point", "coordinates": [-80.713145,28.461126]}},
{ "type": "Feature", "properties": {"Name":"North Miami city","State":"Florida","State_Abbrev":"FL"},
"geometry":{ "type": "Point", "coordinates": [-80.1686,25.900829]}},
{ "type": "Feature", "properties": {"Name":"North Miami Beach city","State":"Florida","State_Abbrev":"FL"},
"geometry":{ "type": "Point", "coordinates": [-80.165179,25.929996]}},
{ "type": "Feature", "properties": {"Name":"North Palm Beach village","State":"Florida","State_Abbrev":"FL"},
"geometry":{ "type": "Point", "coordinates": [-80.056905,26.820298]}},
{ "type": "Feature", "properties": {"Name":"North Port city","State":"Florida","State_Abbrev":"FL"},
"geometry":{ "type": "Point", "coordinates": [-82.198044,27.058166]}},
{ "type": "Feature", "properties": {"Name":"North Redington Beach town","State":"Florida","State_Abbrev":"FL"},
"geometry":{ "type": "Point", "coordinates": [-82.823228,27.819702]}},
{ "type": "Feature", "properties": {"Name":"North River Shores CDP","State":"Florida","State_Abbrev":"FL"},
"geometry":{ "type": "Point", "coordinates": [-80.276115,27.22169]}},
{ "type": "Feature", "properties": {"Name":"North Sarasota CDP","State":"Florida","State_Abbrev":"FL"},
"geometry":{ "type": "Point", "coordinates": [-82.522318,27.356636]}},
{ "type": "Feature", "properties": {"Name":"North Weeki Wachee CDP","State":"Florida","State_Abbrev":"FL"},
"geometry":{ "type": "Point", "coordinates": [-82.554864,28.553581]}},
{ "type": "Feature", "properties": {"Name":"Oak Hill city","State":"Florida","State_Abbrev":"FL"},
"geometry":{ "type": "Point", "coordinates": [-80.834957,28.876961]}},
{ "type": "Feature", "properties": {"Name":"Oakland town","State":"Florida","State_Abbrev":"FL"},
"geometry":{ "type": "Point", "coordinates": [-81.636676,28.552076]}},
{ "type": "Feature", "properties": {"Name":"Oakland Park city","State":"Florida","State_Abbrev":"FL"},
"geometry":{ "type": "Point", "coordinates": [-80.152411,26.179051]}},
{ "type": "Feature", "properties": {"Name":"Oakleaf Plantation CDP","State":"Florida","State_Abbrev":"FL"},
"geometry":{ "type": "Point", "coordinates": [-81.83641,30.174025]}},
{ "type": "Feature", "properties": {"Name":"Oak Ridge CDP","State":"Florida","State_Abbrev":"FL"},
"geometry":{ "type": "Point", "coordinates": [-81.416685,28.472766]}},
{ "type": "Feature", "properties": {"Name":"Ocala city","State":"Florida","State_Abbrev":"FL"},
"geometry":{ "type": "Point", "coordinates": [-82.151025,29.17751]}},
{ "type": "Feature", "properties": {"Name":"Ocala Estates CDP","State":"Florida","State_Abbrev":"FL"},
"geometry":{ "type": "Point", "coordinates": [-82.309793,29.201763]}},
{ "type": "Feature", "properties": {"Name":"Ocean Breeze town","State":"Florida","State_Abbrev":"FL"},
"geometry":{ "type": "Point", "coordinates": [-80.225681,27.240954]}},
{ "type": "Feature", "properties": {"Name":"Ocean City CDP","State":"Florida","State_Abbrev":"FL"},
"geometry":{ "type": "Point", "coordinates": [-86.607246,30.439857]}},
{ "type": "Feature", "properties": {"Name":"Ocean Ridge town","State":"Florida","State_Abbrev":"FL"},
"geometry":{ "type": "Point", "coordinates": [-80.046814,26.530938]}},
{ "type": "Feature", "properties": {"Name":"Ocklawaha CDP","State":"Florida","State_Abbrev":"FL"},
"geometry":{ "type": "Point", "coordinates": [-81.934911,29.045855]}},
{ "type": "Feature", "properties": {"Name":"Ocoee city","State":"Florida","State_Abbrev":"FL"},
"geometry":{ "type": "Point", "coordinates": [-81.533045,28.57882]}},
{ "type": "Feature", "properties": {"Name":"Odessa CDP","State":"Florida","State_Abbrev":"FL"},
"geometry":{ "type": "Point", "coordinates": [-82.550417,28.182333]}},
{ "type": "Feature", "properties": {"Name":"Ojus CDP","State":"Florida","State_Abbrev":"FL"},
"geometry":{ "type": "Point", "coordinates": [-80.171414,25.954635]}},
{ "type": "Feature", "properties": {"Name":"Okahumpka CDP","State":"Florida","State_Abbrev":"FL"},
"geometry":{ "type": "Point", "coordinates": [-81.896193,28.74592]}},
{ "type": "Feature", "properties": {"Name":"Okeechobee city","State":"Florida","State_Abbrev":"FL"},
"geometry":{ "type": "Point", "coordinates": [-80.829311,27.241608]}},
{ "type": "Feature", "properties": {"Name":"Old Miakka CDP","State":"Florida","State_Abbrev":"FL"},
"geometry":{ "type": "Point", "coordinates": [-82.279302,27.318681]}},
{ "type": "Feature", "properties": {"Name":"Oldsmar city","State":"Florida","State_Abbrev":"FL"},
"geometry":{ "type": "Point", "coordinates": [-82.671254,28.048381]}},
{ "type": "Feature", "properties": {"Name":"Olga CDP","State":"Florida","State_Abbrev":"FL"},
"geometry":{ "type": "Point", "coordinates": [-81.693388,26.708176]}},
{ "type": "Feature", "properties": {"Name":"Olympia Heights CDP","State":"Florida","State_Abbrev":"FL"},
"geometry":{ "type": "Point", "coordinates": [-80.339,25.727896]}},
{ "type": "Feature", "properties": {"Name":"Ona CDP","State":"Florida","State_Abbrev":"FL"},
"geometry":{ "type": "Point", "coordinates": [-81.909728,27.482963]}},
{ "type": "Feature", "properties": {"Name":"On Top of the World CDP","State":"Florida","State_Abbrev":"FL"},
"geometry":{ "type": "Point", "coordinates": [-82.286572,29.105817]}},
{ "type": "Feature", "properties": {"Name":"Opa-locka city","State":"Florida","State_Abbrev":"FL"},
"geometry":{ "type": "Point", "coordinates": [-80.255219,25.899998]}},
{ "type": "Feature", "properties": {"Name":"Orange City city","State":"Florida","State_Abbrev":"FL"},
"geometry":{ "type": "Point", "coordinates": [-81.283339,28.93728]}},
{ "type": "Feature", "properties": {"Name":"Orange Park town","State":"Florida","State_Abbrev":"FL"},
"geometry":{ "type": "Point", "coordinates": [-81.704672,30.170853]}},
{ "type": "Feature", "properties": {"Name":"Orangetree CDP","State":"Florida","State_Abbrev":"FL"},
"geometry":{ "type": "Point", "coordinates": [-81.57587,26.292899]}},
{ "type": "Feature", "properties": {"Name":"Orchid town","State":"Florida","State_Abbrev":"FL"},
"geometry":{ "type": "Point", "coordinates": [-80.424461,27.771941]}},
{ "type": "Feature", "properties": {"Name":"Oriole Beach CDP","State":"Florida","State_Abbrev":"FL"},
"geometry":{ "type": "Point", "coordinates": [-87.100486,30.372465]}},
{ "type": "Feature", "properties": {"Name":"Orlando city","State":"Florida","State_Abbrev":"FL"},
"geometry":{ "type": "Point", "coordinates": [-81.254805,28.40865]}},
{ "type": "Feature", "properties": {"Name":"Orlovista CDP","State":"Florida","State_Abbrev":"FL"},
"geometry":{ "type": "Point", "coordinates": [-81.462937,28.544055]}},
{ "type": "Feature", "properties": {"Name":"Ormond Beach city","State":"Florida","State_Abbrev":"FL"},
"geometry":{ "type": "Point", "coordinates": [-81.101447,29.293276]}},
{ "type": "Feature", "properties": {"Name":"Ormond-by-the-Sea CDP","State":"Florida","State_Abbrev":"FL"},
"geometry":{ "type": "Point", "coordinates": [-81.068605,29.343284]}},
{ "type": "Feature", "properties": {"Name":"Osprey CDP","State":"Florida","State_Abbrev":"FL"},
"geometry":{ "type": "Point", "coordinates": [-82.475705,27.190394]}},
{ "type": "Feature", "properties": {"Name":"Otter Creek town","State":"Florida","State_Abbrev":"FL"},
"geometry":{ "type": "Point", "coordinates": [-82.775101,29.323288]}},
{ "type": "Feature", "properties": {"Name":"Oviedo city","State":"Florida","State_Abbrev":"FL"},
"geometry":{ "type": "Point", "coordinates": [-81.187101,28.66193]}},
{ "type": "Feature", "properties": {"Name":"Pace CDP","State":"Florida","State_Abbrev":"FL"},
"geometry":{ "type": "Point", "coordinates": [-87.164733,30.616737]}},
{ "type": "Feature", "properties": {"Name":"Page Park CDP","State":"Florida","State_Abbrev":"FL"},
"geometry":{ "type": "Point", "coordinates": [-81.861443,26.578163]}},
{ "type": "Feature", "properties": {"Name":"Pahokee city","State":"Florida","State_Abbrev":"FL"},
"geometry":{ "type": "Point", "coordinates": [-80.662049,26.820209]}},
{ "type": "Feature", "properties": {"Name":"Paisley CDP","State":"Florida","State_Abbrev":"FL"},
"geometry":{ "type": "Point", "coordinates": [-81.532186,28.97931]}},
{ "type": "Feature", "properties": {"Name":"Palatka city","State":"Florida","State_Abbrev":"FL"},
"geometry":{ "type": "Point", "coordinates": [-81.676737,29.644871]}},
{ "type": "Feature", "properties": {"Name":"Palm Bay city","State":"Florida","State_Abbrev":"FL"},
"geometry":{ "type": "Point", "coordinates": [-80.658275,27.96489]}},
{ "type": "Feature", "properties": {"Name":"Palm Beach town","State":"Florida","State_Abbrev":"FL"},
"geometry":{ "type": "Point", "coordinates": [-80.041863,26.694843]}},
{ "type": "Feature", "properties": {"Name":"Palm Beach Gardens city","State":"Florida","State_Abbrev":"FL"},
"geometry":{ "type": "Point", "coordinates": [-80.167124,26.848788]}},
{ "type": "Feature", "properties": {"Name":"Palm Beach Shores town","State":"Florida","State_Abbrev":"FL"},
"geometry":{ "type": "Point", "coordinates": [-80.034377,26.777352]}},
{ "type": "Feature", "properties": {"Name":"Palm City CDP","State":"Florida","State_Abbrev":"FL"},
"geometry":{ "type": "Point", "coordinates": [-80.285524,27.177783]}},
{ "type": "Feature", "properties": {"Name":"Palm Coast city","State":"Florida","State_Abbrev":"FL"},
"geometry":{ "type": "Point", "coordinates": [-81.242627,29.536837]}},
{ "type": "Feature", "properties": {"Name":"Palmer Ranch CDP","State":"Florida","State_Abbrev":"FL"},
"geometry":{ "type": "Point", "coordinates": [-82.461313,27.223405]}},
{ "type": "Feature", "properties": {"Name":"Palmetto city","State":"Florida","State_Abbrev":"FL"},
"geometry":{ "type": "Point", "coordinates": [-82.574964,27.52505]}},
{ "type": "Feature", "properties": {"Name":"Palmetto Bay village","State":"Florida","State_Abbrev":"FL"},
"geometry":{ "type": "Point", "coordinates": [-80.318906,25.621703]}},
{ "type": "Feature", "properties": {"Name":"Palmetto Estates CDP","State":"Florida","State_Abbrev":"FL"},
"geometry":{ "type": "Point", "coordinates": [-80.360615,25.622682]}},
{ "type": "Feature", "properties": {"Name":"Palm Harbor CDP","State":"Florida","State_Abbrev":"FL"},
"geometry":{ "type": "Point", "coordinates": [-82.757569,28.08477]}},
{ "type": "Feature", "properties": {"Name":"Palmona Park CDP","State":"Florida","State_Abbrev":"FL"},
"geometry":{ "type": "Point", "coordinates": [-81.894404,26.689447]}},
{ "type": "Feature", "properties": {"Name":"Palm River-Clair Mel CDP","State":"Florida","State_Abbrev":"FL"},
"geometry":{ "type": "Point", "coordinates": [-82.379398,27.924491]}},
{ "type": "Feature", "properties": {"Name":"Palm Shores town","State":"Florida","State_Abbrev":"FL"},
"geometry":{ "type": "Point", "coordinates": [-80.659339,28.191781]}},
{ "type": "Feature", "properties": {"Name":"Palm Springs village","State":"Florida","State_Abbrev":"FL"},
"geometry":{ "type": "Point", "coordinates": [-80.098352,26.635808]}},
{ "type": "Feature", "properties": {"Name":"Palm Springs North CDP","State":"Florida","State_Abbrev":"FL"},
"geometry":{ "type": "Point", "coordinates": [-80.331028,25.934252]}},
{ "type": "Feature", "properties": {"Name":"Palm Valley CDP","State":"Florida","State_Abbrev":"FL"},
"geometry":{ "type": "Point", "coordinates": [-81.390961,30.200548]}},
{ "type": "Feature", "properties": {"Name":"Panacea CDP","State":"Florida","State_Abbrev":"FL"},
"geometry":{ "type": "Point", "coordinates": [-84.392586,30.02642]}},
{ "type": "Feature", "properties": {"Name":"Panama City city","State":"Florida","State_Abbrev":"FL"},
"geometry":{ "type": "Point", "coordinates": [-85.670191,30.166271]}},
{ "type": "Feature", "properties": {"Name":"Panama City Beach city","State":"Florida","State_Abbrev":"FL"},
"geometry":{ "type": "Point", "coordinates": [-85.877116,30.233151]}},
{ "type": "Feature", "properties": {"Name":"Paradise Heights CDP","State":"Florida","State_Abbrev":"FL"},
"geometry":{ "type": "Point", "coordinates": [-81.543848,28.623754]}},
{ "type": "Feature", "properties": {"Name":"Parker city","State":"Florida","State_Abbrev":"FL"},
"geometry":{ "type": "Point", "coordinates": [-85.600241,30.128402]}},
{ "type": "Feature", "properties": {"Name":"Parkland city","State":"Florida","State_Abbrev":"FL"},
"geometry":{ "type": "Point", "coordinates": [-80.254296,26.32136]}},
{ "type": "Feature", "properties": {"Name":"Pasadena Hills CDP","State":"Florida","State_Abbrev":"FL"},
"geometry":{ "type": "Point", "coordinates": [-82.241336,28.279537]}},
{ "type": "Feature", "properties": {"Name":"Patrick AFB CDP","State":"Florida","State_Abbrev":"FL"},
"geometry":{ "type": "Point", "coordinates": [-80.609914,28.232233]}},
{ "type": "Feature", "properties": {"Name":"Paxton town","State":"Florida","State_Abbrev":"FL"},
"geometry":{ "type": "Point", "coordinates": [-86.311772,30.972592]}},
{ "type": "Feature", "properties": {"Name":"Pea Ridge CDP","State":"Florida","State_Abbrev":"FL"},
"geometry":{ "type": "Point", "coordinates": [-87.099723,30.599137]}},
{ "type": "Feature", "properties": {"Name":"Pebble Creek CDP","State":"Florida","State_Abbrev":"FL"},
"geometry":{ "type": "Point", "coordinates": [-82.342436,28.160204]}},
{ "type": "Feature", "properties": {"Name":"Pelican Bay CDP","State":"Florida","State_Abbrev":"FL"},
"geometry":{ "type": "Point", "coordinates": [-81.810215,26.234887]}},
{ "type": "Feature", "properties": {"Name":"Pelican Marsh CDP","State":"Florida","State_Abbrev":"FL"},
"geometry":{ "type": "Point", "coordinates": [-81.785552,26.253658]}},
{ "type": "Feature", "properties": {"Name":"Pembroke Park town","State":"Florida","State_Abbrev":"FL"},
"geometry":{ "type": "Point", "coordinates": [-80.180258,25.988941]}},
{ "type": "Feature", "properties": {"Name":"Pembroke Pines city","State":"Florida","State_Abbrev":"FL"},
"geometry":{ "type": "Point", "coordinates": [-80.340171,26.014716]}},
{ "type": "Feature", "properties": {"Name":"Penney Farms town","State":"Florida","State_Abbrev":"FL"},
"geometry":{ "type": "Point", "coordinates": [-81.810769,29.98071]}},
{ "type": "Feature", "properties": {"Name":"Pensacola city","State":"Florida","State_Abbrev":"FL"},
"geometry":{ "type": "Point", "coordinates": [-87.191242,30.440989]}},
{ "type": "Feature", "properties": {"Name":"Pensacola Station CDP","State":"Florida","State_Abbrev":"FL"},
"geometry":{ "type": "Point", "coordinates": [-87.316902,30.350614]}},
{ "type": "Feature", "properties": {"Name":"Perry city","State":"Florida","State_Abbrev":"FL"},
"geometry":{ "type": "Point", "coordinates": [-83.582275,30.109053]}},
{ "type": "Feature", "properties": {"Name":"Pierson town","State":"Florida","State_Abbrev":"FL"},
"geometry":{ "type": "Point", "coordinates": [-81.45664,29.241647]}},
{ "type": "Feature", "properties": {"Name":"Pine Air CDP","State":"Florida","State_Abbrev":"FL"},
"geometry":{ "type": "Point", "coordinates": [-80.107415,26.658597]}},
{ "type": "Feature", "properties": {"Name":"Pine Castle CDP","State":"Florida","State_Abbrev":"FL"},
"geometry":{ "type": "Point", "coordinates": [-81.369572,28.454666]}},
{ "type": "Feature", "properties": {"Name":"Pinecraft CDP","State":"Florida","State_Abbrev":"FL"},
"geometry":{ "type": "Point", "coordinates": [-82.500669,27.323151]}},
{ "type": "Feature", "properties": {"Name":"Pinecrest village","State":"Florida","State_Abbrev":"FL"},
"geometry":{ "type": "Point", "coordinates": [-80.304857,25.665174]}},
{ "type": "Feature", "properties": {"Name":"Pine Hills CDP","State":"Florida","State_Abbrev":"FL"},
"geometry":{ "type": "Point", "coordinates": [-81.469536,28.581802]}},
{ "type": "Feature", "properties": {"Name":"Pine Island CDP","State":"Florida","State_Abbrev":"FL"},
"geometry":{ "type": "Point", "coordinates": [-82.654777,28.572441]}},
{ "type": "Feature", "properties": {"Name":"Pine Island Center CDP","State":"Florida","State_Abbrev":"FL"},
"geometry":{ "type": "Point", "coordinates": [-82.127162,26.623798]}},
{ "type": "Feature", "properties": {"Name":"Pine Lakes CDP","State":"Florida","State_Abbrev":"FL"},
"geometry":{ "type": "Point", "coordinates": [-81.430586,28.939774]}},
{ "type": "Feature", "properties": {"Name":"Pineland CDP","State":"Florida","State_Abbrev":"FL"},
"geometry":{ "type": "Point", "coordinates": [-82.148101,26.66108]}},
{ "type": "Feature", "properties": {"Name":"Pine Level CDP","State":"Florida","State_Abbrev":"FL"},
"geometry":{ "type": "Point", "coordinates": [-87.169481,30.889154]}},
{ "type": "Feature", "properties": {"Name":"Pinellas Park city","State":"Florida","State_Abbrev":"FL"},
"geometry":{ "type": "Point", "coordinates": [-82.708213,27.858883]}},
{ "type": "Feature", "properties": {"Name":"Pine Manor CDP","State":"Florida","State_Abbrev":"FL"},
"geometry":{ "type": "Point", "coordinates": [-81.877627,26.573721]}},
{ "type": "Feature", "properties": {"Name":"Pine Ridge CDP","State":"Florida","State_Abbrev":"FL"},
"geometry":{ "type": "Point", "coordinates": [-82.476182,28.932994]}},
{ "type": "Feature", "properties": {"Name":"Pine Ridge CDP","State":"Florida","State_Abbrev":"FL"},
"geometry":{ "type": "Point", "coordinates": [-81.792994,26.230256]}},
{ "type": "Feature", "properties": {"Name":"Pinewood CDP","State":"Florida","State_Abbrev":"FL"},
"geometry":{ "type": "Point", "coordinates": [-80.217059,25.869354]}},
{ "type": "Feature", "properties": {"Name":"Pioneer CDP","State":"Florida","State_Abbrev":"FL"},
"geometry":{ "type": "Point", "coordinates": [-81.217199,26.728538]}},
{ "type": "Feature", "properties": {"Name":"Pittman CDP","State":"Florida","State_Abbrev":"FL"},
"geometry":{ "type": "Point", "coordinates": [-81.649218,28.998374]}},
{ "type": "Feature", "properties": {"Name":"Plantation city","State":"Florida","State_Abbrev":"FL"},
"geometry":{ "type": "Point", "coordinates": [-80.261818,26.125573]}},
{ "type": "Feature", "properties": {"Name":"Plantation CDP","State":"Florida","State_Abbrev":"FL"},
"geometry":{ "type": "Point", "coordinates": [-82.370468,27.068279]}},
{ "type": "Feature", "properties": {"Name":"Plantation Island CDP","State":"Florida","State_Abbrev":"FL"},
"geometry":{ "type": "Point", "coordinates": [-81.376978,25.847824]}},
{ "type": "Feature", "properties": {"Name":"Plantation Mobile Home Park CDP","State":"Florida","State_Abbrev":"FL"},
"geometry":{ "type": "Point", "coordinates": [-80.132343,26.70258]}},
{ "type": "Feature", "properties": {"Name":"Plant City city","State":"Florida","State_Abbrev":"FL"},
"geometry":{ "type": "Point", "coordinates": [-82.119423,28.015287]}},
{ "type": "Feature", "properties": {"Name":"Poinciana CDP","State":"Florida","State_Abbrev":"FL"},
"geometry":{ "type": "Point", "coordinates": [-81.479234,28.118729]}},
{ "type": "Feature", "properties": {"Name":"Point Baker CDP","State":"Florida","State_Abbrev":"FL"},
"geometry":{ "type": "Point", "coordinates": [-87.051734,30.686607]}},
{ "type": "Feature", "properties": {"Name":"Polk City town","State":"Florida","State_Abbrev":"FL"},
"geometry":{ "type": "Point", "coordinates": [-81.830032,28.180471]}},
{ "type": "Feature", "properties": {"Name":"Pomona Park town","State":"Florida","State_Abbrev":"FL"},
"geometry":{ "type": "Point", "coordinates": [-81.58646,29.503039]}},
{ "type": "Feature", "properties": {"Name":"Pompano Beach city","State":"Florida","State_Abbrev":"FL"},
"geometry":{ "type": "Point", "coordinates": [-80.133851,26.241622]}},
{ "type": "Feature", "properties": {"Name":"Ponce de Leon town","State":"Florida","State_Abbrev":"FL"},
"geometry":{ "type": "Point", "coordinates": [-85.936883,30.724036]}},
{ "type": "Feature", "properties": {"Name":"Ponce Inlet town","State":"Florida","State_Abbrev":"FL"},
"geometry":{ "type": "Point", "coordinates": [-80.931705,29.092782]}},
{ "type": "Feature", "properties": {"Name":"Port Charlotte CDP","State":"Florida","State_Abbrev":"FL"},
"geometry":{ "type": "Point", "coordinates": [-82.113651,26.989467]}},
{ "type": "Feature", "properties": {"Name":"Port LaBelle CDP","State":"Florida","State_Abbrev":"FL"},
"geometry":{ "type": "Point", "coordinates": [-81.383855,26.760647]}},
{ "type": "Feature", "properties": {"Name":"Port Orange city","State":"Florida","State_Abbrev":"FL"},
"geometry":{ "type": "Point", "coordinates": [-81.013223,29.113444]}},
{ "type": "Feature", "properties": {"Name":"Port Richey city","State":"Florida","State_Abbrev":"FL"},
"geometry":{ "type": "Point", "coordinates": [-82.725032,28.275019]}},
{ "type": "Feature", "properties": {"Name":"Port St. Joe city","State":"Florida","State_Abbrev":"FL"},
"geometry":{ "type": "Point", "coordinates": [-85.309146,29.817561]}},
{ "type": "Feature", "properties": {"Name":"Port St. John CDP","State":"Florida","State_Abbrev":"FL"},
"geometry":{ "type": "Point", "coordinates": [-80.810424,28.475701]}},
{ "type": "Feature", "properties": {"Name":"Port St. Lucie city","State":"Florida","State_Abbrev":"FL"},
"geometry":{ "type": "Point", "coordinates": [-80.388261,27.280554]}},
{ "type": "Feature", "properties": {"Name":"Port Salerno CDP","State":"Florida","State_Abbrev":"FL"},
"geometry":{ "type": "Point", "coordinates": [-80.188709,27.145193]}},
{ "type": "Feature", "properties": {"Name":"Pretty Bayou CDP","State":"Florida","State_Abbrev":"FL"},
"geometry":{ "type": "Point", "coordinates": [-85.697724,30.200131]}},
{ "type": "Feature", "properties": {"Name":"Princeton CDP","State":"Florida","State_Abbrev":"FL"},
"geometry":{ "type": "Point", "coordinates": [-80.398394,25.540648]}},
{ "type": "Feature", "properties": {"Name":"Progress Village CDP","State":"Florida","State_Abbrev":"FL"},
"geometry":{ "type": "Point", "coordinates": [-82.364256,27.885648]}},
{ "type": "Feature", "properties": {"Name":"Punta Gorda city","State":"Florida","State_Abbrev":"FL"},
"geometry":{ "type": "Point", "coordinates": [-82.032345,26.863537]}},
{ "type": "Feature", "properties": {"Name":"Punta Rassa CDP","State":"Florida","State_Abbrev":"FL"},
"geometry":{ "type": "Point", "coordinates": [-82.002107,26.499755]}},
{ "type": "Feature", "properties": {"Name":"Quail Ridge CDP","State":"Florida","State_Abbrev":"FL"},
"geometry":{ "type": "Point", "coordinates": [-82.554903,28.348598]}},
{ "type": "Feature", "properties": {"Name":"Quincy city","State":"Florida","State_Abbrev":"FL"},
"geometry":{ "type": "Point", "coordinates": [-84.585847,30.565983]}},
{ "type": "Feature", "properties": {"Name":"Raiford town","State":"Florida","State_Abbrev":"FL"},
"geometry":{ "type": "Point", "coordinates": [-82.240811,30.063716]}},
{ "type": "Feature", "properties": {"Name":"Rainbow Lakes Estates CDP","State":"Florida","State_Abbrev":"FL"},
"geometry":{ "type": "Point", "coordinates": [-82.50972,29.160461]}},
{ "type": "Feature", "properties": {"Name":"Rainbow Park CDP","State":"Florida","State_Abbrev":"FL"},
"geometry":{ "type": "Point", "coordinates": [-82.363995,29.165358]}},
{ "type": "Feature", "properties": {"Name":"Rainbow Springs CDP","State":"Florida","State_Abbrev":"FL"},
"geometry":{ "type": "Point", "coordinates": [-82.441983,29.097095]}},
{ "type": "Feature", "properties": {"Name":"Raleigh CDP","State":"Florida","State_Abbrev":"FL"},
"geometry":{ "type": "Point", "coordinates": [-82.468078,29.447868]}},
{ "type": "Feature", "properties": {"Name":"Reddick town","State":"Florida","State_Abbrev":"FL"},
"geometry":{ "type": "Point", "coordinates": [-82.197561,29.368698]}},
{ "type": "Feature", "properties": {"Name":"Redington Beach town","State":"Florida","State_Abbrev":"FL"},
"geometry":{ "type": "Point", "coordinates": [-82.812138,27.809487]}},
{ "type": "Feature", "properties": {"Name":"Redington Shores town","State":"Florida","State_Abbrev":"FL"},
"geometry":{ "type": "Point", "coordinates": [-82.8335,27.831725]}},
{ "type": "Feature", "properties": {"Name":"Richmond Heights CDP","State":"Florida","State_Abbrev":"FL"},
"geometry":{ "type": "Point", "coordinates": [-80.371226,25.63329]}},
{ "type": "Feature", "properties": {"Name":"Richmond West CDP","State":"Florida","State_Abbrev":"FL"},
"geometry":{ "type": "Point", "coordinates": [-80.429646,25.609276]}},
{ "type": "Feature", "properties": {"Name":"Ridgecrest CDP","State":"Florida","State_Abbrev":"FL"},
"geometry":{ "type": "Point", "coordinates": [-82.806275,27.889445]}},
{ "type": "Feature", "properties": {"Name":"Ridge Manor CDP","State":"Florida","State_Abbrev":"FL"},
"geometry":{ "type": "Point", "coordinates": [-82.189551,28.492948]}},
{ "type": "Feature", "properties": {"Name":"Ridge Wood Heights CDP","State":"Florida","State_Abbrev":"FL"},
"geometry":{ "type": "Point", "coordinates": [-82.51204,27.286254]}},
{ "type": "Feature", "properties": {"Name":"Rio CDP","State":"Florida","State_Abbrev":"FL"},
"geometry":{ "type": "Point", "coordinates": [-80.240783,27.216409]}},
{ "type": "Feature", "properties": {"Name":"Rio Pinar CDP","State":"Florida","State_Abbrev":"FL"},
"geometry":{ "type": "Point", "coordinates": [-81.261196,28.519131]}},
{ "type": "Feature", "properties": {"Name":"River Park CDP","State":"Florida","State_Abbrev":"FL"},
"geometry":{ "type": "Point", "coordinates": [-80.331572,27.322901]}},
{ "type": "Feature", "properties": {"Name":"River Ridge CDP","State":"Florida","State_Abbrev":"FL"},
"geometry":{ "type": "Point", "coordinates": [-82.625747,28.266882]}},
{ "type": "Feature", "properties": {"Name":"Riverview CDP","State":"Florida","State_Abbrev":"FL"},
"geometry":{ "type": "Point", "coordinates": [-82.304486,27.824275]}},
{ "type": "Feature", "properties": {"Name":"Riviera Beach city","State":"Florida","State_Abbrev":"FL"},
"geometry":{ "type": "Point", "coordinates": [-80.076059,26.781424]}},
{ "type": "Feature", "properties": {"Name":"Rockledge city","State":"Florida","State_Abbrev":"FL"},
"geometry":{ "type": "Point", "coordinates": [-80.737823,28.321362]}},
{ "type": "Feature", "properties": {"Name":"Roeville CDP","State":"Florida","State_Abbrev":"FL"},
"geometry":{ "type": "Point", "coordinates": [-86.992212,30.685094]}},
{ "type": "Feature", "properties": {"Name":"Roosevelt Gardens CDP","State":"Florida","State_Abbrev":"FL"},
"geometry":{ "type": "Point", "coordinates": [-80.18088,26.140678]}},
{ "type": "Feature", "properties": {"Name":"Roseland CDP","State":"Florida","State_Abbrev":"FL"},
"geometry":{ "type": "Point", "coordinates": [-80.488207,27.835325]}},
{ "type": "Feature", "properties": {"Name":"Rotonda CDP","State":"Florida","State_Abbrev":"FL"},
"geometry":{ "type": "Point", "coordinates": [-82.277881,26.88512]}},
{ "type": "Feature", "properties": {"Name":"Royal Palm Beach village","State":"Florida","State_Abbrev":"FL"},
"geometry":{ "type": "Point", "coordinates": [-80.227581,26.699015]}},
{ "type": "Feature", "properties": {"Name":"Royal Palm Estates CDP","State":"Florida","State_Abbrev":"FL"},
"geometry":{ "type": "Point", "coordinates": [-80.132755,26.681657]}},
{ "type": "Feature", "properties": {"Name":"Ruskin CDP","State":"Florida","State_Abbrev":"FL"},
"geometry":{ "type": "Point", "coordinates": [-82.422182,27.706834]}},
{ "type": "Feature", "properties": {"Name":"Safety Harbor city","State":"Florida","State_Abbrev":"FL"},
"geometry":{ "type": "Point", "coordinates": [-82.697836,28.006303]}},
{ "type": "Feature", "properties": {"Name":"St. Augustine city","State":"Florida","State_Abbrev":"FL"},
"geometry":{ "type": "Point", "coordinates": [-81.311128,29.896152]}},
{ "type": "Feature", "properties": {"Name":"St. Augustine Beach city","State":"Florida","State_Abbrev":"FL"},
"geometry":{ "type": "Point", "coordinates": [-81.27097,29.841563]}},
{ "type": "Feature", "properties": {"Name":"St. Augustine Shores CDP","State":"Florida","State_Abbrev":"FL"},
"geometry":{ "type": "Point", "coordinates": [-81.312199,29.805797]}},
{ "type": "Feature", "properties": {"Name":"St. Augustine South CDP","State":"Florida","State_Abbrev":"FL"},
"geometry":{ "type": "Point", "coordinates": [-81.316195,29.844825]}},
{ "type": "Feature", "properties": {"Name":"St. Cloud city","State":"Florida","State_Abbrev":"FL"},
"geometry":{ "type": "Point", "coordinates": [-81.274614,28.230501]}},
{ "type": "Feature", "properties": {"Name":"St. George Island CDP","State":"Florida","State_Abbrev":"FL"},
"geometry":{ "type": "Point", "coordinates": [-84.889768,29.652057]}},
{ "type": "Feature", "properties": {"Name":"St. James City CDP","State":"Florida","State_Abbrev":"FL"},
"geometry":{ "type": "Point", "coordinates": [-82.101977,26.542582]}},
{ "type": "Feature", "properties": {"Name":"St. Leo town","State":"Florida","State_Abbrev":"FL"},
"geometry":{ "type": "Point", "coordinates": [-82.258157,28.336128]}},
{ "type": "Feature", "properties": {"Name":"St. Lucie Village town","State":"Florida","State_Abbrev":"FL"},
"geometry":{ "type": "Point", "coordinates": [-80.341812,27.499881]}},
{ "type": "Feature", "properties": {"Name":"St. Marks city","State":"Florida","State_Abbrev":"FL"},
"geometry":{ "type": "Point", "coordinates": [-84.208292,30.166095]}},
{ "type": "Feature", "properties": {"Name":"St. Pete Beach city","State":"Florida","State_Abbrev":"FL"},
"geometry":{ "type": "Point", "coordinates": [-82.739622,27.716801]}},
{ "type": "Feature", "properties": {"Name":"St. Petersburg city","State":"Florida","State_Abbrev":"FL"},
"geometry":{ "type": "Point", "coordinates": [-82.644131,27.762727]}},
{ "type": "Feature", "properties": {"Name":"Samoset CDP","State":"Florida","State_Abbrev":"FL"},
"geometry":{ "type": "Point", "coordinates": [-82.542997,27.476416]}},
{ "type": "Feature", "properties": {"Name":"Samsula-Spruce Creek CDP","State":"Florida","State_Abbrev":"FL"},
"geometry":{ "type": "Point", "coordinates": [-81.062493,29.051647]}},
{ "type": "Feature", "properties": {"Name":"San Antonio city","State":"Florida","State_Abbrev":"FL"},
"geometry":{ "type": "Point", "coordinates": [-82.278605,28.339858]}},
{ "type": "Feature", "properties": {"Name":"San Carlos Park CDP","State":"Florida","State_Abbrev":"FL"},
"geometry":{ "type": "Point", "coordinates": [-81.819751,26.476694]}},
{ "type": "Feature", "properties": {"Name":"San Castle CDP","State":"Florida","State_Abbrev":"FL"},
"geometry":{ "type": "Point", "coordinates": [-80.06107,26.565095]}},
{ "type": "Feature", "properties": {"Name":"Sanford city","State":"Florida","State_Abbrev":"FL"},
"geometry":{ "type": "Point", "coordinates": [-81.275624,28.789425]}},
{ "type": "Feature", "properties": {"Name":"Sanibel city","State":"Florida","State_Abbrev":"FL"},
"geometry":{ "type": "Point", "coordinates": [-82.105676,26.451038]}},
{ "type": "Feature", "properties": {"Name":"Sarasota city","State":"Florida","State_Abbrev":"FL"},
"geometry":{ "type": "Point", "coordinates": [-82.543721,27.338257]}},
{ "type": "Feature", "properties": {"Name":"Sarasota Springs CDP","State":"Florida","State_Abbrev":"FL"},
"geometry":{ "type": "Point", "coordinates": [-82.475812,27.308767]}},
{ "type": "Feature", "properties": {"Name":"Satellite Beach city","State":"Florida","State_Abbrev":"FL"},
"geometry":{ "type": "Point", "coordinates": [-80.599402,28.178733]}},
{ "type": "Feature", "properties": {"Name":"Sawgrass CDP","State":"Florida","State_Abbrev":"FL"},
"geometry":{ "type": "Point", "coordinates": [-81.371143,30.19126]}},
{ "type": "Feature", "properties": {"Name":"Schall Circle CDP","State":"Florida","State_Abbrev":"FL"},
"geometry":{ "type": "Point", "coordinates": [-80.114343,26.715226]}},
{ "type": "Feature", "properties": {"Name":"Scottsmoor CDP","State":"Florida","State_Abbrev":"FL"},
"geometry":{ "type": "Point", "coordinates": [-80.870986,28.767974]}},
{ "type": "Feature", "properties": {"Name":"Sea Ranch Lakes village","State":"Florida","State_Abbrev":"FL"},
"geometry":{ "type": "Point", "coordinates": [-80.098403,26.19987]}},
{ "type": "Feature", "properties": {"Name":"Sebastian city","State":"Florida","State_Abbrev":"FL"},
"geometry":{ "type": "Point", "coordinates": [-80.482403,27.787857]}},
{ "type": "Feature", "properties": {"Name":"Sebring city","State":"Florida","State_Abbrev":"FL"},
"geometry":{ "type": "Point", "coordinates": [-81.451568,27.471396]}},
{ "type": "Feature", "properties": {"Name":"Seffner CDP","State":"Florida","State_Abbrev":"FL"},
"geometry":{ "type": "Point", "coordinates": [-82.274077,28.001639]}},
{ "type": "Feature", "properties": {"Name":"Seminole city","State":"Florida","State_Abbrev":"FL"},
"geometry":{ "type": "Point", "coordinates": [-82.785304,27.842735]}},
{ "type": "Feature", "properties": {"Name":"Seminole Manor CDP","State":"Florida","State_Abbrev":"FL"},
"geometry":{ "type": "Point", "coordinates": [-80.101324,26.583618]}},
{ "type": "Feature", "properties": {"Name":"Seville CDP","State":"Florida","State_Abbrev":"FL"},
"geometry":{ "type": "Point", "coordinates": [-81.509516,29.340151]}},
{ "type": "Feature", "properties": {"Name":"Sewall's Point town","State":"Florida","State_Abbrev":"FL"},
"geometry":{ "type": "Point", "coordinates": [-80.198858,27.197011]}},
{ "type": "Feature", "properties": {"Name":"Shady Hills CDP","State":"Florida","State_Abbrev":"FL"},
"geometry":{ "type": "Point", "coordinates": [-82.545056,28.403032]}},
{ "type": "Feature", "properties": {"Name":"Shalimar town","State":"Florida","State_Abbrev":"FL"},
"geometry":{ "type": "Point", "coordinates": [-86.582984,30.443219]}},
{ "type": "Feature", "properties": {"Name":"Sharpes CDP","State":"Florida","State_Abbrev":"FL"},
"geometry":{ "type": "Point", "coordinates": [-80.7614,28.443598]}},
{ "type": "Feature", "properties": {"Name":"Siesta Key CDP","State":"Florida","State_Abbrev":"FL"},
"geometry":{ "type": "Point", "coordinates": [-82.549327,27.274813]}},
{ "type": "Feature", "properties": {"Name":"Silver Lake CDP","State":"Florida","State_Abbrev":"FL"},
"geometry":{ "type": "Point", "coordinates": [-81.801073,28.832148]}},
{ "type": "Feature", "properties": {"Name":"Silver Springs CDP","State":"Florida","State_Abbrev":"FL"},
"geometry":{ "type": "Point", "coordinates": [-82.055539,29.219167]}},
{ "type": "Feature", "properties": {"Name":"Silver Springs Shores CDP","State":"Florida","State_Abbrev":"FL"},
"geometry":{ "type": "Point", "coordinates": [-82.014604,29.111881]}},
{ "type": "Feature", "properties": {"Name":"Silver Springs Shores East CDP","State":"Florida","State_Abbrev":"FL"},
"geometry":{ "type": "Point", "coordinates": [-81.883026,29.049449]}},
{ "type": "Feature", "properties": {"Name":"Sky Lake CDP","State":"Florida","State_Abbrev":"FL"},
"geometry":{ "type": "Point", "coordinates": [-81.390465,28.461272]}},
{ "type": "Feature", "properties": {"Name":"Sneads town","State":"Florida","State_Abbrev":"FL"},
"geometry":{ "type": "Point", "coordinates": [-84.925605,30.708575]}},
{ "type": "Feature", "properties": {"Name":"Solana CDP","State":"Florida","State_Abbrev":"FL"},
"geometry":{ "type": "Point", "coordinates": [-82.029695,26.937223]}},
{ "type": "Feature", "properties": {"Name":"Sopchoppy city","State":"Florida","State_Abbrev":"FL"},
"geometry":{ "type": "Point", "coordinates": [-84.485396,30.059872]}},
{ "type": "Feature", "properties": {"Name":"Sorrento CDP","State":"Florida","State_Abbrev":"FL"},
"geometry":{ "type": "Point", "coordinates": [-81.563611,28.80909]}},
{ "type": "Feature", "properties": {"Name":"South Apopka CDP","State":"Florida","State_Abbrev":"FL"},
"geometry":{ "type": "Point", "coordinates": [-81.505717,28.656809]}},
{ "type": "Feature", "properties": {"Name":"South Bay city","State":"Florida","State_Abbrev":"FL"},
"geometry":{ "type": "Point", "coordinates": [-80.735526,26.688379]}},
{ "type": "Feature", "properties": {"Name":"South Beach CDP","State":"Florida","State_Abbrev":"FL"},
"geometry":{ "type": "Point", "coordinates": [-80.333441,27.575518]}},
{ "type": "Feature", "properties": {"Name":"South Bradenton CDP","State":"Florida","State_Abbrev":"FL"},
"geometry":{ "type": "Point", "coordinates": [-82.584713,27.460603]}},
{ "type": "Feature", "properties": {"Name":"South Brooksville CDP","State":"Florida","State_Abbrev":"FL"},
"geometry":{ "type": "Point", "coordinates": [-82.437633,28.514172]}},
{ "type": "Feature", "properties": {"Name":"Southchase CDP","State":"Florida","State_Abbrev":"FL"},
"geometry":{ "type": "Point", "coordinates": [-81.390255,28.379244]}},
{ "type": "Feature", "properties": {"Name":"South Daytona city","State":"Florida","State_Abbrev":"FL"},
"geometry":{ "type": "Point", "coordinates": [-81.005523,29.166211]}},
{ "type": "Feature", "properties": {"Name":"Southeast Arcadia CDP","State":"Florida","State_Abbrev":"FL"},
"geometry":{ "type": "Point", "coordinates": [-81.852089,27.186207]}},
{ "type": "Feature", "properties": {"Name":"Southgate CDP","State":"Florida","State_Abbrev":"FL"},
"geometry":{ "type": "Point", "coordinates": [-82.512286,27.304823]}},
{ "type": "Feature", "properties": {"Name":"South Gate Ridge CDP","State":"Florida","State_Abbrev":"FL"},
"geometry":{ "type": "Point", "coordinates": [-82.496645,27.284499]}},
{ "type": "Feature", "properties": {"Name":"South Highpoint CDP","State":"Florida","State_Abbrev":"FL"},
"geometry":{ "type": "Point", "coordinates": [-82.710613,27.912411]}},
{ "type": "Feature", "properties": {"Name":"South Miami city","State":"Florida","State_Abbrev":"FL"},
"geometry":{ "type": "Point", "coordinates": [-80.295105,25.70855]}},
{ "type": "Feature", "properties": {"Name":"South Miami Heights CDP","State":"Florida","State_Abbrev":"FL"},
"geometry":{ "type": "Point", "coordinates": [-80.385789,25.588232]}},
{ "type": "Feature", "properties": {"Name":"South Palm Beach town","State":"Florida","State_Abbrev":"FL"},
"geometry":{ "type": "Point", "coordinates": [-80.038022,26.58994]}},
{ "type": "Feature", "properties": {"Name":"South Pasadena city","State":"Florida","State_Abbrev":"FL"},
"geometry":{ "type": "Point", "coordinates": [-82.739252,27.752914]}},
{ "type": "Feature", "properties": {"Name":"South Patrick Shores CDP","State":"Florida","State_Abbrev":"FL"},
"geometry":{ "type": "Point", "coordinates": [-80.611249,28.204473]}},
{ "type": "Feature", "properties": {"Name":"South Sarasota CDP","State":"Florida","State_Abbrev":"FL"},
"geometry":{ "type": "Point", "coordinates": [-82.533133,27.286278]}},
{ "type": "Feature", "properties": {"Name":"South Venice CDP","State":"Florida","State_Abbrev":"FL"},
"geometry":{ "type": "Point", "coordinates": [-82.415841,27.044689]}},
{ "type": "Feature", "properties": {"Name":"Southwest Ranches town","State":"Florida","State_Abbrev":"FL"},
"geometry":{ "type": "Point", "coordinates": [-80.373833,26.049688]}},
{ "type": "Feature", "properties": {"Name":"Springfield city","State":"Florida","State_Abbrev":"FL"},
"geometry":{ "type": "Point", "coordinates": [-85.612204,30.171181]}},
{ "type": "Feature", "properties": {"Name":"Spring Hill CDP","State":"Florida","State_Abbrev":"FL"},
"geometry":{ "type": "Point", "coordinates": [-82.529658,28.479207]}},
{ "type": "Feature", "properties": {"Name":"Springhill CDP","State":"Florida","State_Abbrev":"FL"},
"geometry":{ "type": "Point", "coordinates": [-86.922538,30.747203]}},
{ "type": "Feature", "properties": {"Name":"Spring Lake CDP","State":"Florida","State_Abbrev":"FL"},
"geometry":{ "type": "Point", "coordinates": [-82.294056,28.498368]}},
{ "type": "Feature", "properties": {"Name":"Spring Ridge CDP","State":"Florida","State_Abbrev":"FL"},
"geometry":{ "type": "Point", "coordinates": [-82.724453,29.82184]}},
{ "type": "Feature", "properties": {"Name":"Stacey Street CDP","State":"Florida","State_Abbrev":"FL"},
"geometry":{ "type": "Point", "coordinates": [-80.123864,26.697843]}},
{ "type": "Feature", "properties": {"Name":"Starke city","State":"Florida","State_Abbrev":"FL"},
"geometry":{ "type": "Point", "coordinates": [-82.112885,29.947452]}},
{ "type": "Feature", "properties": {"Name":"Steinhatchee CDP","State":"Florida","State_Abbrev":"FL"},
"geometry":{ "type": "Point", "coordinates": [-83.385914,29.677014]}},
{ "type": "Feature", "properties": {"Name":"Stock Island CDP","State":"Florida","State_Abbrev":"FL"},
"geometry":{ "type": "Point", "coordinates": [-81.739793,24.56399]}},
{ "type": "Feature", "properties": {"Name":"Stuart city","State":"Florida","State_Abbrev":"FL"},
"geometry":{ "type": "Point", "coordinates": [-80.244114,27.195272]}},
{ "type": "Feature", "properties": {"Name":"Sugarmill Woods CDP","State":"Florida","State_Abbrev":"FL"},
"geometry":{ "type": "Point", "coordinates": [-82.506044,28.74026]}},
{ "type": "Feature", "properties": {"Name":"Sumatra CDP","State":"Florida","State_Abbrev":"FL"},
"geometry":{ "type": "Point", "coordinates": [-84.982518,30.022979]}},
{ "type": "Feature", "properties": {"Name":"Sun City Center CDP","State":"Florida","State_Abbrev":"FL"},
"geometry":{ "type": "Point", "coordinates": [-82.355762,27.714416]}},
{ "type": "Feature", "properties": {"Name":"Suncoast Estates CDP","State":"Florida","State_Abbrev":"FL"},
"geometry":{ "type": "Point", "coordinates": [-81.868911,26.711162]}},
{ "type": "Feature", "properties": {"Name":"Sunny Isles Beach city","State":"Florida","State_Abbrev":"FL"},
"geometry":{ "type": "Point", "coordinates": [-80.123529,25.938818]}},
{ "type": "Feature", "properties": {"Name":"Sunrise city","State":"Florida","State_Abbrev":"FL"},
"geometry":{ "type": "Point", "coordinates": [-80.261633,26.171601]}},
{ "type": "Feature", "properties": {"Name":"Sunset CDP","State":"Florida","State_Abbrev":"FL"},
"geometry":{ "type": "Point", "coordinates": [-80.352371,25.706081]}},
{ "type": "Feature", "properties": {"Name":"Surfside town","State":"Florida","State_Abbrev":"FL"},
"geometry":{ "type": "Point", "coordinates": [-80.125006,25.878819]}},
{ "type": "Feature", "properties": {"Name":"Sweetwater city","State":"Florida","State_Abbrev":"FL"},
"geometry":{ "type": "Point", "coordinates": [-80.38705,25.784402]}},
{ "type": "Feature", "properties": {"Name":"Taft CDP","State":"Florida","State_Abbrev":"FL"},
"geometry":{ "type": "Point", "coordinates": [-81.367674,28.428323]}},
{ "type": "Feature", "properties": {"Name":"Tallahassee city","State":"Florida","State_Abbrev":"FL"},
"geometry":{ "type": "Point", "coordinates": [-84.253418,30.455131]}},
{ "type": "Feature", "properties": {"Name":"Tamarac city","State":"Florida","State_Abbrev":"FL"},
"geometry":{ "type": "Point", "coordinates": [-80.256135,26.203835]}},
{ "type": "Feature", "properties": {"Name":"Tamiami CDP","State":"Florida","State_Abbrev":"FL"},
"geometry":{ "type": "Point", "coordinates": [-80.402559,25.756321]}},
{ "type": "Feature", "properties": {"Name":"Tampa city","State":"Florida","State_Abbrev":"FL"},
"geometry":{ "type": "Point", "coordinates": [-82.477618,27.966262]}},
{ "type": "Feature", "properties": {"Name":"Tangelo Park CDP","State":"Florida","State_Abbrev":"FL"},
"geometry":{ "type": "Point", "coordinates": [-81.446441,28.455999]}},
{ "type": "Feature", "properties": {"Name":"Tangerine CDP","State":"Florida","State_Abbrev":"FL"},
"geometry":{ "type": "Point", "coordinates": [-81.637975,28.760166]}},
{ "type": "Feature", "properties": {"Name":"Tarpon Springs city","State":"Florida","State_Abbrev":"FL"},
"geometry":{ "type": "Point", "coordinates": [-82.779371,28.149054]}},
{ "type": "Feature", "properties": {"Name":"Tavares city","State":"Florida","State_Abbrev":"FL"},
"geometry":{ "type": "Point", "coordinates": [-81.756384,28.765875]}},
{ "type": "Feature", "properties": {"Name":"Tavernier CDP","State":"Florida","State_Abbrev":"FL"},
"geometry":{ "type": "Point", "coordinates": [-80.502194,25.02665]}},
{ "type": "Feature", "properties": {"Name":"Taylor Creek CDP","State":"Florida","State_Abbrev":"FL"},
"geometry":{ "type": "Point", "coordinates": [-80.791252,27.213904]}},
{ "type": "Feature", "properties": {"Name":"Temple Terrace city","State":"Florida","State_Abbrev":"FL"},
"geometry":{ "type": "Point", "coordinates": [-82.375859,28.043]}},
{ "type": "Feature", "properties": {"Name":"Tequesta village","State":"Florida","State_Abbrev":"FL"},
"geometry":{ "type": "Point", "coordinates": [-80.113241,26.964872]}},
{ "type": "Feature", "properties": {"Name":"The Acreage CDP","State":"Florida","State_Abbrev":"FL"},
"geometry":{ "type": "Point", "coordinates": [-80.276882,26.774186]}},
{ "type": "Feature", "properties": {"Name":"The Crossings CDP","State":"Florida","State_Abbrev":"FL"},
"geometry":{ "type": "Point", "coordinates": [-80.400752,25.670569]}},
{ "type": "Feature", "properties": {"Name":"The Hammocks CDP","State":"Florida","State_Abbrev":"FL"},
"geometry":{ "type": "Point", "coordinates": [-80.448872,25.670376]}},
{ "type": "Feature", "properties": {"Name":"The Meadows CDP","State":"Florida","State_Abbrev":"FL"},
"geometry":{ "type": "Point", "coordinates": [-82.47446,27.362943]}},
{ "type": "Feature", "properties": {"Name":"The Villages CDP","State":"Florida","State_Abbrev":"FL"},
"geometry":{ "type": "Point", "coordinates": [-81.993737,28.898947]}},
{ "type": "Feature", "properties": {"Name":"Thonotosassa CDP","State":"Florida","State_Abbrev":"FL"},
"geometry":{ "type": "Point", "coordinates": [-82.296539,28.046622]}},
{ "type": "Feature", "properties": {"Name":"Three Lakes CDP","State":"Florida","State_Abbrev":"FL"},
"geometry":{ "type": "Point", "coordinates": [-80.399635,25.642604]}},
{ "type": "Feature", "properties": {"Name":"Three Oaks CDP","State":"Florida","State_Abbrev":"FL"},
"geometry":{ "type": "Point", "coordinates": [-81.796898,26.473114]}},
{ "type": "Feature", "properties": {"Name":"Tice CDP","State":"Florida","State_Abbrev":"FL"},
"geometry":{ "type": "Point", "coordinates": [-81.817274,26.675138]}},
{ "type": "Feature", "properties": {"Name":"Tierra Verde CDP","State":"Florida","State_Abbrev":"FL"},
"geometry":{ "type": "Point", "coordinates": [-82.724253,27.662]}},
{ "type": "Feature", "properties": {"Name":"Tiger Point CDP","State":"Florida","State_Abbrev":"FL"},
"geometry":{ "type": "Point", "coordinates": [-87.052448,30.380069]}},
{ "type": "Feature", "properties": {"Name":"Tildenville CDP","State":"Florida","State_Abbrev":"FL"},
"geometry":{ "type": "Point", "coordinates": [-81.606365,28.541381]}},
{ "type": "Feature", "properties": {"Name":"Timber Pines CDP","State":"Florida","State_Abbrev":"FL"},
"geometry":{ "type": "Point", "coordinates": [-82.602431,28.469209]}},
{ "type": "Feature", "properties": {"Name":"Titusville city","State":"Florida","State_Abbrev":"FL"},
"geometry":{ "type": "Point", "coordinates": [-80.819404,28.573368]}},
{ "type": "Feature", "properties": {"Name":"Town 'n' Country CDP","State":"Florida","State_Abbrev":"FL"},
"geometry":{ "type": "Point", "coordinates": [-82.577167,28.010228]}},
{ "type": "Feature", "properties": {"Name":"Treasure Island city","State":"Florida","State_Abbrev":"FL"},
"geometry":{ "type": "Point", "coordinates": [-82.769119,27.764834]}},
{ "type": "Feature", "properties": {"Name":"Trenton city","State":"Florida","State_Abbrev":"FL"},
"geometry":{ "type": "Point", "coordinates": [-82.814612,29.609181]}},
{ "type": "Feature", "properties": {"Name":"Trilby CDP","State":"Florida","State_Abbrev":"FL"},
"geometry":{ "type": "Point", "coordinates": [-82.193976,28.456437]}},
{ "type": "Feature", "properties": {"Name":"Trinity CDP","State":"Florida","State_Abbrev":"FL"},
"geometry":{ "type": "Point", "coordinates": [-82.646916,28.18099]}},
{ "type": "Feature", "properties": {"Name":"Tropical Park CDP","State":"Florida","State_Abbrev":"FL"},
"geometry":{ "type": "Point", "coordinates": [-80.707486,28.380509]}},
{ "type": "Feature", "properties": {"Name":"Tyndall AFB CDP","State":"Florida","State_Abbrev":"FL"},
"geometry":{ "type": "Point", "coordinates": [-85.59914,30.089367]}},
{ "type": "Feature", "properties": {"Name":"Umatilla city","State":"Florida","State_Abbrev":"FL"},
"geometry":{ "type": "Point", "coordinates": [-81.664188,28.927012]}},
{ "type": "Feature", "properties": {"Name":"Union Park CDP","State":"Florida","State_Abbrev":"FL"},
"geometry":{ "type": "Point", "coordinates": [-81.238085,28.567029]}},
{ "type": "Feature", "properties": {"Name":"University CDP","State":"Florida","State_Abbrev":"FL"},
"geometry":{ "type": "Point", "coordinates": [-82.433319,28.076942]}},
{ "type": "Feature", "properties": {"Name":"University CDP","State":"Florida","State_Abbrev":"FL"},
"geometry":{ "type": "Point", "coordinates": [-81.200128,28.589487]}},
{ "type": "Feature", "properties": {"Name":"Upper Grand Lagoon CDP","State":"Florida","State_Abbrev":"FL"},
"geometry":{ "type": "Point", "coordinates": [-85.75301,30.175633]}},
{ "type": "Feature", "properties": {"Name":"Valparaiso city","State":"Florida","State_Abbrev":"FL"},
"geometry":{ "type": "Point", "coordinates": [-86.514669,30.489917]}},
{ "type": "Feature", "properties": {"Name":"Valrico CDP","State":"Florida","State_Abbrev":"FL"},
"geometry":{ "type": "Point", "coordinates": [-82.231259,27.919084]}},
{ "type": "Feature", "properties": {"Name":"Vamo CDP","State":"Florida","State_Abbrev":"FL"},
"geometry":{ "type": "Point", "coordinates": [-82.499923,27.2205]}},
{ "type": "Feature", "properties": {"Name":"Venice city","State":"Florida","State_Abbrev":"FL"},
"geometry":{ "type": "Point", "coordinates": [-82.41519,27.116973]}},
{ "type": "Feature", "properties": {"Name":"Venice Gardens CDP","State":"Florida","State_Abbrev":"FL"},
"geometry":{ "type": "Point", "coordinates": [-82.413252,27.073699]}},
{ "type": "Feature", "properties": {"Name":"Verandah CDP","State":"Florida","State_Abbrev":"FL"},
"geometry":{ "type": "Point", "coordinates": [-81.739668,26.698787]}},
{ "type": "Feature", "properties": {"Name":"Vernon city","State":"Florida","State_Abbrev":"FL"},
"geometry":{ "type": "Point", "coordinates": [-85.700254,30.61225]}},
{ "type": "Feature", "properties": {"Name":"Vero Beach city","State":"Florida","State_Abbrev":"FL"},
"geometry":{ "type": "Point", "coordinates": [-80.393136,27.64722]}},
{ "type": "Feature", "properties": {"Name":"Vero Beach South CDP","State":"Florida","State_Abbrev":"FL"},
"geometry":{ "type": "Point", "coordinates": [-80.418142,27.612825]}},
{ "type": "Feature", "properties": {"Name":"Vero Lake Estates CDP","State":"Florida","State_Abbrev":"FL"},
"geometry":{ "type": "Point", "coordinates": [-80.52831,27.746334]}},
{ "type": "Feature", "properties": {"Name":"Verona Walk CDP","State":"Florida","State_Abbrev":"FL"},
"geometry":{ "type": "Point", "coordinates": [-81.67974,26.086046]}},
{ "type": "Feature", "properties": {"Name":"Viera East CDP","State":"Florida","State_Abbrev":"FL"},
"geometry":{ "type": "Point", "coordinates": [-80.714643,28.262234]}},
{ "type": "Feature", "properties": {"Name":"Viera West CDP","State":"Florida","State_Abbrev":"FL"},
"geometry":{ "type": "Point", "coordinates": [-80.740313,28.245184]}},
{ "type": "Feature", "properties": {"Name":"Vilano Beach CDP","State":"Florida","State_Abbrev":"FL"},
"geometry":{ "type": "Point", "coordinates": [-81.301077,29.930346]}},
{ "type": "Feature", "properties": {"Name":"Villas CDP","State":"Florida","State_Abbrev":"FL"},
"geometry":{ "type": "Point", "coordinates": [-81.867802,26.55052]}},
{ "type": "Feature", "properties": {"Name":"Vineyards CDP","State":"Florida","State_Abbrev":"FL"},
"geometry":{ "type": "Point", "coordinates": [-81.727892,26.23047]}},
{ "type": "Feature", "properties": {"Name":"Virginia Gardens village","State":"Florida","State_Abbrev":"FL"},
"geometry":{ "type": "Point", "coordinates": [-80.297476,25.809521]}},
{ "type": "Feature", "properties": {"Name":"Wabasso CDP","State":"Florida","State_Abbrev":"FL"},
"geometry":{ "type": "Point", "coordinates": [-80.443369,27.750269]}},
{ "type": "Feature", "properties": {"Name":"Wabasso Beach CDP","State":"Florida","State_Abbrev":"FL"},
"geometry":{ "type": "Point", "coordinates": [-80.39761,27.75366]}},
{ "type": "Feature", "properties": {"Name":"Wacissa CDP","State":"Florida","State_Abbrev":"FL"},
"geometry":{ "type": "Point", "coordinates": [-84.001005,30.353518]}},
{ "type": "Feature", "properties": {"Name":"Wahneta CDP","State":"Florida","State_Abbrev":"FL"},
"geometry":{ "type": "Point", "coordinates": [-81.72878,27.958651]}},
{ "type": "Feature", "properties": {"Name":"Waldo city","State":"Florida","State_Abbrev":"FL"},
"geometry":{ "type": "Point", "coordinates": [-82.166931,29.792038]}},
{ "type": "Feature", "properties": {"Name":"Wallace CDP","State":"Florida","State_Abbrev":"FL"},
"geometry":{ "type": "Point", "coordinates": [-87.19585,30.673287]}},
{ "type": "Feature", "properties": {"Name":"Warm Mineral Springs CDP","State":"Florida","State_Abbrev":"FL"},
"geometry":{ "type": "Point", "coordinates": [-82.270421,27.046863]}},
{ "type": "Feature", "properties": {"Name":"Warrington CDP","State":"Florida","State_Abbrev":"FL"},
"geometry":{ "type": "Point", "coordinates": [-87.293788,30.384444]}},
{ "type": "Feature", "properties": {"Name":"Washington Park CDP","State":"Florida","State_Abbrev":"FL"},
"geometry":{ "type": "Point", "coordinates": [-80.182396,26.132484]}},
{ "type": "Feature", "properties": {"Name":"Watergate CDP","State":"Florida","State_Abbrev":"FL"},
"geometry":{ "type": "Point", "coordinates": [-80.212724,26.335877]}},
{ "type": "Feature", "properties": {"Name":"Watertown CDP","State":"Florida","State_Abbrev":"FL"},
"geometry":{ "type": "Point", "coordinates": [-82.602353,30.185857]}},
{ "type": "Feature", "properties": {"Name":"Wauchula city","State":"Florida","State_Abbrev":"FL"},
"geometry":{ "type": "Point", "coordinates": [-81.810087,27.546903]}},
{ "type": "Feature", "properties": {"Name":"Waukeenah CDP","State":"Florida","State_Abbrev":"FL"},
"geometry":{ "type": "Point", "coordinates": [-83.97552,30.395482]}},
{ "type": "Feature", "properties": {"Name":"Wausau town","State":"Florida","State_Abbrev":"FL"},
"geometry":{ "type": "Point", "coordinates": [-85.587315,30.633355]}},
{ "type": "Feature", "properties": {"Name":"Waverly CDP","State":"Florida","State_Abbrev":"FL"},
"geometry":{ "type": "Point", "coordinates": [-81.625304,27.985282]}},
{ "type": "Feature", "properties": {"Name":"Webster city","State":"Florida","State_Abbrev":"FL"},
"geometry":{ "type": "Point", "coordinates": [-82.049363,28.611473]}},
{ "type": "Feature", "properties": {"Name":"Wedgefield CDP","State":"Florida","State_Abbrev":"FL"},
"geometry":{ "type": "Point", "coordinates": [-81.081824,28.48596]}},
{ "type": "Feature", "properties": {"Name":"Weeki Wachee Gardens CDP","State":"Florida","State_Abbrev":"FL"},
"geometry":{ "type": "Point", "coordinates": [-82.623115,28.537266]}},
{ "type": "Feature", "properties": {"Name":"Wekiwa Springs CDP","State":"Florida","State_Abbrev":"FL"},
"geometry":{ "type": "Point", "coordinates": [-81.424772,28.699577]}},
{ "type": "Feature", "properties": {"Name":"Welaka town","State":"Florida","State_Abbrev":"FL"},
"geometry":{ "type": "Point", "coordinates": [-81.660964,29.485205]}},
{ "type": "Feature", "properties": {"Name":"Wellington village","State":"Florida","State_Abbrev":"FL"},
"geometry":{ "type": "Point", "coordinates": [-80.267208,26.648995]}},
{ "type": "Feature", "properties": {"Name":"Wesley Chapel CDP","State":"Florida","State_Abbrev":"FL"},
"geometry":{ "type": "Point", "coordinates": [-82.317108,28.205247]}},
{ "type": "Feature", "properties": {"Name":"West Bradenton CDP","State":"Florida","State_Abbrev":"FL"},
"geometry":{ "type": "Point", "coordinates": [-82.614195,27.500989]}},
{ "type": "Feature", "properties": {"Name":"West Canaveral Groves CDP","State":"Florida","State_Abbrev":"FL"},
"geometry":{ "type": "Point", "coordinates": [-80.849217,28.39268]}},
{ "type": "Feature", "properties": {"Name":"Westchase CDP","State":"Florida","State_Abbrev":"FL"},
"geometry":{ "type": "Point", "coordinates": [-82.608317,28.056497]}},
{ "type": "Feature", "properties": {"Name":"Westchester CDP","State":"Florida","State_Abbrev":"FL"},
"geometry":{ "type": "Point", "coordinates": [-80.353457,25.745392]}},
{ "type": "Feature", "properties": {"Name":"West DeLand CDP","State":"Florida","State_Abbrev":"FL"},
"geometry":{ "type": "Point", "coordinates": [-81.334377,29.016217]}},
{ "type": "Feature", "properties": {"Name":"Westgate CDP","State":"Florida","State_Abbrev":"FL"},
"geometry":{ "type": "Point", "coordinates": [-80.098846,26.699411]}},
{ "type": "Feature", "properties": {"Name":"Westlake city","State":"Florida","State_Abbrev":"FL"},
"geometry":{ "type": "Point", "coordinates": [-80.301483,26.754683]}},
{ "type": "Feature", "properties": {"Name":"West Lealman CDP","State":"Florida","State_Abbrev":"FL"},
"geometry":{ "type": "Point", "coordinates": [-82.738885,27.819871]}},
{ "type": "Feature", "properties": {"Name":"West Little River CDP","State":"Florida","State_Abbrev":"FL"},
"geometry":{ "type": "Point", "coordinates": [-80.237,25.856915]}},
{ "type": "Feature", "properties": {"Name":"West Melbourne city","State":"Florida","State_Abbrev":"FL"},
"geometry":{ "type": "Point", "coordinates": [-80.658327,28.050398]}},
{ "type": "Feature", "properties": {"Name":"West Miami city","State":"Florida","State_Abbrev":"FL"},
"geometry":{ "type": "Point", "coordinates": [-80.296876,25.757805]}},
{ "type": "Feature", "properties": {"Name":"Weston city","State":"Florida","State_Abbrev":"FL"},
"geometry":{ "type": "Point", "coordinates": [-80.402059,26.100391]}},
{ "type": "Feature", "properties": {"Name":"West Palm Beach city","State":"Florida","State_Abbrev":"FL"},
"geometry":{ "type": "Point", "coordinates": [-80.127038,26.745114]}},
{ "type": "Feature", "properties": {"Name":"West Park city","State":"Florida","State_Abbrev":"FL"},
"geometry":{ "type": "Point", "coordinates": [-80.18101,25.978672]}},
{ "type": "Feature", "properties": {"Name":"West Pensacola CDP","State":"Florida","State_Abbrev":"FL"},
"geometry":{ "type": "Point", "coordinates": [-87.268114,30.426725]}},
{ "type": "Feature", "properties": {"Name":"West Perrine CDP","State":"Florida","State_Abbrev":"FL"},
"geometry":{ "type": "Point", "coordinates": [-80.363899,25.60608]}},
{ "type": "Feature", "properties": {"Name":"West Samoset CDP","State":"Florida","State_Abbrev":"FL"},
"geometry":{ "type": "Point", "coordinates": [-82.555253,27.470383]}},
{ "type": "Feature", "properties": {"Name":"West Vero Corridor CDP","State":"Florida","State_Abbrev":"FL"},
"geometry":{ "type": "Point", "coordinates": [-80.482752,27.634974]}},
{ "type": "Feature", "properties": {"Name":"Westview CDP","State":"Florida","State_Abbrev":"FL"},
"geometry":{ "type": "Point", "coordinates": [-80.242028,25.882307]}},
{ "type": "Feature", "properties": {"Name":"Westville town","State":"Florida","State_Abbrev":"FL"},
"geometry":{ "type": "Point", "coordinates": [-85.838124,30.771078]}},
{ "type": "Feature", "properties": {"Name":"Westwood Lakes CDP","State":"Florida","State_Abbrev":"FL"},
"geometry":{ "type": "Point", "coordinates": [-80.369341,25.724653]}},
{ "type": "Feature", "properties": {"Name":"Wewahitchka city","State":"Florida","State_Abbrev":"FL"},
"geometry":{ "type": "Point", "coordinates": [-85.190712,30.126203]}},
{ "type": "Feature", "properties": {"Name":"Whiskey Creek CDP","State":"Florida","State_Abbrev":"FL"},
"geometry":{ "type": "Point", "coordinates": [-81.888563,26.571131]}},
{ "type": "Feature", "properties": {"Name":"White City CDP","State":"Florida","State_Abbrev":"FL"},
"geometry":{ "type": "Point", "coordinates": [-80.3404,27.372248]}},
{ "type": "Feature", "properties": {"Name":"White Springs town","State":"Florida","State_Abbrev":"FL"},
"geometry":{ "type": "Point", "coordinates": [-82.756072,30.331826]}},
{ "type": "Feature", "properties": {"Name":"Whitfield CDP","State":"Florida","State_Abbrev":"FL"},
"geometry":{ "type": "Point", "coordinates": [-82.566664,27.410703]}},
{ "type": "Feature", "properties": {"Name":"Whitfield CDP","State":"Florida","State_Abbrev":"FL"},
"geometry":{ "type": "Point", "coordinates": [-87.066657,30.873458]}},
{ "type": "Feature", "properties": {"Name":"Wildwood city","State":"Florida","State_Abbrev":"FL"},
"geometry":{ "type": "Point", "coordinates": [-82.007324,28.805813]}},
{ "type": "Feature", "properties": {"Name":"Williamsburg CDP","State":"Florida","State_Abbrev":"FL"},
"geometry":{ "type": "Point", "coordinates": [-81.447802,28.401262]}},
{ "type": "Feature", "properties": {"Name":"Williston city","State":"Florida","State_Abbrev":"FL"},
"geometry":{ "type": "Point", "coordinates": [-82.442308,29.393879]}},
{ "type": "Feature", "properties": {"Name":"Williston Highlands CDP","State":"Florida","State_Abbrev":"FL"},
"geometry":{ "type": "Point", "coordinates": [-82.535656,29.333612]}},
{ "type": "Feature", "properties": {"Name":"Willow Oak CDP","State":"Florida","State_Abbrev":"FL"},
"geometry":{ "type": "Point", "coordinates": [-82.024247,27.921919]}},
{ "type": "Feature", "properties": {"Name":"Wilton Manors city","State":"Florida","State_Abbrev":"FL"},
"geometry":{ "type": "Point", "coordinates": [-80.13935,26.159318]}},
{ "type": "Feature", "properties": {"Name":"Wimauma CDP","State":"Florida","State_Abbrev":"FL"},
"geometry":{ "type": "Point", "coordinates": [-82.313163,27.674909]}},
{ "type": "Feature", "properties": {"Name":"Windermere town","State":"Florida","State_Abbrev":"FL"},
"geometry":{ "type": "Point", "coordinates": [-81.537685,28.502535]}},
{ "type": "Feature", "properties": {"Name":"Winding Cypress CDP","State":"Florida","State_Abbrev":"FL"},
"geometry":{ "type": "Point", "coordinates": [-81.677378,26.061596]}},
{ "type": "Feature", "properties": {"Name":"Windsor CDP","State":"Florida","State_Abbrev":"FL"},
"geometry":{ "type": "Point", "coordinates": [-80.413999,27.786776]}},
{ "type": "Feature", "properties": {"Name":"Winter Beach CDP","State":"Florida","State_Abbrev":"FL"},
"geometry":{ "type": "Point", "coordinates": [-80.424321,27.71487]}},
{ "type": "Feature", "properties": {"Name":"Winter Garden city","State":"Florida","State_Abbrev":"FL"},
"geometry":{ "type": "Point", "coordinates": [-81.591241,28.541217]}},
{ "type": "Feature", "properties": {"Name":"Winter Haven city","State":"Florida","State_Abbrev":"FL"},
"geometry":{ "type": "Point", "coordinates": [-81.732743,28.045836]}},
{ "type": "Feature", "properties": {"Name":"Winter Park city","State":"Florida","State_Abbrev":"FL"},
"geometry":{ "type": "Point", "coordinates": [-81.345748,28.59663]}},
{ "type": "Feature", "properties": {"Name":"Winter Springs city","State":"Florida","State_Abbrev":"FL"},
"geometry":{ "type": "Point", "coordinates": [-81.269962,28.688064]}},
{ "type": "Feature", "properties": {"Name":"Wiscon CDP","State":"Florida","State_Abbrev":"FL"},
"geometry":{ "type": "Point", "coordinates": [-82.466111,28.540982]}},
{ "type": "Feature", "properties": {"Name":"Woodlawn Beach CDP","State":"Florida","State_Abbrev":"FL"},
"geometry":{ "type": "Point", "coordinates": [-86.996049,30.388055]}},
{ "type": "Feature", "properties": {"Name":"Woodville CDP","State":"Florida","State_Abbrev":"FL"},
"geometry":{ "type": "Point", "coordinates": [-84.268847,30.315143]}},
{ "type": "Feature", "properties": {"Name":"World Golf Village CDP","State":"Florida","State_Abbrev":"FL"},
"geometry":{ "type": "Point", "coordinates": [-81.49006,29.967988]}},
{ "type": "Feature", "properties": {"Name":"Worthington Springs town","State":"Florida","State_Abbrev":"FL"},
"geometry":{ "type": "Point", "coordinates": [-82.408518,29.933606]}},
{ "type": "Feature", "properties": {"Name":"Wright CDP","State":"Florida","State_Abbrev":"FL"},
"geometry":{ "type": "Point", "coordinates": [-86.641974,30.444099]}},
{ "type": "Feature", "properties": {"Name":"Yalaha CDP","State":"Florida","State_Abbrev":"FL"},
"geometry":{ "type": "Point", "coordinates": [-81.822504,28.744711]}},
{ "type": "Feature", "properties": {"Name":"Yankeetown town","State":"Florida","State_Abbrev":"FL"},
"geometry":{ "type": "Point", "coordinates": [-82.763241,29.031915]}},
{ "type": "Feature", "properties": {"Name":"Yeehaw Junction CDP","State":"Florida","State_Abbrev":"FL"},
"geometry":{ "type": "Point", "coordinates": [-80.883604,27.703243]}},
{ "type": "Feature", "properties": {"Name":"Yulee CDP","State":"Florida","State_Abbrev":"FL"},
"geometry":{ "type": "Point", "coordinates": [-81.569584,30.635418]}},
{ "type": "Feature", "properties": {"Name":"Zellwood CDP","State":"Florida","State_Abbrev":"FL"},
"geometry":{ "type": "Point", "coordinates": [-81.573234,28.721898]}},
{ "type": "Feature", "properties": {"Name":"Zephyrhills city","State":"Florida","State_Abbrev":"FL"},
"geometry":{ "type": "Point", "coordinates": [-82.179024,28.240721]}},
{ "type": "Feature", "properties": {"Name":"Zephyrhills North CDP","State":"Florida","State_Abbrev":"FL"},
"geometry":{ "type": "Point", "coordinates": [-82.165327,28.25208]}},
{ "type": "Feature", "properties": {"Name":"Zephyrhills South CDP","State":"Florida","State_Abbrev":"FL"},
"geometry":{ "type": "Point", "coordinates": [-82.188497,28.215211]}},
{ "type": "Feature", "properties": {"Name":"Zephyrhills West CDP","State":"Florida","State_Abbrev":"FL"},
"geometry":{ "type": "Point", "coordinates": [-82.205282,28.231022]}},
{ "type": "Feature", "properties": {"Name":"Zolfo Springs town","State":"Florida","State_Abbrev":"FL"},
"geometry":{ "type": "Point", "coordinates": [-81.786793,27.492579]}}]}
