{"type":"FeatureCollection","features":[
{ "type": "Feature", "properties": {"Name":"Abbeville city","State":"Georgia","State_Abbrev":"GA"},
"geometry":{ "type": "Point", "coordinates": [-83.306452,31.992576]}},
{ "type": "Feature", "properties": {"Name":"Acworth city","State":"Georgia","State_Abbrev":"GA"},
"geometry":{ "type": "Point", "coordinates": [-84.681121,34.061991]}},
{ "type": "Feature", "properties": {"Name":"Adairsville city","State":"Georgia","State_Abbrev":"GA"},
"geometry":{ "type": "Point", "coordinates": [-84.921192,34.370846]}},
{ "type": "Feature", "properties": {"Name":"Adel city","State":"Georgia","State_Abbrev":"GA"},
"geometry":{ "type": "Point", "coordinates": [-83.425467,31.124811]}},
{ "type": "Feature", "properties": {"Name":"Adrian city","State":"Georgia","State_Abbrev":"GA"},
"geometry":{ "type": "Point", "coordinates": [-82.591509,32.529951]}},
{ "type": "Feature", "properties": {"Name":"Ailey city","State":"Georgia","State_Abbrev":"GA"},
"geometry":{ "type": "Point", "coordinates": [-82.575566,32.18836]}},
{ "type": "Feature", "properties": {"Name":"Alamo town","State":"Georgia","State_Abbrev":"GA"},
"geometry":{ "type": "Point", "coordinates": [-82.779772,32.147606]}},
{ "type": "Feature", "properties": {"Name":"Alapaha town","State":"Georgia","State_Abbrev":"GA"},
"geometry":{ "type": "Point", "coordinates": [-83.223706,31.383138]}},
{ "type": "Feature", "properties": {"Name":"Albany city","State":"Georgia","State_Abbrev":"GA"},
"geometry":{ "type": "Point", "coordinates": [-84.176224,31.578117]}},
{ "type": "Feature", "properties": {"Name":"Aldora town","State":"Georgia","State_Abbrev":"GA"},
"geometry":{ "type": "Point", "coordinates": [-84.175187,33.05113]}},
{ "type": "Feature", "properties": {"Name":"Allenhurst city","State":"Georgia","State_Abbrev":"GA"},
"geometry":{ "type": "Point", "coordinates": [-81.611312,31.779893]}},
{ "type": "Feature", "properties": {"Name":"Allentown city","State":"Georgia","State_Abbrev":"GA"},
"geometry":{ "type": "Point", "coordinates": [-83.226305,32.587329]}},
{ "type": "Feature", "properties": {"Name":"Alma city","State":"Georgia","State_Abbrev":"GA"},
"geometry":{ "type": "Point", "coordinates": [-82.475577,31.543326]}},
{ "type": "Feature", "properties": {"Name":"Alpharetta city","State":"Georgia","State_Abbrev":"GA"},
"geometry":{ "type": "Point", "coordinates": [-84.27265,34.070866]}},
{ "type": "Feature", "properties": {"Name":"Alston town","State":"Georgia","State_Abbrev":"GA"},
"geometry":{ "type": "Point", "coordinates": [-82.480213,32.086595]}},
{ "type": "Feature", "properties": {"Name":"Alto town","State":"Georgia","State_Abbrev":"GA"},
"geometry":{ "type": "Point", "coordinates": [-83.572586,34.464994]}},
{ "type": "Feature", "properties": {"Name":"Ambrose city","State":"Georgia","State_Abbrev":"GA"},
"geometry":{ "type": "Point", "coordinates": [-83.014895,31.595145]}},
{ "type": "Feature", "properties": {"Name":"Americus city","State":"Georgia","State_Abbrev":"GA"},
"geometry":{ "type": "Point", "coordinates": [-84.222829,32.074377]}},
{ "type": "Feature", "properties": {"Name":"Andersonville city","State":"Georgia","State_Abbrev":"GA"},
"geometry":{ "type": "Point", "coordinates": [-84.145565,32.197435]}},
{ "type": "Feature", "properties": {"Name":"Antioch CDP","State":"Georgia","State_Abbrev":"GA"},
"geometry":{ "type": "Point", "coordinates": [-85.053626,32.682806]}},
{ "type": "Feature", "properties": {"Name":"Appling CDP","State":"Georgia","State_Abbrev":"GA"},
"geometry":{ "type": "Point", "coordinates": [-82.310155,33.570957]}},
{ "type": "Feature", "properties": {"Name":"Arabi town","State":"Georgia","State_Abbrev":"GA"},
"geometry":{ "type": "Point", "coordinates": [-83.719208,31.819358]}},
{ "type": "Feature", "properties": {"Name":"Aragon city","State":"Georgia","State_Abbrev":"GA"},
"geometry":{ "type": "Point", "coordinates": [-85.056709,34.046278]}},
{ "type": "Feature", "properties": {"Name":"Arcade city","State":"Georgia","State_Abbrev":"GA"},
"geometry":{ "type": "Point", "coordinates": [-83.528112,34.073545]}},
{ "type": "Feature", "properties": {"Name":"Argyle town","State":"Georgia","State_Abbrev":"GA"},
"geometry":{ "type": "Point", "coordinates": [-82.648875,31.073214]}},
{ "type": "Feature", "properties": {"Name":"Arlington city","State":"Georgia","State_Abbrev":"GA"},
"geometry":{ "type": "Point", "coordinates": [-84.729732,31.436823]}},
{ "type": "Feature", "properties": {"Name":"Arnoldsville city","State":"Georgia","State_Abbrev":"GA"},
"geometry":{ "type": "Point", "coordinates": [-83.218427,33.914955]}},
{ "type": "Feature", "properties": {"Name":"Ashburn city","State":"Georgia","State_Abbrev":"GA"},
"geometry":{ "type": "Point", "coordinates": [-83.652424,31.709191]}},
{ "type": "Feature", "properties": {"Name":"Athens-Clarke County unified government (balance)","State":"Georgia","State_Abbrev":"GA"},
"geometry":{ "type": "Point", "coordinates": [-83.370088,33.949597]}},
{ "type": "Feature", "properties": {"Name":"Atlanta city","State":"Georgia","State_Abbrev":"GA"},
"geometry":{ "type": "Point", "coordinates": [-84.422675,33.762909]}},
{ "type": "Feature", "properties": {"Name":"Attapulgus city","State":"Georgia","State_Abbrev":"GA"},
"geometry":{ "type": "Point", "coordinates": [-84.483886,30.74949]}},
{ "type": "Feature", "properties": {"Name":"Auburn city","State":"Georgia","State_Abbrev":"GA"},
"geometry":{ "type": "Point", "coordinates": [-83.833741,34.015186]}},
{ "type": "Feature", "properties": {"Name":"Augusta-Richmond County consolidated government (balance)","State":"Georgia","State_Abbrev":"GA"},
"geometry":{ "type": "Point", "coordinates": [-82.073422,33.365531]}},
{ "type": "Feature", "properties": {"Name":"Austell city","State":"Georgia","State_Abbrev":"GA"},
"geometry":{ "type": "Point", "coordinates": [-84.643774,33.819766]}},
{ "type": "Feature", "properties": {"Name":"Avalon town","State":"Georgia","State_Abbrev":"GA"},
"geometry":{ "type": "Point", "coordinates": [-83.198203,34.497141]}},
{ "type": "Feature", "properties": {"Name":"Avera city","State":"Georgia","State_Abbrev":"GA"},
"geometry":{ "type": "Point", "coordinates": [-82.528732,33.193423]}},
{ "type": "Feature", "properties": {"Name":"Avondale Estates city","State":"Georgia","State_Abbrev":"GA"},
"geometry":{ "type": "Point", "coordinates": [-84.264735,33.768731]}},
{ "type": "Feature", "properties": {"Name":"Axson CDP","State":"Georgia","State_Abbrev":"GA"},
"geometry":{ "type": "Point", "coordinates": [-82.727148,31.279937]}},
{ "type": "Feature", "properties": {"Name":"Baconton city","State":"Georgia","State_Abbrev":"GA"},
"geometry":{ "type": "Point", "coordinates": [-84.159185,31.380379]}},
{ "type": "Feature", "properties": {"Name":"Bainbridge city","State":"Georgia","State_Abbrev":"GA"},
"geometry":{ "type": "Point", "coordinates": [-84.573047,30.904933]}},
{ "type": "Feature", "properties": {"Name":"Baldwin city","State":"Georgia","State_Abbrev":"GA"},
"geometry":{ "type": "Point", "coordinates": [-83.547237,34.487649]}},
{ "type": "Feature", "properties": {"Name":"Ball Ground city","State":"Georgia","State_Abbrev":"GA"},
"geometry":{ "type": "Point", "coordinates": [-84.368143,34.33915]}},
{ "type": "Feature", "properties": {"Name":"Barnesville city","State":"Georgia","State_Abbrev":"GA"},
"geometry":{ "type": "Point", "coordinates": [-84.149284,33.048653]}},
{ "type": "Feature", "properties": {"Name":"Bartow town","State":"Georgia","State_Abbrev":"GA"},
"geometry":{ "type": "Point", "coordinates": [-82.472328,32.881217]}},
{ "type": "Feature", "properties": {"Name":"Barwick city","State":"Georgia","State_Abbrev":"GA"},
"geometry":{ "type": "Point", "coordinates": [-83.738838,30.893685]}},
{ "type": "Feature", "properties": {"Name":"Baxley city","State":"Georgia","State_Abbrev":"GA"},
"geometry":{ "type": "Point", "coordinates": [-82.349254,31.764753]}},
{ "type": "Feature", "properties": {"Name":"Bellville city","State":"Georgia","State_Abbrev":"GA"},
"geometry":{ "type": "Point", "coordinates": [-81.978229,32.155023]}},
{ "type": "Feature", "properties": {"Name":"Belvedere Park CDP","State":"Georgia","State_Abbrev":"GA"},
"geometry":{ "type": "Point", "coordinates": [-84.259773,33.748855]}},
{ "type": "Feature", "properties": {"Name":"Bemiss CDP","State":"Georgia","State_Abbrev":"GA"},
"geometry":{ "type": "Point", "coordinates": [-83.221938,30.932951]}},
{ "type": "Feature", "properties": {"Name":"Berkeley Lake city","State":"Georgia","State_Abbrev":"GA"},
"geometry":{ "type": "Point", "coordinates": [-84.185589,33.981438]}},
{ "type": "Feature", "properties": {"Name":"Berlin city","State":"Georgia","State_Abbrev":"GA"},
"geometry":{ "type": "Point", "coordinates": [-83.623296,31.068078]}},
{ "type": "Feature", "properties": {"Name":"Berry College CDP","State":"Georgia","State_Abbrev":"GA"},
"geometry":{ "type": "Point", "coordinates": [-85.187766,34.291044]}},
{ "type": "Feature", "properties": {"Name":"Bethlehem town","State":"Georgia","State_Abbrev":"GA"},
"geometry":{ "type": "Point", "coordinates": [-83.709982,33.937948]}},
{ "type": "Feature", "properties": {"Name":"Between town","State":"Georgia","State_Abbrev":"GA"},
"geometry":{ "type": "Point", "coordinates": [-83.801104,33.817668]}},
{ "type": "Feature", "properties": {"Name":"Bishop town","State":"Georgia","State_Abbrev":"GA"},
"geometry":{ "type": "Point", "coordinates": [-83.438159,33.818727]}},
{ "type": "Feature", "properties": {"Name":"Blackshear city","State":"Georgia","State_Abbrev":"GA"},
"geometry":{ "type": "Point", "coordinates": [-82.252927,31.290824]}},
{ "type": "Feature", "properties": {"Name":"Blairsville city","State":"Georgia","State_Abbrev":"GA"},
"geometry":{ "type": "Point", "coordinates": [-83.95466,34.875666]}},
{ "type": "Feature", "properties": {"Name":"Blakely city","State":"Georgia","State_Abbrev":"GA"},
"geometry":{ "type": "Point", "coordinates": [-84.927059,31.380935]}},
{ "type": "Feature", "properties": {"Name":"Bloomingdale city","State":"Georgia","State_Abbrev":"GA"},
"geometry":{ "type": "Point", "coordinates": [-81.308387,32.124998]}},
{ "type": "Feature", "properties": {"Name":"Blue Ridge city","State":"Georgia","State_Abbrev":"GA"},
"geometry":{ "type": "Point", "coordinates": [-84.321854,34.866495]}},
{ "type": "Feature", "properties": {"Name":"Bluffton town","State":"Georgia","State_Abbrev":"GA"},
"geometry":{ "type": "Point", "coordinates": [-84.869119,31.519817]}},
{ "type": "Feature", "properties": {"Name":"Blythe city","State":"Georgia","State_Abbrev":"GA"},
"geometry":{ "type": "Point", "coordinates": [-82.207357,33.303066]}},
{ "type": "Feature", "properties": {"Name":"Bogart town","State":"Georgia","State_Abbrev":"GA"},
"geometry":{ "type": "Point", "coordinates": [-83.533749,33.947625]}},
{ "type": "Feature", "properties": {"Name":"Bolingbroke CDP","State":"Georgia","State_Abbrev":"GA"},
"geometry":{ "type": "Point", "coordinates": [-83.79959,32.938453]}},
{ "type": "Feature", "properties": {"Name":"Bonanza CDP","State":"Georgia","State_Abbrev":"GA"},
"geometry":{ "type": "Point", "coordinates": [-84.337817,33.458867]}},
{ "type": "Feature", "properties": {"Name":"Boston city","State":"Georgia","State_Abbrev":"GA"},
"geometry":{ "type": "Point", "coordinates": [-83.789369,30.791186]}},
{ "type": "Feature", "properties": {"Name":"Bostwick city","State":"Georgia","State_Abbrev":"GA"},
"geometry":{ "type": "Point", "coordinates": [-83.5139,33.737696]}},
{ "type": "Feature", "properties": {"Name":"Bowdon city","State":"Georgia","State_Abbrev":"GA"},
"geometry":{ "type": "Point", "coordinates": [-85.253976,33.537837]}},
{ "type": "Feature", "properties": {"Name":"Bowersville town","State":"Georgia","State_Abbrev":"GA"},
"geometry":{ "type": "Point", "coordinates": [-83.084305,34.373065]}},
{ "type": "Feature", "properties": {"Name":"Bowman city","State":"Georgia","State_Abbrev":"GA"},
"geometry":{ "type": "Point", "coordinates": [-83.031139,34.205388]}},
{ "type": "Feature", "properties": {"Name":"Box Springs CDP","State":"Georgia","State_Abbrev":"GA"},
"geometry":{ "type": "Point", "coordinates": [-84.657518,32.54456]}},
{ "type": "Feature", "properties": {"Name":"Boykin CDP","State":"Georgia","State_Abbrev":"GA"},
"geometry":{ "type": "Point", "coordinates": [-84.684027,31.100329]}},
{ "type": "Feature", "properties": {"Name":"Braselton town","State":"Georgia","State_Abbrev":"GA"},
"geometry":{ "type": "Point", "coordinates": [-83.812908,34.107616]}},
{ "type": "Feature", "properties": {"Name":"Braswell town","State":"Georgia","State_Abbrev":"GA"},
"geometry":{ "type": "Point", "coordinates": [-84.9584,33.983545]}},
{ "type": "Feature", "properties": {"Name":"Bremen city","State":"Georgia","State_Abbrev":"GA"},
"geometry":{ "type": "Point", "coordinates": [-85.151897,33.710765]}},
{ "type": "Feature", "properties": {"Name":"Brinson town","State":"Georgia","State_Abbrev":"GA"},
"geometry":{ "type": "Point", "coordinates": [-84.737945,30.978442]}},
{ "type": "Feature", "properties": {"Name":"Bristol CDP","State":"Georgia","State_Abbrev":"GA"},
"geometry":{ "type": "Point", "coordinates": [-82.214831,31.451696]}},
{ "type": "Feature", "properties": {"Name":"Bronwood town","State":"Georgia","State_Abbrev":"GA"},
"geometry":{ "type": "Point", "coordinates": [-84.364332,31.830545]}},
{ "type": "Feature", "properties": {"Name":"Brookhaven city","State":"Georgia","State_Abbrev":"GA"},
"geometry":{ "type": "Point", "coordinates": [-84.338503,33.8612]}},
{ "type": "Feature", "properties": {"Name":"Brooklet city","State":"Georgia","State_Abbrev":"GA"},
"geometry":{ "type": "Point", "coordinates": [-81.669965,32.389097]}},
{ "type": "Feature", "properties": {"Name":"Brooks town","State":"Georgia","State_Abbrev":"GA"},
"geometry":{ "type": "Point", "coordinates": [-84.451373,33.293339]}},
{ "type": "Feature", "properties": {"Name":"Broxton city","State":"Georgia","State_Abbrev":"GA"},
"geometry":{ "type": "Point", "coordinates": [-82.887468,31.625133]}},
{ "type": "Feature", "properties": {"Name":"Brunswick city","State":"Georgia","State_Abbrev":"GA"},
"geometry":{ "type": "Point", "coordinates": [-81.466936,31.136149]}},
{ "type": "Feature", "properties": {"Name":"Buchanan city","State":"Georgia","State_Abbrev":"GA"},
"geometry":{ "type": "Point", "coordinates": [-85.179809,33.80053]}},
{ "type": "Feature", "properties": {"Name":"Buckhead CDP","State":"Georgia","State_Abbrev":"GA"},
"geometry":{ "type": "Point", "coordinates": [-81.260314,31.861845]}},
{ "type": "Feature", "properties": {"Name":"Buckhead town","State":"Georgia","State_Abbrev":"GA"},
"geometry":{ "type": "Point", "coordinates": [-83.361235,33.568403]}},
{ "type": "Feature", "properties": {"Name":"Buena Vista city","State":"Georgia","State_Abbrev":"GA"},
"geometry":{ "type": "Point", "coordinates": [-84.517564,32.318481]}},
{ "type": "Feature", "properties": {"Name":"Buford city","State":"Georgia","State_Abbrev":"GA"},
"geometry":{ "type": "Point", "coordinates": [-83.989976,34.119931]}},
{ "type": "Feature", "properties": {"Name":"Butler city","State":"Georgia","State_Abbrev":"GA"},
"geometry":{ "type": "Point", "coordinates": [-84.23733,32.557194]}},
{ "type": "Feature", "properties": {"Name":"Byromville town","State":"Georgia","State_Abbrev":"GA"},
"geometry":{ "type": "Point", "coordinates": [-83.907239,32.201633]}},
{ "type": "Feature", "properties": {"Name":"Byron city","State":"Georgia","State_Abbrev":"GA"},
"geometry":{ "type": "Point", "coordinates": [-83.747954,32.649497]}},
{ "type": "Feature", "properties": {"Name":"Cadwell town","State":"Georgia","State_Abbrev":"GA"},
"geometry":{ "type": "Point", "coordinates": [-83.04064,32.340135]}},
{ "type": "Feature", "properties": {"Name":"Cairo city","State":"Georgia","State_Abbrev":"GA"},
"geometry":{ "type": "Point", "coordinates": [-84.205505,30.879229]}},
{ "type": "Feature", "properties": {"Name":"Calhoun city","State":"Georgia","State_Abbrev":"GA"},
"geometry":{ "type": "Point", "coordinates": [-84.939319,34.490806]}},
{ "type": "Feature", "properties": {"Name":"Calvary CDP","State":"Georgia","State_Abbrev":"GA"},
"geometry":{ "type": "Point", "coordinates": [-84.357079,30.718312]}},
{ "type": "Feature", "properties": {"Name":"Camak town","State":"Georgia","State_Abbrev":"GA"},
"geometry":{ "type": "Point", "coordinates": [-82.649524,33.450759]}},
{ "type": "Feature", "properties": {"Name":"Camilla city","State":"Georgia","State_Abbrev":"GA"},
"geometry":{ "type": "Point", "coordinates": [-84.209563,31.234057]}},
{ "type": "Feature", "properties": {"Name":"Candler-McAfee CDP","State":"Georgia","State_Abbrev":"GA"},
"geometry":{ "type": "Point", "coordinates": [-84.270852,33.726222]}},
{ "type": "Feature", "properties": {"Name":"Canon city","State":"Georgia","State_Abbrev":"GA"},
"geometry":{ "type": "Point", "coordinates": [-83.111768,34.341681]}},
{ "type": "Feature", "properties": {"Name":"Canoochee CDP","State":"Georgia","State_Abbrev":"GA"},
"geometry":{ "type": "Point", "coordinates": [-82.173608,32.685397]}},
{ "type": "Feature", "properties": {"Name":"Canton city","State":"Georgia","State_Abbrev":"GA"},
"geometry":{ "type": "Point", "coordinates": [-84.490723,34.247201]}},
{ "type": "Feature", "properties": {"Name":"Carl town","State":"Georgia","State_Abbrev":"GA"},
"geometry":{ "type": "Point", "coordinates": [-83.814032,34.002952]}},
{ "type": "Feature", "properties": {"Name":"Carlton city","State":"Georgia","State_Abbrev":"GA"},
"geometry":{ "type": "Point", "coordinates": [-83.042224,34.040962]}},
{ "type": "Feature", "properties": {"Name":"Carnesville city","State":"Georgia","State_Abbrev":"GA"},
"geometry":{ "type": "Point", "coordinates": [-83.227532,34.375266]}},
{ "type": "Feature", "properties": {"Name":"Carrollton city","State":"Georgia","State_Abbrev":"GA"},
"geometry":{ "type": "Point", "coordinates": [-85.083983,33.58169]}},
{ "type": "Feature", "properties": {"Name":"Cartersville city","State":"Georgia","State_Abbrev":"GA"},
"geometry":{ "type": "Point", "coordinates": [-84.801704,34.164579]}},
{ "type": "Feature", "properties": {"Name":"Cataula CDP","State":"Georgia","State_Abbrev":"GA"},
"geometry":{ "type": "Point", "coordinates": [-84.865165,32.665027]}},
{ "type": "Feature", "properties": {"Name":"Cave Spring city","State":"Georgia","State_Abbrev":"GA"},
"geometry":{ "type": "Point", "coordinates": [-85.339711,34.108585]}},
{ "type": "Feature", "properties": {"Name":"Cecil city","State":"Georgia","State_Abbrev":"GA"},
"geometry":{ "type": "Point", "coordinates": [-83.390945,31.046577]}},
{ "type": "Feature", "properties": {"Name":"Cedar Springs CDP","State":"Georgia","State_Abbrev":"GA"},
"geometry":{ "type": "Point", "coordinates": [-85.032441,31.187305]}},
{ "type": "Feature", "properties": {"Name":"Cedartown city","State":"Georgia","State_Abbrev":"GA"},
"geometry":{ "type": "Point", "coordinates": [-85.247531,34.021749]}},
{ "type": "Feature", "properties": {"Name":"Centerville city","State":"Georgia","State_Abbrev":"GA"},
"geometry":{ "type": "Point", "coordinates": [-83.686627,32.634378]}},
{ "type": "Feature", "properties": {"Name":"Centralhatchee town","State":"Georgia","State_Abbrev":"GA"},
"geometry":{ "type": "Point", "coordinates": [-85.103722,33.368898]}},
{ "type": "Feature", "properties": {"Name":"Chamblee city","State":"Georgia","State_Abbrev":"GA"},
"geometry":{ "type": "Point", "coordinates": [-84.301654,33.881134]}},
{ "type": "Feature", "properties": {"Name":"Chatsworth city","State":"Georgia","State_Abbrev":"GA"},
"geometry":{ "type": "Point", "coordinates": [-84.782472,34.781091]}},
{ "type": "Feature", "properties": {"Name":"Chattahoochee Hills city","State":"Georgia","State_Abbrev":"GA"},
"geometry":{ "type": "Point", "coordinates": [-84.74589,33.581073]}},
{ "type": "Feature", "properties": {"Name":"Chattanooga Valley CDP","State":"Georgia","State_Abbrev":"GA"},
"geometry":{ "type": "Point", "coordinates": [-85.343119,34.924114]}},
{ "type": "Feature", "properties": {"Name":"Chauncey city","State":"Georgia","State_Abbrev":"GA"},
"geometry":{ "type": "Point", "coordinates": [-83.068014,32.111809]}},
{ "type": "Feature", "properties": {"Name":"Cherry Log CDP","State":"Georgia","State_Abbrev":"GA"},
"geometry":{ "type": "Point", "coordinates": [-84.381047,34.78509]}},
{ "type": "Feature", "properties": {"Name":"Chester town","State":"Georgia","State_Abbrev":"GA"},
"geometry":{ "type": "Point", "coordinates": [-83.155682,32.394447]}},
{ "type": "Feature", "properties": {"Name":"Chickamauga city","State":"Georgia","State_Abbrev":"GA"},
"geometry":{ "type": "Point", "coordinates": [-85.28835,34.877467]}},
{ "type": "Feature", "properties": {"Name":"Clarkesville city","State":"Georgia","State_Abbrev":"GA"},
"geometry":{ "type": "Point", "coordinates": [-83.52747,34.609289]}},
{ "type": "Feature", "properties": {"Name":"Clarkston city","State":"Georgia","State_Abbrev":"GA"},
"geometry":{ "type": "Point", "coordinates": [-84.24185,33.813489]}},
{ "type": "Feature", "properties": {"Name":"Claxton city","State":"Georgia","State_Abbrev":"GA"},
"geometry":{ "type": "Point", "coordinates": [-81.909659,32.162075]}},
{ "type": "Feature", "properties": {"Name":"Clayton city","State":"Georgia","State_Abbrev":"GA"},
"geometry":{ "type": "Point", "coordinates": [-83.403256,34.87663]}},
{ "type": "Feature", "properties": {"Name":"Clermont town","State":"Georgia","State_Abbrev":"GA"},
"geometry":{ "type": "Point", "coordinates": [-83.770401,34.480134]}},
{ "type": "Feature", "properties": {"Name":"Cleveland city","State":"Georgia","State_Abbrev":"GA"},
"geometry":{ "type": "Point", "coordinates": [-83.760707,34.59704]}},
{ "type": "Feature", "properties": {"Name":"Climax city","State":"Georgia","State_Abbrev":"GA"},
"geometry":{ "type": "Point", "coordinates": [-84.431172,30.875669]}},
{ "type": "Feature", "properties": {"Name":"Clyattville CDP","State":"Georgia","State_Abbrev":"GA"},
"geometry":{ "type": "Point", "coordinates": [-83.310948,30.681515]}},
{ "type": "Feature", "properties": {"Name":"Cobbtown city","State":"Georgia","State_Abbrev":"GA"},
"geometry":{ "type": "Point", "coordinates": [-82.138334,32.279221]}},
{ "type": "Feature", "properties": {"Name":"Cochran city","State":"Georgia","State_Abbrev":"GA"},
"geometry":{ "type": "Point", "coordinates": [-83.351397,32.387346]}},
{ "type": "Feature", "properties": {"Name":"Cogdell CDP","State":"Georgia","State_Abbrev":"GA"},
"geometry":{ "type": "Point", "coordinates": [-82.721638,31.166264]}},
{ "type": "Feature", "properties": {"Name":"Cohutta city","State":"Georgia","State_Abbrev":"GA"},
"geometry":{ "type": "Point", "coordinates": [-84.967153,34.955252]}},
{ "type": "Feature", "properties": {"Name":"Colbert city","State":"Georgia","State_Abbrev":"GA"},
"geometry":{ "type": "Point", "coordinates": [-83.213102,34.037244]}},
{ "type": "Feature", "properties": {"Name":"Coleman CDP","State":"Georgia","State_Abbrev":"GA"},
"geometry":{ "type": "Point", "coordinates": [-84.892958,31.668596]}},
{ "type": "Feature", "properties": {"Name":"College Park city","State":"Georgia","State_Abbrev":"GA"},
"geometry":{ "type": "Point", "coordinates": [-84.463502,33.641448]}},
{ "type": "Feature", "properties": {"Name":"Collins city","State":"Georgia","State_Abbrev":"GA"},
"geometry":{ "type": "Point", "coordinates": [-82.109874,32.179214]}},
{ "type": "Feature", "properties": {"Name":"Colquitt city","State":"Georgia","State_Abbrev":"GA"},
"geometry":{ "type": "Point", "coordinates": [-84.732379,31.173215]}},
{ "type": "Feature", "properties": {"Name":"Columbus city","State":"Georgia","State_Abbrev":"GA"},
"geometry":{ "type": "Point", "coordinates": [-84.874946,32.510197]}},
{ "type": "Feature", "properties": {"Name":"Comer city","State":"Georgia","State_Abbrev":"GA"},
"geometry":{ "type": "Point", "coordinates": [-83.12732,34.062462]}},
{ "type": "Feature", "properties": {"Name":"Commerce city","State":"Georgia","State_Abbrev":"GA"},
"geometry":{ "type": "Point", "coordinates": [-83.475713,34.214298]}},
{ "type": "Feature", "properties": {"Name":"Concord city","State":"Georgia","State_Abbrev":"GA"},
"geometry":{ "type": "Point", "coordinates": [-84.438844,33.092129]}},
{ "type": "Feature", "properties": {"Name":"Conley CDP","State":"Georgia","State_Abbrev":"GA"},
"geometry":{ "type": "Point", "coordinates": [-84.334334,33.642273]}},
{ "type": "Feature", "properties": {"Name":"Conyers city","State":"Georgia","State_Abbrev":"GA"},
"geometry":{ "type": "Point", "coordinates": [-83.983814,33.657471]}},
{ "type": "Feature", "properties": {"Name":"Coolidge city","State":"Georgia","State_Abbrev":"GA"},
"geometry":{ "type": "Point", "coordinates": [-83.866476,31.010769]}},
{ "type": "Feature", "properties": {"Name":"Cordele city","State":"Georgia","State_Abbrev":"GA"},
"geometry":{ "type": "Point", "coordinates": [-83.770077,31.95609]}},
{ "type": "Feature", "properties": {"Name":"Cornelia city","State":"Georgia","State_Abbrev":"GA"},
"geometry":{ "type": "Point", "coordinates": [-83.531473,34.516629]}},
{ "type": "Feature", "properties": {"Name":"Country Club Estates CDP","State":"Georgia","State_Abbrev":"GA"},
"geometry":{ "type": "Point", "coordinates": [-81.4627,31.207037]}},
{ "type": "Feature", "properties": {"Name":"Covington city","State":"Georgia","State_Abbrev":"GA"},
"geometry":{ "type": "Point", "coordinates": [-83.846634,33.605439]}},
{ "type": "Feature", "properties": {"Name":"Crawford city","State":"Georgia","State_Abbrev":"GA"},
"geometry":{ "type": "Point", "coordinates": [-83.15539,33.883227]}},
{ "type": "Feature", "properties": {"Name":"Crawfordville city","State":"Georgia","State_Abbrev":"GA"},
"geometry":{ "type": "Point", "coordinates": [-82.896695,33.554641]}},
{ "type": "Feature", "properties": {"Name":"Crescent CDP","State":"Georgia","State_Abbrev":"GA"},
"geometry":{ "type": "Point", "coordinates": [-81.370222,31.518659]}},
{ "type": "Feature", "properties": {"Name":"Crooked Creek CDP","State":"Georgia","State_Abbrev":"GA"},
"geometry":{ "type": "Point", "coordinates": [-83.27525,33.265688]}},
{ "type": "Feature", "properties": {"Name":"Culloden city","State":"Georgia","State_Abbrev":"GA"},
"geometry":{ "type": "Point", "coordinates": [-84.093999,32.864908]}},
{ "type": "Feature", "properties": {"Name":"Cumming city","State":"Georgia","State_Abbrev":"GA"},
"geometry":{ "type": "Point", "coordinates": [-84.133848,34.206067]}},
{ "type": "Feature", "properties": {"Name":"Cusseta-Chattahoochee County unified government","State":"Georgia","State_Abbrev":"GA"},
"geometry":{ "type": "Point", "coordinates": [-84.788021,32.347445]}},
{ "type": "Feature", "properties": {"Name":"Cuthbert city","State":"Georgia","State_Abbrev":"GA"},
"geometry":{ "type": "Point", "coordinates": [-84.793575,31.770686]}},
{ "type": "Feature", "properties": {"Name":"Dacula city","State":"Georgia","State_Abbrev":"GA"},
"geometry":{ "type": "Point", "coordinates": [-83.90108,33.981967]}},
{ "type": "Feature", "properties": {"Name":"Dahlonega city","State":"Georgia","State_Abbrev":"GA"},
"geometry":{ "type": "Point", "coordinates": [-83.979579,34.529909]}},
{ "type": "Feature", "properties": {"Name":"Daisy city","State":"Georgia","State_Abbrev":"GA"},
"geometry":{ "type": "Point", "coordinates": [-81.835957,32.150957]}},
{ "type": "Feature", "properties": {"Name":"Dallas city","State":"Georgia","State_Abbrev":"GA"},
"geometry":{ "type": "Point", "coordinates": [-84.840847,33.916513]}},
{ "type": "Feature", "properties": {"Name":"Dalton city","State":"Georgia","State_Abbrev":"GA"},
"geometry":{ "type": "Point", "coordinates": [-84.972812,34.767898]}},
{ "type": "Feature", "properties": {"Name":"Damascus city","State":"Georgia","State_Abbrev":"GA"},
"geometry":{ "type": "Point", "coordinates": [-84.717195,31.298515]}},
{ "type": "Feature", "properties": {"Name":"Danielsville city","State":"Georgia","State_Abbrev":"GA"},
"geometry":{ "type": "Point", "coordinates": [-83.22036,34.123973]}},
{ "type": "Feature", "properties": {"Name":"Danville town","State":"Georgia","State_Abbrev":"GA"},
"geometry":{ "type": "Point", "coordinates": [-83.246057,32.606013]}},
{ "type": "Feature", "properties": {"Name":"Darien city","State":"Georgia","State_Abbrev":"GA"},
"geometry":{ "type": "Point", "coordinates": [-81.424103,31.343489]}},
{ "type": "Feature", "properties": {"Name":"Dasher town","State":"Georgia","State_Abbrev":"GA"},
"geometry":{ "type": "Point", "coordinates": [-83.222524,30.742266]}},
{ "type": "Feature", "properties": {"Name":"Davisboro city","State":"Georgia","State_Abbrev":"GA"},
"geometry":{ "type": "Point", "coordinates": [-82.603571,32.981412]}},
{ "type": "Feature", "properties": {"Name":"Dawson city","State":"Georgia","State_Abbrev":"GA"},
"geometry":{ "type": "Point", "coordinates": [-84.443499,31.771864]}},
{ "type": "Feature", "properties": {"Name":"Dawsonville city","State":"Georgia","State_Abbrev":"GA"},
"geometry":{ "type": "Point", "coordinates": [-84.124476,34.433581]}},
{ "type": "Feature", "properties": {"Name":"Dearing town","State":"Georgia","State_Abbrev":"GA"},
"geometry":{ "type": "Point", "coordinates": [-82.386483,33.415187]}},
{ "type": "Feature", "properties": {"Name":"Decatur city","State":"Georgia","State_Abbrev":"GA"},
"geometry":{ "type": "Point", "coordinates": [-84.295784,33.771067]}},
{ "type": "Feature", "properties": {"Name":"Deenwood CDP","State":"Georgia","State_Abbrev":"GA"},
"geometry":{ "type": "Point", "coordinates": [-82.365728,31.246823]}},
{ "type": "Feature", "properties": {"Name":"Deepstep town","State":"Georgia","State_Abbrev":"GA"},
"geometry":{ "type": "Point", "coordinates": [-82.965115,33.015814]}},
{ "type": "Feature", "properties": {"Name":"Demorest city","State":"Georgia","State_Abbrev":"GA"},
"geometry":{ "type": "Point", "coordinates": [-83.542311,34.563531]}},
{ "type": "Feature", "properties": {"Name":"Denton city","State":"Georgia","State_Abbrev":"GA"},
"geometry":{ "type": "Point", "coordinates": [-82.692237,31.72013]}},
{ "type": "Feature", "properties": {"Name":"De Soto city","State":"Georgia","State_Abbrev":"GA"},
"geometry":{ "type": "Point", "coordinates": [-84.063639,31.95479]}},
{ "type": "Feature", "properties": {"Name":"Dewy Rose CDP","State":"Georgia","State_Abbrev":"GA"},
"geometry":{ "type": "Point", "coordinates": [-82.942673,34.171505]}},
{ "type": "Feature", "properties": {"Name":"Dexter town","State":"Georgia","State_Abbrev":"GA"},
"geometry":{ "type": "Point", "coordinates": [-83.059134,32.433195]}},
{ "type": "Feature", "properties": {"Name":"Dillard city","State":"Georgia","State_Abbrev":"GA"},
"geometry":{ "type": "Point", "coordinates": [-83.381157,34.971472]}},
{ "type": "Feature", "properties": {"Name":"Dixie CDP","State":"Georgia","State_Abbrev":"GA"},
"geometry":{ "type": "Point", "coordinates": [-83.66808,30.788446]}},
{ "type": "Feature", "properties": {"Name":"Dixie Union CDP","State":"Georgia","State_Abbrev":"GA"},
"geometry":{ "type": "Point", "coordinates": [-82.4603,31.346404]}},
{ "type": "Feature", "properties": {"Name":"Dock Junction CDP","State":"Georgia","State_Abbrev":"GA"},
"geometry":{ "type": "Point", "coordinates": [-81.515652,31.201405]}},
{ "type": "Feature", "properties": {"Name":"Doerun city","State":"Georgia","State_Abbrev":"GA"},
"geometry":{ "type": "Point", "coordinates": [-83.916532,31.322799]}},
{ "type": "Feature", "properties": {"Name":"Donalsonville city","State":"Georgia","State_Abbrev":"GA"},
"geometry":{ "type": "Point", "coordinates": [-84.878424,31.039691]}},
{ "type": "Feature", "properties": {"Name":"Dooling town","State":"Georgia","State_Abbrev":"GA"},
"geometry":{ "type": "Point", "coordinates": [-83.928924,32.229976]}},
{ "type": "Feature", "properties": {"Name":"Doraville city","State":"Georgia","State_Abbrev":"GA"},
"geometry":{ "type": "Point", "coordinates": [-84.269876,33.908341]}},
{ "type": "Feature", "properties": {"Name":"Douglas city","State":"Georgia","State_Abbrev":"GA"},
"geometry":{ "type": "Point", "coordinates": [-82.854335,31.506114]}},
{ "type": "Feature", "properties": {"Name":"Douglasville city","State":"Georgia","State_Abbrev":"GA"},
"geometry":{ "type": "Point", "coordinates": [-84.701074,33.73678]}},
{ "type": "Feature", "properties": {"Name":"Druid Hills CDP","State":"Georgia","State_Abbrev":"GA"},
"geometry":{ "type": "Point", "coordinates": [-84.329213,33.78415]}},
{ "type": "Feature", "properties": {"Name":"Dublin city","State":"Georgia","State_Abbrev":"GA"},
"geometry":{ "type": "Point", "coordinates": [-82.928807,32.535471]}},
{ "type": "Feature", "properties": {"Name":"Dudley city","State":"Georgia","State_Abbrev":"GA"},
"geometry":{ "type": "Point", "coordinates": [-83.083619,32.533483]}},
{ "type": "Feature", "properties": {"Name":"Duluth city","State":"Georgia","State_Abbrev":"GA"},
"geometry":{ "type": "Point", "coordinates": [-84.150464,34.001517]}},
{ "type": "Feature", "properties": {"Name":"Dunwoody city","State":"Georgia","State_Abbrev":"GA"},
"geometry":{ "type": "Point", "coordinates": [-84.312701,33.941387]}},
{ "type": "Feature", "properties": {"Name":"Du Pont town","State":"Georgia","State_Abbrev":"GA"},
"geometry":{ "type": "Point", "coordinates": [-82.869085,30.989096]}},
{ "type": "Feature", "properties": {"Name":"Dutch Island CDP","State":"Georgia","State_Abbrev":"GA"},
"geometry":{ "type": "Point", "coordinates": [-81.032776,32.003578]}},
{ "type": "Feature", "properties": {"Name":"Eagle Grove CDP","State":"Georgia","State_Abbrev":"GA"},
"geometry":{ "type": "Point", "coordinates": [-83.000722,34.285577]}},
{ "type": "Feature", "properties": {"Name":"East Dublin city","State":"Georgia","State_Abbrev":"GA"},
"geometry":{ "type": "Point", "coordinates": [-82.866967,32.546925]}},
{ "type": "Feature", "properties": {"Name":"East Ellijay city","State":"Georgia","State_Abbrev":"GA"},
"geometry":{ "type": "Point", "coordinates": [-84.490763,34.665238]}},
{ "type": "Feature", "properties": {"Name":"East Griffin CDP","State":"Georgia","State_Abbrev":"GA"},
"geometry":{ "type": "Point", "coordinates": [-84.232599,33.243443]}},
{ "type": "Feature", "properties": {"Name":"Eastman city","State":"Georgia","State_Abbrev":"GA"},
"geometry":{ "type": "Point", "coordinates": [-83.170658,32.197561]}},
{ "type": "Feature", "properties": {"Name":"East Newnan CDP","State":"Georgia","State_Abbrev":"GA"},
"geometry":{ "type": "Point", "coordinates": [-84.776725,33.345796]}},
{ "type": "Feature", "properties": {"Name":"East Point city","State":"Georgia","State_Abbrev":"GA"},
"geometry":{ "type": "Point", "coordinates": [-84.473429,33.67112]}},
{ "type": "Feature", "properties": {"Name":"Eatonton city","State":"Georgia","State_Abbrev":"GA"},
"geometry":{ "type": "Point", "coordinates": [-83.388862,33.325821]}},
{ "type": "Feature", "properties": {"Name":"Echols County consolidated government","State":"Georgia","State_Abbrev":"GA"},
"geometry":{ "type": "Point", "coordinates": [-82.897376,30.714008]}},
{ "type": "Feature", "properties": {"Name":"Edge Hill city","State":"Georgia","State_Abbrev":"GA"},
"geometry":{ "type": "Point", "coordinates": [-82.624989,33.153421]}},
{ "type": "Feature", "properties": {"Name":"Edison city","State":"Georgia","State_Abbrev":"GA"},
"geometry":{ "type": "Point", "coordinates": [-84.737402,31.560812]}},
{ "type": "Feature", "properties": {"Name":"Elberton city","State":"Georgia","State_Abbrev":"GA"},
"geometry":{ "type": "Point", "coordinates": [-82.872686,34.106816]}},
{ "type": "Feature", "properties": {"Name":"Ellaville city","State":"Georgia","State_Abbrev":"GA"},
"geometry":{ "type": "Point", "coordinates": [-84.309114,32.237662]}},
{ "type": "Feature", "properties": {"Name":"Ellenton town","State":"Georgia","State_Abbrev":"GA"},
"geometry":{ "type": "Point", "coordinates": [-83.587067,31.176703]}},
{ "type": "Feature", "properties": {"Name":"Ellerslie CDP","State":"Georgia","State_Abbrev":"GA"},
"geometry":{ "type": "Point", "coordinates": [-84.788449,32.632913]}},
{ "type": "Feature", "properties": {"Name":"Ellijay city","State":"Georgia","State_Abbrev":"GA"},
"geometry":{ "type": "Point", "coordinates": [-84.483921,34.691322]}},
{ "type": "Feature", "properties": {"Name":"Emerson city","State":"Georgia","State_Abbrev":"GA"},
"geometry":{ "type": "Point", "coordinates": [-84.745369,34.131329]}},
{ "type": "Feature", "properties": {"Name":"Empire CDP","State":"Georgia","State_Abbrev":"GA"},
"geometry":{ "type": "Point", "coordinates": [-83.282965,32.337052]}},
{ "type": "Feature", "properties": {"Name":"Enigma town","State":"Georgia","State_Abbrev":"GA"},
"geometry":{ "type": "Point", "coordinates": [-83.319875,31.401295]}},
{ "type": "Feature", "properties": {"Name":"Ephesus city","State":"Georgia","State_Abbrev":"GA"},
"geometry":{ "type": "Point", "coordinates": [-85.256762,33.406937]}},
{ "type": "Feature", "properties": {"Name":"Epworth CDP","State":"Georgia","State_Abbrev":"GA"},
"geometry":{ "type": "Point", "coordinates": [-84.380788,34.951032]}},
{ "type": "Feature", "properties": {"Name":"Eton city","State":"Georgia","State_Abbrev":"GA"},
"geometry":{ "type": "Point", "coordinates": [-84.767837,34.828151]}},
{ "type": "Feature", "properties": {"Name":"Euharlee city","State":"Georgia","State_Abbrev":"GA"},
"geometry":{ "type": "Point", "coordinates": [-84.932752,34.143586]}},
{ "type": "Feature", "properties": {"Name":"Eulonia CDP","State":"Georgia","State_Abbrev":"GA"},
"geometry":{ "type": "Point", "coordinates": [-81.436058,31.533382]}},
{ "type": "Feature", "properties": {"Name":"Evans CDP","State":"Georgia","State_Abbrev":"GA"},
"geometry":{ "type": "Point", "coordinates": [-82.140555,33.567644]}},
{ "type": "Feature", "properties": {"Name":"Everett CDP","State":"Georgia","State_Abbrev":"GA"},
"geometry":{ "type": "Point", "coordinates": [-81.63704,31.39762]}},
{ "type": "Feature", "properties": {"Name":"Experiment CDP","State":"Georgia","State_Abbrev":"GA"},
"geometry":{ "type": "Point", "coordinates": [-84.274641,33.286032]}},
{ "type": "Feature", "properties": {"Name":"Faceville CDP","State":"Georgia","State_Abbrev":"GA"},
"geometry":{ "type": "Point", "coordinates": [-84.637233,30.753698]}},
{ "type": "Feature", "properties": {"Name":"Fairburn city","State":"Georgia","State_Abbrev":"GA"},
"geometry":{ "type": "Point", "coordinates": [-84.587265,33.547798]}},
{ "type": "Feature", "properties": {"Name":"Fairfield Plantation CDP","State":"Georgia","State_Abbrev":"GA"},
"geometry":{ "type": "Point", "coordinates": [-84.928425,33.644658]}},
{ "type": "Feature", "properties": {"Name":"Fairmount city","State":"Georgia","State_Abbrev":"GA"},
"geometry":{ "type": "Point", "coordinates": [-84.699397,34.438632]}},
{ "type": "Feature", "properties": {"Name":"Fair Oaks CDP","State":"Georgia","State_Abbrev":"GA"},
"geometry":{ "type": "Point", "coordinates": [-84.544443,33.919975]}},
{ "type": "Feature", "properties": {"Name":"Fairplay CDP","State":"Georgia","State_Abbrev":"GA"},
"geometry":{ "type": "Point", "coordinates": [-84.862363,33.618204]}},
{ "type": "Feature", "properties": {"Name":"Fairview CDP","State":"Georgia","State_Abbrev":"GA"},
"geometry":{ "type": "Point", "coordinates": [-85.294037,34.929532]}},
{ "type": "Feature", "properties": {"Name":"Fargo city","State":"Georgia","State_Abbrev":"GA"},
"geometry":{ "type": "Point", "coordinates": [-82.571448,30.686878]}},
{ "type": "Feature", "properties": {"Name":"Fayetteville city","State":"Georgia","State_Abbrev":"GA"},
"geometry":{ "type": "Point", "coordinates": [-84.472824,33.449099]}},
{ "type": "Feature", "properties": {"Name":"Fitzgerald city","State":"Georgia","State_Abbrev":"GA"},
"geometry":{ "type": "Point", "coordinates": [-83.25087,31.71306]}},
{ "type": "Feature", "properties": {"Name":"Flemington city","State":"Georgia","State_Abbrev":"GA"},
"geometry":{ "type": "Point", "coordinates": [-81.561868,31.849365]}},
{ "type": "Feature", "properties": {"Name":"Flovilla city","State":"Georgia","State_Abbrev":"GA"},
"geometry":{ "type": "Point", "coordinates": [-83.902902,33.252406]}},
{ "type": "Feature", "properties": {"Name":"Flowery Branch city","State":"Georgia","State_Abbrev":"GA"},
"geometry":{ "type": "Point", "coordinates": [-83.918746,34.171303]}},
{ "type": "Feature", "properties": {"Name":"Folkston city","State":"Georgia","State_Abbrev":"GA"},
"geometry":{ "type": "Point", "coordinates": [-82.007342,30.839068]}},
{ "type": "Feature", "properties": {"Name":"Forest Park city","State":"Georgia","State_Abbrev":"GA"},
"geometry":{ "type": "Point", "coordinates": [-84.358181,33.620543]}},
{ "type": "Feature", "properties": {"Name":"Forsyth city","State":"Georgia","State_Abbrev":"GA"},
"geometry":{ "type": "Point", "coordinates": [-83.959695,33.053542]}},
{ "type": "Feature", "properties": {"Name":"Fort Gaines city","State":"Georgia","State_Abbrev":"GA"},
"geometry":{ "type": "Point", "coordinates": [-85.058669,31.625945]}},
{ "type": "Feature", "properties": {"Name":"Fort Oglethorpe city","State":"Georgia","State_Abbrev":"GA"},
"geometry":{ "type": "Point", "coordinates": [-85.24601,34.931849]}},
{ "type": "Feature", "properties": {"Name":"Fort Stewart CDP","State":"Georgia","State_Abbrev":"GA"},
"geometry":{ "type": "Point", "coordinates": [-81.61317,31.881168]}},
{ "type": "Feature", "properties": {"Name":"Fort Valley city","State":"Georgia","State_Abbrev":"GA"},
"geometry":{ "type": "Point", "coordinates": [-83.879939,32.551114]}},
{ "type": "Feature", "properties": {"Name":"Franklin city","State":"Georgia","State_Abbrev":"GA"},
"geometry":{ "type": "Point", "coordinates": [-85.098636,33.279834]}},
{ "type": "Feature", "properties": {"Name":"Franklin Springs city","State":"Georgia","State_Abbrev":"GA"},
"geometry":{ "type": "Point", "coordinates": [-83.146091,34.283361]}},
{ "type": "Feature", "properties": {"Name":"Funston city","State":"Georgia","State_Abbrev":"GA"},
"geometry":{ "type": "Point", "coordinates": [-83.881135,31.195923]}},
{ "type": "Feature", "properties": {"Name":"Gainesville city","State":"Georgia","State_Abbrev":"GA"},
"geometry":{ "type": "Point", "coordinates": [-83.829106,34.2901]}},
{ "type": "Feature", "properties": {"Name":"Garden City city","State":"Georgia","State_Abbrev":"GA"},
"geometry":{ "type": "Point", "coordinates": [-81.176614,32.087221]}},
{ "type": "Feature", "properties": {"Name":"Gardi CDP","State":"Georgia","State_Abbrev":"GA"},
"geometry":{ "type": "Point", "coordinates": [-81.799535,31.541787]}},
{ "type": "Feature", "properties": {"Name":"Garfield city","State":"Georgia","State_Abbrev":"GA"},
"geometry":{ "type": "Point", "coordinates": [-82.097291,32.649211]}},
{ "type": "Feature", "properties": {"Name":"Gay town","State":"Georgia","State_Abbrev":"GA"},
"geometry":{ "type": "Point", "coordinates": [-84.579365,33.095757]}},
{ "type": "Feature", "properties": {"Name":"Geneva town","State":"Georgia","State_Abbrev":"GA"},
"geometry":{ "type": "Point", "coordinates": [-84.553065,32.578235]}},
{ "type": "Feature", "properties": {"Name":"Georgetown CDP","State":"Georgia","State_Abbrev":"GA"},
"geometry":{ "type": "Point", "coordinates": [-81.230275,31.982716]}},
{ "type": "Feature", "properties": {"Name":"Georgetown-Quitman County unified government","State":"Georgia","State_Abbrev":"GA"},
"geometry":{ "type": "Point", "coordinates": [-85.004798,31.862938]}},
{ "type": "Feature", "properties": {"Name":"Gibson city","State":"Georgia","State_Abbrev":"GA"},
"geometry":{ "type": "Point", "coordinates": [-82.600978,33.231691]}},
{ "type": "Feature", "properties": {"Name":"Gillsville city","State":"Georgia","State_Abbrev":"GA"},
"geometry":{ "type": "Point", "coordinates": [-83.638128,34.307597]}},
{ "type": "Feature", "properties": {"Name":"Girard town","State":"Georgia","State_Abbrev":"GA"},
"geometry":{ "type": "Point", "coordinates": [-81.715514,33.033888]}},
{ "type": "Feature", "properties": {"Name":"Glenn CDP","State":"Georgia","State_Abbrev":"GA"},
"geometry":{ "type": "Point", "coordinates": [-85.214018,33.147692]}},
{ "type": "Feature", "properties": {"Name":"Glennville city","State":"Georgia","State_Abbrev":"GA"},
"geometry":{ "type": "Point", "coordinates": [-81.932425,31.938798]}},
{ "type": "Feature", "properties": {"Name":"Glenwood city","State":"Georgia","State_Abbrev":"GA"},
"geometry":{ "type": "Point", "coordinates": [-82.670836,32.180301]}},
{ "type": "Feature", "properties": {"Name":"Godfrey CDP","State":"Georgia","State_Abbrev":"GA"},
"geometry":{ "type": "Point", "coordinates": [-83.500625,33.445881]}},
{ "type": "Feature", "properties": {"Name":"Good Hope city","State":"Georgia","State_Abbrev":"GA"},
"geometry":{ "type": "Point", "coordinates": [-83.617447,33.790066]}},
{ "type": "Feature", "properties": {"Name":"Gordon city","State":"Georgia","State_Abbrev":"GA"},
"geometry":{ "type": "Point", "coordinates": [-83.333588,32.886191]}},
{ "type": "Feature", "properties": {"Name":"Gough CDP","State":"Georgia","State_Abbrev":"GA"},
"geometry":{ "type": "Point", "coordinates": [-82.231332,33.084105]}},
{ "type": "Feature", "properties": {"Name":"Graham city","State":"Georgia","State_Abbrev":"GA"},
"geometry":{ "type": "Point", "coordinates": [-82.497575,31.824912]}},
{ "type": "Feature", "properties": {"Name":"Grantville city","State":"Georgia","State_Abbrev":"GA"},
"geometry":{ "type": "Point", "coordinates": [-84.830098,33.237148]}},
{ "type": "Feature", "properties": {"Name":"Gray city","State":"Georgia","State_Abbrev":"GA"},
"geometry":{ "type": "Point", "coordinates": [-83.540932,33.002021]}},
{ "type": "Feature", "properties": {"Name":"Grayson city","State":"Georgia","State_Abbrev":"GA"},
"geometry":{ "type": "Point", "coordinates": [-83.958148,33.890751]}},
{ "type": "Feature", "properties": {"Name":"Greensboro city","State":"Georgia","State_Abbrev":"GA"},
"geometry":{ "type": "Point", "coordinates": [-83.189093,33.563569]}},
{ "type": "Feature", "properties": {"Name":"Greenville city","State":"Georgia","State_Abbrev":"GA"},
"geometry":{ "type": "Point", "coordinates": [-84.716331,33.030929]}},
{ "type": "Feature", "properties": {"Name":"Gresham Park CDP","State":"Georgia","State_Abbrev":"GA"},
"geometry":{ "type": "Point", "coordinates": [-84.311976,33.707017]}},
{ "type": "Feature", "properties": {"Name":"Griffin city","State":"Georgia","State_Abbrev":"GA"},
"geometry":{ "type": "Point", "coordinates": [-84.271861,33.243188]}},
{ "type": "Feature", "properties": {"Name":"Grovetown city","State":"Georgia","State_Abbrev":"GA"},
"geometry":{ "type": "Point", "coordinates": [-82.207966,33.449769]}},
{ "type": "Feature", "properties": {"Name":"Gumbranch city","State":"Georgia","State_Abbrev":"GA"},
"geometry":{ "type": "Point", "coordinates": [-81.683797,31.836728]}},
{ "type": "Feature", "properties": {"Name":"Gumlog CDP","State":"Georgia","State_Abbrev":"GA"},
"geometry":{ "type": "Point", "coordinates": [-83.093041,34.498866]}},
{ "type": "Feature", "properties": {"Name":"Guyton city","State":"Georgia","State_Abbrev":"GA"},
"geometry":{ "type": "Point", "coordinates": [-81.390385,32.33227]}},
{ "type": "Feature", "properties": {"Name":"Hagan city","State":"Georgia","State_Abbrev":"GA"},
"geometry":{ "type": "Point", "coordinates": [-81.92992,32.15306]}},
{ "type": "Feature", "properties": {"Name":"Hahira city","State":"Georgia","State_Abbrev":"GA"},
"geometry":{ "type": "Point", "coordinates": [-83.381462,30.99648]}},
{ "type": "Feature", "properties": {"Name":"Hamilton city","State":"Georgia","State_Abbrev":"GA"},
"geometry":{ "type": "Point", "coordinates": [-84.875261,32.764671]}},
{ "type": "Feature", "properties": {"Name":"Hampton city","State":"Georgia","State_Abbrev":"GA"},
"geometry":{ "type": "Point", "coordinates": [-84.296192,33.378849]}},
{ "type": "Feature", "properties": {"Name":"Hannahs Mill CDP","State":"Georgia","State_Abbrev":"GA"},
"geometry":{ "type": "Point", "coordinates": [-84.340945,32.937302]}},
{ "type": "Feature", "properties": {"Name":"Hapeville city","State":"Georgia","State_Abbrev":"GA"},
"geometry":{ "type": "Point", "coordinates": [-84.40932,33.660872]}},
{ "type": "Feature", "properties": {"Name":"Haralson town","State":"Georgia","State_Abbrev":"GA"},
"geometry":{ "type": "Point", "coordinates": [-84.56871,33.22935]}},
{ "type": "Feature", "properties": {"Name":"Hardwick CDP","State":"Georgia","State_Abbrev":"GA"},
"geometry":{ "type": "Point", "coordinates": [-83.248796,33.045594]}},
{ "type": "Feature", "properties": {"Name":"Harlem city","State":"Georgia","State_Abbrev":"GA"},
"geometry":{ "type": "Point", "coordinates": [-82.316063,33.435339]}},
{ "type": "Feature", "properties": {"Name":"Harrison town","State":"Georgia","State_Abbrev":"GA"},
"geometry":{ "type": "Point", "coordinates": [-82.725846,32.826424]}},
{ "type": "Feature", "properties": {"Name":"Hartwell city","State":"Georgia","State_Abbrev":"GA"},
"geometry":{ "type": "Point", "coordinates": [-82.92802,34.349645]}},
{ "type": "Feature", "properties": {"Name":"Hawkinsville city","State":"Georgia","State_Abbrev":"GA"},
"geometry":{ "type": "Point", "coordinates": [-83.478856,32.301182]}},
{ "type": "Feature", "properties": {"Name":"Hazlehurst city","State":"Georgia","State_Abbrev":"GA"},
"geometry":{ "type": "Point", "coordinates": [-82.599276,31.864128]}},
{ "type": "Feature", "properties": {"Name":"Helen city","State":"Georgia","State_Abbrev":"GA"},
"geometry":{ "type": "Point", "coordinates": [-83.727625,34.708395]}},
{ "type": "Feature", "properties": {"Name":"Henderson CDP","State":"Georgia","State_Abbrev":"GA"},
"geometry":{ "type": "Point", "coordinates": [-81.266602,32.00705]}},
{ "type": "Feature", "properties": {"Name":"Hephzibah city","State":"Georgia","State_Abbrev":"GA"},
"geometry":{ "type": "Point", "coordinates": [-82.095732,33.2923]}},
{ "type": "Feature", "properties": {"Name":"Heron Bay CDP","State":"Georgia","State_Abbrev":"GA"},
"geometry":{ "type": "Point", "coordinates": [-84.192162,33.339043]}},
{ "type": "Feature", "properties": {"Name":"Hiawassee city","State":"Georgia","State_Abbrev":"GA"},
"geometry":{ "type": "Point", "coordinates": [-83.746335,34.946158]}},
{ "type": "Feature", "properties": {"Name":"Hickox CDP","State":"Georgia","State_Abbrev":"GA"},
"geometry":{ "type": "Point", "coordinates": [-81.994931,31.145116]}},
{ "type": "Feature", "properties": {"Name":"Higgston town","State":"Georgia","State_Abbrev":"GA"},
"geometry":{ "type": "Point", "coordinates": [-82.464793,32.216102]}},
{ "type": "Feature", "properties": {"Name":"Hilltop CDP","State":"Georgia","State_Abbrev":"GA"},
"geometry":{ "type": "Point", "coordinates": [-84.437141,33.108235]}},
{ "type": "Feature", "properties": {"Name":"Hiltonia town","State":"Georgia","State_Abbrev":"GA"},
"geometry":{ "type": "Point", "coordinates": [-81.661487,32.883339]}},
{ "type": "Feature", "properties": {"Name":"Hinesville city","State":"Georgia","State_Abbrev":"GA"},
"geometry":{ "type": "Point", "coordinates": [-81.615773,31.826702]}},
{ "type": "Feature", "properties": {"Name":"Hiram city","State":"Georgia","State_Abbrev":"GA"},
"geometry":{ "type": "Point", "coordinates": [-84.750549,33.890794]}},
{ "type": "Feature", "properties": {"Name":"Hoboken city","State":"Georgia","State_Abbrev":"GA"},
"geometry":{ "type": "Point", "coordinates": [-82.130901,31.180473]}},
{ "type": "Feature", "properties": {"Name":"Hogansville city","State":"Georgia","State_Abbrev":"GA"},
"geometry":{ "type": "Point", "coordinates": [-84.902788,33.166986]}},
{ "type": "Feature", "properties": {"Name":"Holly Springs city","State":"Georgia","State_Abbrev":"GA"},
"geometry":{ "type": "Point", "coordinates": [-84.484469,34.167234]}},
{ "type": "Feature", "properties": {"Name":"Homeland city","State":"Georgia","State_Abbrev":"GA"},
"geometry":{ "type": "Point", "coordinates": [-82.020802,30.860145]}},
{ "type": "Feature", "properties": {"Name":"Homer town","State":"Georgia","State_Abbrev":"GA"},
"geometry":{ "type": "Point", "coordinates": [-83.494776,34.337961]}},
{ "type": "Feature", "properties": {"Name":"Homerville city","State":"Georgia","State_Abbrev":"GA"},
"geometry":{ "type": "Point", "coordinates": [-82.742089,31.038221]}},
{ "type": "Feature", "properties": {"Name":"Hortense CDP","State":"Georgia","State_Abbrev":"GA"},
"geometry":{ "type": "Point", "coordinates": [-81.953982,31.328963]}},
{ "type": "Feature", "properties": {"Name":"Hoschton city","State":"Georgia","State_Abbrev":"GA"},
"geometry":{ "type": "Point", "coordinates": [-83.759607,34.085262]}},
{ "type": "Feature", "properties": {"Name":"Howard CDP","State":"Georgia","State_Abbrev":"GA"},
"geometry":{ "type": "Point", "coordinates": [-84.379104,32.604098]}},
{ "type": "Feature", "properties": {"Name":"Hull city","State":"Georgia","State_Abbrev":"GA"},
"geometry":{ "type": "Point", "coordinates": [-83.293647,34.017611]}},
{ "type": "Feature", "properties": {"Name":"Ideal city","State":"Georgia","State_Abbrev":"GA"},
"geometry":{ "type": "Point", "coordinates": [-84.189014,32.372878]}},
{ "type": "Feature", "properties": {"Name":"Ila city","State":"Georgia","State_Abbrev":"GA"},
"geometry":{ "type": "Point", "coordinates": [-83.293109,34.173667]}},
{ "type": "Feature", "properties": {"Name":"Indian Springs CDP","State":"Georgia","State_Abbrev":"GA"},
"geometry":{ "type": "Point", "coordinates": [-85.159012,34.960605]}},
{ "type": "Feature", "properties": {"Name":"Iron City town","State":"Georgia","State_Abbrev":"GA"},
"geometry":{ "type": "Point", "coordinates": [-84.813313,31.013583]}},
{ "type": "Feature", "properties": {"Name":"Irondale CDP","State":"Georgia","State_Abbrev":"GA"},
"geometry":{ "type": "Point", "coordinates": [-84.365512,33.483275]}},
{ "type": "Feature", "properties": {"Name":"Irwinton city","State":"Georgia","State_Abbrev":"GA"},
"geometry":{ "type": "Point", "coordinates": [-83.173696,32.810758]}},
{ "type": "Feature", "properties": {"Name":"Isle of Hope CDP","State":"Georgia","State_Abbrev":"GA"},
"geometry":{ "type": "Point", "coordinates": [-81.052475,31.985906]}},
{ "type": "Feature", "properties": {"Name":"Ivey city","State":"Georgia","State_Abbrev":"GA"},
"geometry":{ "type": "Point", "coordinates": [-83.299847,32.909928]}},
{ "type": "Feature", "properties": {"Name":"Jackson city","State":"Georgia","State_Abbrev":"GA"},
"geometry":{ "type": "Point", "coordinates": [-83.967846,33.292359]}},
{ "type": "Feature", "properties": {"Name":"Jacksonville city","State":"Georgia","State_Abbrev":"GA"},
"geometry":{ "type": "Point", "coordinates": [-82.975805,31.813353]}},
{ "type": "Feature", "properties": {"Name":"Jakin city","State":"Georgia","State_Abbrev":"GA"},
"geometry":{ "type": "Point", "coordinates": [-84.98226,31.090055]}},
{ "type": "Feature", "properties": {"Name":"Jasper city","State":"Georgia","State_Abbrev":"GA"},
"geometry":{ "type": "Point", "coordinates": [-84.435863,34.466199]}},
{ "type": "Feature", "properties": {"Name":"Jefferson city","State":"Georgia","State_Abbrev":"GA"},
"geometry":{ "type": "Point", "coordinates": [-83.602157,34.136239]}},
{ "type": "Feature", "properties": {"Name":"Jeffersonville city","State":"Georgia","State_Abbrev":"GA"},
"geometry":{ "type": "Point", "coordinates": [-83.342676,32.686289]}},
{ "type": "Feature", "properties": {"Name":"Jekyll Island CDP","State":"Georgia","State_Abbrev":"GA"},
"geometry":{ "type": "Point", "coordinates": [-81.41873,31.06371]}},
{ "type": "Feature", "properties": {"Name":"Jenkinsburg city","State":"Georgia","State_Abbrev":"GA"},
"geometry":{ "type": "Point", "coordinates": [-84.037313,33.320579]}},
{ "type": "Feature", "properties": {"Name":"Jersey city","State":"Georgia","State_Abbrev":"GA"},
"geometry":{ "type": "Point", "coordinates": [-83.804251,33.71689]}},
{ "type": "Feature", "properties": {"Name":"Jesup city","State":"Georgia","State_Abbrev":"GA"},
"geometry":{ "type": "Point", "coordinates": [-81.895699,31.594574]}},
{ "type": "Feature", "properties": {"Name":"Johns Creek city","State":"Georgia","State_Abbrev":"GA"},
"geometry":{ "type": "Point", "coordinates": [-84.203848,34.032739]}},
{ "type": "Feature", "properties": {"Name":"Jonesboro city","State":"Georgia","State_Abbrev":"GA"},
"geometry":{ "type": "Point", "coordinates": [-84.354701,33.520799]}},
{ "type": "Feature", "properties": {"Name":"Juliette CDP","State":"Georgia","State_Abbrev":"GA"},
"geometry":{ "type": "Point", "coordinates": [-83.808425,33.113712]}},
{ "type": "Feature", "properties": {"Name":"Junction City town","State":"Georgia","State_Abbrev":"GA"},
"geometry":{ "type": "Point", "coordinates": [-84.458198,32.603622]}},
{ "type": "Feature", "properties": {"Name":"Kennesaw city","State":"Georgia","State_Abbrev":"GA"},
"geometry":{ "type": "Point", "coordinates": [-84.61709,34.027202]}},
{ "type": "Feature", "properties": {"Name":"Kennesaw State University CDP","State":"Georgia","State_Abbrev":"GA"},
"geometry":{ "type": "Point", "coordinates": [-84.582645,34.037859]}},
{ "type": "Feature", "properties": {"Name":"Keysville city","State":"Georgia","State_Abbrev":"GA"},
"geometry":{ "type": "Point", "coordinates": [-82.229326,33.236189]}},
{ "type": "Feature", "properties": {"Name":"Kings Bay Base CDP","State":"Georgia","State_Abbrev":"GA"},
"geometry":{ "type": "Point", "coordinates": [-81.563719,30.799297]}},
{ "type": "Feature", "properties": {"Name":"Kingsland city","State":"Georgia","State_Abbrev":"GA"},
"geometry":{ "type": "Point", "coordinates": [-81.790911,30.846097]}},
{ "type": "Feature", "properties": {"Name":"Kingston city","State":"Georgia","State_Abbrev":"GA"},
"geometry":{ "type": "Point", "coordinates": [-84.944493,34.231972]}},
{ "type": "Feature", "properties": {"Name":"Kite city","State":"Georgia","State_Abbrev":"GA"},
"geometry":{ "type": "Point", "coordinates": [-82.512435,32.691524]}},
{ "type": "Feature", "properties": {"Name":"Knoxville CDP","State":"Georgia","State_Abbrev":"GA"},
"geometry":{ "type": "Point", "coordinates": [-83.995933,32.723259]}},
{ "type": "Feature", "properties": {"Name":"LaFayette city","State":"Georgia","State_Abbrev":"GA"},
"geometry":{ "type": "Point", "coordinates": [-85.281494,34.708848]}},
{ "type": "Feature", "properties": {"Name":"LaGrange city","State":"Georgia","State_Abbrev":"GA"},
"geometry":{ "type": "Point", "coordinates": [-85.038261,33.02698]}},
{ "type": "Feature", "properties": {"Name":"Lake City city","State":"Georgia","State_Abbrev":"GA"},
"geometry":{ "type": "Point", "coordinates": [-84.341179,33.606498]}},
{ "type": "Feature", "properties": {"Name":"Lakeland city","State":"Georgia","State_Abbrev":"GA"},
"geometry":{ "type": "Point", "coordinates": [-83.07473,31.040817]}},
{ "type": "Feature", "properties": {"Name":"Lake Park city","State":"Georgia","State_Abbrev":"GA"},
"geometry":{ "type": "Point", "coordinates": [-83.187704,30.68556]}},
{ "type": "Feature", "properties": {"Name":"Lakeview CDP","State":"Georgia","State_Abbrev":"GA"},
"geometry":{ "type": "Point", "coordinates": [-85.253632,34.977071]}},
{ "type": "Feature", "properties": {"Name":"Lakeview Estates CDP","State":"Georgia","State_Abbrev":"GA"},
"geometry":{ "type": "Point", "coordinates": [-84.037679,33.70498]}},
{ "type": "Feature", "properties": {"Name":"Lavonia city","State":"Georgia","State_Abbrev":"GA"},
"geometry":{ "type": "Point", "coordinates": [-83.107959,34.433911]}},
{ "type": "Feature", "properties": {"Name":"Lawrenceville city","State":"Georgia","State_Abbrev":"GA"},
"geometry":{ "type": "Point", "coordinates": [-83.992231,33.952875]}},
{ "type": "Feature", "properties": {"Name":"Leary city","State":"Georgia","State_Abbrev":"GA"},
"geometry":{ "type": "Point", "coordinates": [-84.511733,31.484384]}},
{ "type": "Feature", "properties": {"Name":"Leesburg city","State":"Georgia","State_Abbrev":"GA"},
"geometry":{ "type": "Point", "coordinates": [-84.168546,31.732058]}},
{ "type": "Feature", "properties": {"Name":"Lenox town","State":"Georgia","State_Abbrev":"GA"},
"geometry":{ "type": "Point", "coordinates": [-83.466873,31.261003]}},
{ "type": "Feature", "properties": {"Name":"Leslie city","State":"Georgia","State_Abbrev":"GA"},
"geometry":{ "type": "Point", "coordinates": [-84.087093,31.954796]}},
{ "type": "Feature", "properties": {"Name":"Lexington city","State":"Georgia","State_Abbrev":"GA"},
"geometry":{ "type": "Point", "coordinates": [-83.110154,33.870069]}},
{ "type": "Feature", "properties": {"Name":"Lilburn city","State":"Georgia","State_Abbrev":"GA"},
"geometry":{ "type": "Point", "coordinates": [-84.136872,33.89064]}},
{ "type": "Feature", "properties": {"Name":"Lilly city","State":"Georgia","State_Abbrev":"GA"},
"geometry":{ "type": "Point", "coordinates": [-83.877464,32.146535]}},
{ "type": "Feature", "properties": {"Name":"Lincoln Park CDP","State":"Georgia","State_Abbrev":"GA"},
"geometry":{ "type": "Point", "coordinates": [-84.335599,32.867381]}},
{ "type": "Feature", "properties": {"Name":"Lincolnton city","State":"Georgia","State_Abbrev":"GA"},
"geometry":{ "type": "Point", "coordinates": [-82.478438,33.792714]}},
{ "type": "Feature", "properties": {"Name":"Lindale CDP","State":"Georgia","State_Abbrev":"GA"},
"geometry":{ "type": "Point", "coordinates": [-85.180719,34.187692]}},
{ "type": "Feature", "properties": {"Name":"Lithia Springs CDP","State":"Georgia","State_Abbrev":"GA"},
"geometry":{ "type": "Point", "coordinates": [-84.648488,33.782487]}},
{ "type": "Feature", "properties": {"Name":"Lithonia city","State":"Georgia","State_Abbrev":"GA"},
"geometry":{ "type": "Point", "coordinates": [-84.1062,33.712954]}},
{ "type": "Feature", "properties": {"Name":"Locust Grove city","State":"Georgia","State_Abbrev":"GA"},
"geometry":{ "type": "Point", "coordinates": [-84.105821,33.343853]}},
{ "type": "Feature", "properties": {"Name":"Loganville city","State":"Georgia","State_Abbrev":"GA"},
"geometry":{ "type": "Point", "coordinates": [-83.896135,33.836502]}},
{ "type": "Feature", "properties": {"Name":"Lone Oak town","State":"Georgia","State_Abbrev":"GA"},
"geometry":{ "type": "Point", "coordinates": [-84.817331,33.172352]}},
{ "type": "Feature", "properties": {"Name":"Lookout Mountain city","State":"Georgia","State_Abbrev":"GA"},
"geometry":{ "type": "Point", "coordinates": [-85.361889,34.966503]}},
{ "type": "Feature", "properties": {"Name":"Louisville city","State":"Georgia","State_Abbrev":"GA"},
"geometry":{ "type": "Point", "coordinates": [-82.397188,32.992865]}},
{ "type": "Feature", "properties": {"Name":"Lovejoy city","State":"Georgia","State_Abbrev":"GA"},
"geometry":{ "type": "Point", "coordinates": [-84.317444,33.441519]}},
{ "type": "Feature", "properties": {"Name":"Ludowici city","State":"Georgia","State_Abbrev":"GA"},
"geometry":{ "type": "Point", "coordinates": [-81.740291,31.714008]}},
{ "type": "Feature", "properties": {"Name":"Lula city","State":"Georgia","State_Abbrev":"GA"},
"geometry":{ "type": "Point", "coordinates": [-83.661905,34.398088]}},
{ "type": "Feature", "properties": {"Name":"Lumber City city","State":"Georgia","State_Abbrev":"GA"},
"geometry":{ "type": "Point", "coordinates": [-82.683197,31.933052]}},
{ "type": "Feature", "properties": {"Name":"Lumpkin city","State":"Georgia","State_Abbrev":"GA"},
"geometry":{ "type": "Point", "coordinates": [-84.798145,32.048041]}},
{ "type": "Feature", "properties": {"Name":"Luthersville city","State":"Georgia","State_Abbrev":"GA"},
"geometry":{ "type": "Point", "coordinates": [-84.744302,33.209626]}},
{ "type": "Feature", "properties": {"Name":"Lyerly town","State":"Georgia","State_Abbrev":"GA"},
"geometry":{ "type": "Point", "coordinates": [-85.404092,34.403432]}},
{ "type": "Feature", "properties": {"Name":"Lyons city","State":"Georgia","State_Abbrev":"GA"},
"geometry":{ "type": "Point", "coordinates": [-82.32142,32.205945]}},
{ "type": "Feature", "properties": {"Name":"Mableton CDP","State":"Georgia","State_Abbrev":"GA"},
"geometry":{ "type": "Point", "coordinates": [-84.565748,33.814469]}},
{ "type": "Feature", "properties": {"Name":"McCaysville city","State":"Georgia","State_Abbrev":"GA"},
"geometry":{ "type": "Point", "coordinates": [-84.371188,34.981962]}},
{ "type": "Feature", "properties": {"Name":"McDonough city","State":"Georgia","State_Abbrev":"GA"},
"geometry":{ "type": "Point", "coordinates": [-84.150963,33.442222]}},
{ "type": "Feature", "properties": {"Name":"McIntyre town","State":"Georgia","State_Abbrev":"GA"},
"geometry":{ "type": "Point", "coordinates": [-83.200907,32.846862]}},
{ "type": "Feature", "properties": {"Name":"Macon-Bibb County","State":"Georgia","State_Abbrev":"GA"},
"geometry":{ "type": "Point", "coordinates": [-83.694194,32.808845]}},
{ "type": "Feature", "properties": {"Name":"McRae-Helena city","State":"Georgia","State_Abbrev":"GA"},
"geometry":{ "type": "Point", "coordinates": [-82.89689,32.063577]}},
{ "type": "Feature", "properties": {"Name":"Madison city","State":"Georgia","State_Abbrev":"GA"},
"geometry":{ "type": "Point", "coordinates": [-83.475971,33.579038]}},
{ "type": "Feature", "properties": {"Name":"Manassas city","State":"Georgia","State_Abbrev":"GA"},
"geometry":{ "type": "Point", "coordinates": [-82.024038,32.161124]}},
{ "type": "Feature", "properties": {"Name":"Manchester city","State":"Georgia","State_Abbrev":"GA"},
"geometry":{ "type": "Point", "coordinates": [-84.634374,32.859057]}},
{ "type": "Feature", "properties": {"Name":"Manor CDP","State":"Georgia","State_Abbrev":"GA"},
"geometry":{ "type": "Point", "coordinates": [-82.566706,31.103071]}},
{ "type": "Feature", "properties": {"Name":"Mansfield city","State":"Georgia","State_Abbrev":"GA"},
"geometry":{ "type": "Point", "coordinates": [-83.734909,33.51799]}},
{ "type": "Feature", "properties": {"Name":"Marietta city","State":"Georgia","State_Abbrev":"GA"},
"geometry":{ "type": "Point", "coordinates": [-84.542463,33.953561]}},
{ "type": "Feature", "properties": {"Name":"Marshallville city","State":"Georgia","State_Abbrev":"GA"},
"geometry":{ "type": "Point", "coordinates": [-83.939762,32.458561]}},
{ "type": "Feature", "properties": {"Name":"Martin town","State":"Georgia","State_Abbrev":"GA"},
"geometry":{ "type": "Point", "coordinates": [-83.197451,34.485769]}},
{ "type": "Feature", "properties": {"Name":"Martinez CDP","State":"Georgia","State_Abbrev":"GA"},
"geometry":{ "type": "Point", "coordinates": [-82.101179,33.520422]}},
{ "type": "Feature", "properties": {"Name":"Matthews CDP","State":"Georgia","State_Abbrev":"GA"},
"geometry":{ "type": "Point", "coordinates": [-82.301659,33.21933]}},
{ "type": "Feature", "properties": {"Name":"Maxeys town","State":"Georgia","State_Abbrev":"GA"},
"geometry":{ "type": "Point", "coordinates": [-83.172638,33.754914]}},
{ "type": "Feature", "properties": {"Name":"Maysville town","State":"Georgia","State_Abbrev":"GA"},
"geometry":{ "type": "Point", "coordinates": [-83.553058,34.255126]}},
{ "type": "Feature", "properties": {"Name":"Meansville city","State":"Georgia","State_Abbrev":"GA"},
"geometry":{ "type": "Point", "coordinates": [-84.310459,33.051449]}},
{ "type": "Feature", "properties": {"Name":"Meigs city","State":"Georgia","State_Abbrev":"GA"},
"geometry":{ "type": "Point", "coordinates": [-84.092683,31.071788]}},
{ "type": "Feature", "properties": {"Name":"Mendes CDP","State":"Georgia","State_Abbrev":"GA"},
"geometry":{ "type": "Point", "coordinates": [-81.970437,31.994749]}},
{ "type": "Feature", "properties": {"Name":"Menlo city","State":"Georgia","State_Abbrev":"GA"},
"geometry":{ "type": "Point", "coordinates": [-85.477611,34.483491]}},
{ "type": "Feature", "properties": {"Name":"Mershon CDP","State":"Georgia","State_Abbrev":"GA"},
"geometry":{ "type": "Point", "coordinates": [-82.252797,31.463256]}},
{ "type": "Feature", "properties": {"Name":"Metter city","State":"Georgia","State_Abbrev":"GA"},
"geometry":{ "type": "Point", "coordinates": [-82.062432,32.39451]}},
{ "type": "Feature", "properties": {"Name":"Midville city","State":"Georgia","State_Abbrev":"GA"},
"geometry":{ "type": "Point", "coordinates": [-82.235266,32.821272]}},
{ "type": "Feature", "properties": {"Name":"Midway city","State":"Georgia","State_Abbrev":"GA"},
"geometry":{ "type": "Point", "coordinates": [-81.416664,31.801003]}},
{ "type": "Feature", "properties": {"Name":"Milan city","State":"Georgia","State_Abbrev":"GA"},
"geometry":{ "type": "Point", "coordinates": [-83.062279,32.019198]}},
{ "type": "Feature", "properties": {"Name":"Milledgeville city","State":"Georgia","State_Abbrev":"GA"},
"geometry":{ "type": "Point", "coordinates": [-83.240613,33.087945]}},
{ "type": "Feature", "properties": {"Name":"Millen city","State":"Georgia","State_Abbrev":"GA"},
"geometry":{ "type": "Point", "coordinates": [-81.942039,32.806892]}},
{ "type": "Feature", "properties": {"Name":"Millwood CDP","State":"Georgia","State_Abbrev":"GA"},
"geometry":{ "type": "Point", "coordinates": [-82.657199,31.265395]}},
{ "type": "Feature", "properties": {"Name":"Milner city","State":"Georgia","State_Abbrev":"GA"},
"geometry":{ "type": "Point", "coordinates": [-84.187681,33.116066]}},
{ "type": "Feature", "properties": {"Name":"Milstead CDP","State":"Georgia","State_Abbrev":"GA"},
"geometry":{ "type": "Point", "coordinates": [-83.990726,33.687946]}},
{ "type": "Feature", "properties": {"Name":"Milton city","State":"Georgia","State_Abbrev":"GA"},
"geometry":{ "type": "Point", "coordinates": [-84.314188,34.144325]}},
{ "type": "Feature", "properties": {"Name":"Mineral Bluff CDP","State":"Georgia","State_Abbrev":"GA"},
"geometry":{ "type": "Point", "coordinates": [-84.277608,34.914151]}},
{ "type": "Feature", "properties": {"Name":"Mitchell town","State":"Georgia","State_Abbrev":"GA"},
"geometry":{ "type": "Point", "coordinates": [-82.701246,33.221712]}},
{ "type": "Feature", "properties": {"Name":"Molena city","State":"Georgia","State_Abbrev":"GA"},
"geometry":{ "type": "Point", "coordinates": [-84.507063,33.014084]}},
{ "type": "Feature", "properties": {"Name":"Monroe city","State":"Georgia","State_Abbrev":"GA"},
"geometry":{ "type": "Point", "coordinates": [-83.718728,33.797481]}},
{ "type": "Feature", "properties": {"Name":"Montezuma city","State":"Georgia","State_Abbrev":"GA"},
"geometry":{ "type": "Point", "coordinates": [-84.019052,32.297252]}},
{ "type": "Feature", "properties": {"Name":"Montgomery CDP","State":"Georgia","State_Abbrev":"GA"},
"geometry":{ "type": "Point", "coordinates": [-81.09792,31.947857]}},
{ "type": "Feature", "properties": {"Name":"Monticello city","State":"Georgia","State_Abbrev":"GA"},
"geometry":{ "type": "Point", "coordinates": [-83.686584,33.295879]}},
{ "type": "Feature", "properties": {"Name":"Montrose town","State":"Georgia","State_Abbrev":"GA"},
"geometry":{ "type": "Point", "coordinates": [-83.153151,32.55923]}},
{ "type": "Feature", "properties": {"Name":"Moody AFB CDP","State":"Georgia","State_Abbrev":"GA"},
"geometry":{ "type": "Point", "coordinates": [-83.194305,30.969613]}},
{ "type": "Feature", "properties": {"Name":"Moreland town","State":"Georgia","State_Abbrev":"GA"},
"geometry":{ "type": "Point", "coordinates": [-84.769581,33.286361]}},
{ "type": "Feature", "properties": {"Name":"Morgan city","State":"Georgia","State_Abbrev":"GA"},
"geometry":{ "type": "Point", "coordinates": [-84.603238,31.538097]}},
{ "type": "Feature", "properties": {"Name":"Morganton city","State":"Georgia","State_Abbrev":"GA"},
"geometry":{ "type": "Point", "coordinates": [-84.244266,34.875049]}},
{ "type": "Feature", "properties": {"Name":"Morrow city","State":"Georgia","State_Abbrev":"GA"},
"geometry":{ "type": "Point", "coordinates": [-84.335554,33.578297]}},
{ "type": "Feature", "properties": {"Name":"Morven city","State":"Georgia","State_Abbrev":"GA"},
"geometry":{ "type": "Point", "coordinates": [-83.499976,30.943977]}},
{ "type": "Feature", "properties": {"Name":"Moultrie city","State":"Georgia","State_Abbrev":"GA"},
"geometry":{ "type": "Point", "coordinates": [-83.790786,31.17943]}},
{ "type": "Feature", "properties": {"Name":"Mountain City town","State":"Georgia","State_Abbrev":"GA"},
"geometry":{ "type": "Point", "coordinates": [-83.381098,34.921479]}},
{ "type": "Feature", "properties": {"Name":"Mountain Park city","State":"Georgia","State_Abbrev":"GA"},
"geometry":{ "type": "Point", "coordinates": [-84.413635,34.083035]}},
{ "type": "Feature", "properties": {"Name":"Mountain Park CDP","State":"Georgia","State_Abbrev":"GA"},
"geometry":{ "type": "Point", "coordinates": [-84.132156,33.846683]}},
{ "type": "Feature", "properties": {"Name":"Mount Airy town","State":"Georgia","State_Abbrev":"GA"},
"geometry":{ "type": "Point", "coordinates": [-83.497167,34.523488]}},
{ "type": "Feature", "properties": {"Name":"Mount Vernon city","State":"Georgia","State_Abbrev":"GA"},
"geometry":{ "type": "Point", "coordinates": [-82.596585,32.185236]}},
{ "type": "Feature", "properties": {"Name":"Mount Zion city","State":"Georgia","State_Abbrev":"GA"},
"geometry":{ "type": "Point", "coordinates": [-85.180998,33.642561]}},
{ "type": "Feature", "properties": {"Name":"Musella CDP","State":"Georgia","State_Abbrev":"GA"},
"geometry":{ "type": "Point", "coordinates": [-84.032382,32.801867]}},
{ "type": "Feature", "properties": {"Name":"Nahunta city","State":"Georgia","State_Abbrev":"GA"},
"geometry":{ "type": "Point", "coordinates": [-81.981216,31.206217]}},
{ "type": "Feature", "properties": {"Name":"Nashville city","State":"Georgia","State_Abbrev":"GA"},
"geometry":{ "type": "Point", "coordinates": [-83.246388,31.205697]}},
{ "type": "Feature", "properties": {"Name":"Naylor CDP","State":"Georgia","State_Abbrev":"GA"},
"geometry":{ "type": "Point", "coordinates": [-83.074184,30.910184]}},
{ "type": "Feature", "properties": {"Name":"Nelson city","State":"Georgia","State_Abbrev":"GA"},
"geometry":{ "type": "Point", "coordinates": [-84.370645,34.378893]}},
{ "type": "Feature", "properties": {"Name":"Newborn town","State":"Georgia","State_Abbrev":"GA"},
"geometry":{ "type": "Point", "coordinates": [-83.695737,33.516081]}},
{ "type": "Feature", "properties": {"Name":"New England CDP","State":"Georgia","State_Abbrev":"GA"},
"geometry":{ "type": "Point", "coordinates": [-85.481375,34.918034]}},
{ "type": "Feature", "properties": {"Name":"Newington town","State":"Georgia","State_Abbrev":"GA"},
"geometry":{ "type": "Point", "coordinates": [-81.505994,32.58916]}},
{ "type": "Feature", "properties": {"Name":"Newnan city","State":"Georgia","State_Abbrev":"GA"},
"geometry":{ "type": "Point", "coordinates": [-84.771204,33.379672]}},
{ "type": "Feature", "properties": {"Name":"Newton city","State":"Georgia","State_Abbrev":"GA"},
"geometry":{ "type": "Point", "coordinates": [-84.339469,31.316751]}},
{ "type": "Feature", "properties": {"Name":"Nicholls city","State":"Georgia","State_Abbrev":"GA"},
"geometry":{ "type": "Point", "coordinates": [-82.638096,31.520425]}},
{ "type": "Feature", "properties": {"Name":"Nicholson city","State":"Georgia","State_Abbrev":"GA"},
"geometry":{ "type": "Point", "coordinates": [-83.425056,34.116622]}},
{ "type": "Feature", "properties": {"Name":"Norcross city","State":"Georgia","State_Abbrev":"GA"},
"geometry":{ "type": "Point", "coordinates": [-84.205634,33.937394]}},
{ "type": "Feature", "properties": {"Name":"Norman Park city","State":"Georgia","State_Abbrev":"GA"},
"geometry":{ "type": "Point", "coordinates": [-83.684531,31.26902]}},
{ "type": "Feature", "properties": {"Name":"Norristown CDP","State":"Georgia","State_Abbrev":"GA"},
"geometry":{ "type": "Point", "coordinates": [-82.498626,32.50704]}},
{ "type": "Feature", "properties": {"Name":"North Decatur CDP","State":"Georgia","State_Abbrev":"GA"},
"geometry":{ "type": "Point", "coordinates": [-84.28889,33.807337]}},
{ "type": "Feature", "properties": {"Name":"North Druid Hills CDP","State":"Georgia","State_Abbrev":"GA"},
"geometry":{ "type": "Point", "coordinates": [-84.326702,33.819492]}},
{ "type": "Feature", "properties": {"Name":"North High Shoals town","State":"Georgia","State_Abbrev":"GA"},
"geometry":{ "type": "Point", "coordinates": [-83.501647,33.828754]}},
{ "type": "Feature", "properties": {"Name":"Norwood city","State":"Georgia","State_Abbrev":"GA"},
"geometry":{ "type": "Point", "coordinates": [-82.705957,33.462697]}},
{ "type": "Feature", "properties": {"Name":"Nunez city","State":"Georgia","State_Abbrev":"GA"},
"geometry":{ "type": "Point", "coordinates": [-82.346687,32.491954]}},
{ "type": "Feature", "properties": {"Name":"Oak Park town","State":"Georgia","State_Abbrev":"GA"},
"geometry":{ "type": "Point", "coordinates": [-82.324015,32.364413]}},
{ "type": "Feature", "properties": {"Name":"Oakwood city","State":"Georgia","State_Abbrev":"GA"},
"geometry":{ "type": "Point", "coordinates": [-83.884856,34.222133]}},
{ "type": "Feature", "properties": {"Name":"Ochlocknee town","State":"Georgia","State_Abbrev":"GA"},
"geometry":{ "type": "Point", "coordinates": [-84.050639,30.975437]}},
{ "type": "Feature", "properties": {"Name":"Ocilla city","State":"Georgia","State_Abbrev":"GA"},
"geometry":{ "type": "Point", "coordinates": [-83.249809,31.598633]}},
{ "type": "Feature", "properties": {"Name":"Oconee city","State":"Georgia","State_Abbrev":"GA"},
"geometry":{ "type": "Point", "coordinates": [-82.957675,32.853452]}},
{ "type": "Feature", "properties": {"Name":"Odum city","State":"Georgia","State_Abbrev":"GA"},
"geometry":{ "type": "Point", "coordinates": [-82.024183,31.67186]}},
{ "type": "Feature", "properties": {"Name":"Offerman city","State":"Georgia","State_Abbrev":"GA"},
"geometry":{ "type": "Point", "coordinates": [-82.114283,31.409941]}},
{ "type": "Feature", "properties": {"Name":"Oglethorpe city","State":"Georgia","State_Abbrev":"GA"},
"geometry":{ "type": "Point", "coordinates": [-84.062807,32.293176]}},
{ "type": "Feature", "properties": {"Name":"Ohoopee CDP","State":"Georgia","State_Abbrev":"GA"},
"geometry":{ "type": "Point", "coordinates": [-82.221992,32.181699]}},
{ "type": "Feature", "properties": {"Name":"Oliver city","State":"Georgia","State_Abbrev":"GA"},
"geometry":{ "type": "Point", "coordinates": [-81.536264,32.523079]}},
{ "type": "Feature", "properties": {"Name":"Omega city","State":"Georgia","State_Abbrev":"GA"},
"geometry":{ "type": "Point", "coordinates": [-83.593724,31.338958]}},
{ "type": "Feature", "properties": {"Name":"Orchard Hill town","State":"Georgia","State_Abbrev":"GA"},
"geometry":{ "type": "Point", "coordinates": [-84.212038,33.185158]}},
{ "type": "Feature", "properties": {"Name":"Oxford city","State":"Georgia","State_Abbrev":"GA"},
"geometry":{ "type": "Point", "coordinates": [-83.872326,33.628385]}},
{ "type": "Feature", "properties": {"Name":"Palmetto city","State":"Georgia","State_Abbrev":"GA"},
"geometry":{ "type": "Point", "coordinates": [-84.673791,33.536038]}},
{ "type": "Feature", "properties": {"Name":"Panthersville CDP","State":"Georgia","State_Abbrev":"GA"},
"geometry":{ "type": "Point", "coordinates": [-84.274474,33.70832]}},
{ "type": "Feature", "properties": {"Name":"Parrott town","State":"Georgia","State_Abbrev":"GA"},
"geometry":{ "type": "Point", "coordinates": [-84.511745,31.894377]}},
{ "type": "Feature", "properties": {"Name":"Patterson city","State":"Georgia","State_Abbrev":"GA"},
"geometry":{ "type": "Point", "coordinates": [-82.13543,31.384904]}},
{ "type": "Feature", "properties": {"Name":"Pavo city","State":"Georgia","State_Abbrev":"GA"},
"geometry":{ "type": "Point", "coordinates": [-83.739334,30.95937]}},
{ "type": "Feature", "properties": {"Name":"Peachtree City city","State":"Georgia","State_Abbrev":"GA"},
"geometry":{ "type": "Point", "coordinates": [-84.570656,33.391887]}},
{ "type": "Feature", "properties": {"Name":"Peachtree Corners city","State":"Georgia","State_Abbrev":"GA"},
"geometry":{ "type": "Point", "coordinates": [-84.232328,33.96715]}},
{ "type": "Feature", "properties": {"Name":"Pearson city","State":"Georgia","State_Abbrev":"GA"},
"geometry":{ "type": "Point", "coordinates": [-82.853957,31.29721]}},
{ "type": "Feature", "properties": {"Name":"Pelham city","State":"Georgia","State_Abbrev":"GA"},
"geometry":{ "type": "Point", "coordinates": [-84.151459,31.126639]}},
{ "type": "Feature", "properties": {"Name":"Pembroke city","State":"Georgia","State_Abbrev":"GA"},
"geometry":{ "type": "Point", "coordinates": [-81.616915,32.144525]}},
{ "type": "Feature", "properties": {"Name":"Pendergrass town","State":"Georgia","State_Abbrev":"GA"},
"geometry":{ "type": "Point", "coordinates": [-83.678859,34.165937]}},
{ "type": "Feature", "properties": {"Name":"Perkins CDP","State":"Georgia","State_Abbrev":"GA"},
"geometry":{ "type": "Point", "coordinates": [-81.944353,32.919257]}},
{ "type": "Feature", "properties": {"Name":"Perry city","State":"Georgia","State_Abbrev":"GA"},
"geometry":{ "type": "Point", "coordinates": [-83.726245,32.472008]}},
{ "type": "Feature", "properties": {"Name":"Phillipsburg CDP","State":"Georgia","State_Abbrev":"GA"},
"geometry":{ "type": "Point", "coordinates": [-83.520321,31.43888]}},
{ "type": "Feature", "properties": {"Name":"Pinehurst city","State":"Georgia","State_Abbrev":"GA"},
"geometry":{ "type": "Point", "coordinates": [-83.759519,32.196212]}},
{ "type": "Feature", "properties": {"Name":"Pine Lake city","State":"Georgia","State_Abbrev":"GA"},
"geometry":{ "type": "Point", "coordinates": [-84.205837,33.790707]}},
{ "type": "Feature", "properties": {"Name":"Pine Mountain town","State":"Georgia","State_Abbrev":"GA"},
"geometry":{ "type": "Point", "coordinates": [-84.851631,32.852005]}},
{ "type": "Feature", "properties": {"Name":"Pineview town","State":"Georgia","State_Abbrev":"GA"},
"geometry":{ "type": "Point", "coordinates": [-83.50887,32.10428]}},
{ "type": "Feature", "properties": {"Name":"Piney Grove CDP","State":"Georgia","State_Abbrev":"GA"},
"geometry":{ "type": "Point", "coordinates": [-85.03881,32.615464]}},
{ "type": "Feature", "properties": {"Name":"Pitts city","State":"Georgia","State_Abbrev":"GA"},
"geometry":{ "type": "Point", "coordinates": [-83.541757,31.946184]}},
{ "type": "Feature", "properties": {"Name":"Plains city","State":"Georgia","State_Abbrev":"GA"},
"geometry":{ "type": "Point", "coordinates": [-84.394526,32.03307]}},
{ "type": "Feature", "properties": {"Name":"Plainville city","State":"Georgia","State_Abbrev":"GA"},
"geometry":{ "type": "Point", "coordinates": [-85.031489,34.405265]}},
{ "type": "Feature", "properties": {"Name":"Pooler city","State":"Georgia","State_Abbrev":"GA"},
"geometry":{ "type": "Point", "coordinates": [-81.256032,32.105635]}},
{ "type": "Feature", "properties": {"Name":"Portal town","State":"Georgia","State_Abbrev":"GA"},
"geometry":{ "type": "Point", "coordinates": [-81.928751,32.538196]}},
{ "type": "Feature", "properties": {"Name":"Porterdale city","State":"Georgia","State_Abbrev":"GA"},
"geometry":{ "type": "Point", "coordinates": [-83.894787,33.573706]}},
{ "type": "Feature", "properties": {"Name":"Port Wentworth city","State":"Georgia","State_Abbrev":"GA"},
"geometry":{ "type": "Point", "coordinates": [-81.205725,32.192015]}},
{ "type": "Feature", "properties": {"Name":"Poulan city","State":"Georgia","State_Abbrev":"GA"},
"geometry":{ "type": "Point", "coordinates": [-83.78982,31.514506]}},
{ "type": "Feature", "properties": {"Name":"Powder Springs city","State":"Georgia","State_Abbrev":"GA"},
"geometry":{ "type": "Point", "coordinates": [-84.681216,33.86435]}},
{ "type": "Feature", "properties": {"Name":"Pulaski town","State":"Georgia","State_Abbrev":"GA"},
"geometry":{ "type": "Point", "coordinates": [-81.953437,32.390651]}},
{ "type": "Feature", "properties": {"Name":"Putney CDP","State":"Georgia","State_Abbrev":"GA"},
"geometry":{ "type": "Point", "coordinates": [-84.105241,31.474745]}},
{ "type": "Feature", "properties": {"Name":"Quitman city","State":"Georgia","State_Abbrev":"GA"},
"geometry":{ "type": "Point", "coordinates": [-83.560546,30.784529]}},
{ "type": "Feature", "properties": {"Name":"Ranger town","State":"Georgia","State_Abbrev":"GA"},
"geometry":{ "type": "Point", "coordinates": [-84.711067,34.501261]}},
{ "type": "Feature", "properties": {"Name":"Raoul CDP","State":"Georgia","State_Abbrev":"GA"},
"geometry":{ "type": "Point", "coordinates": [-83.600862,34.457691]}},
{ "type": "Feature", "properties": {"Name":"Ray City city","State":"Georgia","State_Abbrev":"GA"},
"geometry":{ "type": "Point", "coordinates": [-83.190091,31.072762]}},
{ "type": "Feature", "properties": {"Name":"Rayle town","State":"Georgia","State_Abbrev":"GA"},
"geometry":{ "type": "Point", "coordinates": [-82.908545,33.791336]}},
{ "type": "Feature", "properties": {"Name":"Rebecca town","State":"Georgia","State_Abbrev":"GA"},
"geometry":{ "type": "Point", "coordinates": [-83.487577,31.807226]}},
{ "type": "Feature", "properties": {"Name":"Redan CDP","State":"Georgia","State_Abbrev":"GA"},
"geometry":{ "type": "Point", "coordinates": [-84.167118,33.738689]}},
{ "type": "Feature", "properties": {"Name":"Reed Creek CDP","State":"Georgia","State_Abbrev":"GA"},
"geometry":{ "type": "Point", "coordinates": [-82.913683,34.440925]}},
{ "type": "Feature", "properties": {"Name":"Register town","State":"Georgia","State_Abbrev":"GA"},
"geometry":{ "type": "Point", "coordinates": [-81.880493,32.36453]}},
{ "type": "Feature", "properties": {"Name":"Reidsville city","State":"Georgia","State_Abbrev":"GA"},
"geometry":{ "type": "Point", "coordinates": [-82.12479,32.087331]}},
{ "type": "Feature", "properties": {"Name":"Remerton city","State":"Georgia","State_Abbrev":"GA"},
"geometry":{ "type": "Point", "coordinates": [-83.308928,30.843788]}},
{ "type": "Feature", "properties": {"Name":"Rentz city","State":"Georgia","State_Abbrev":"GA"},
"geometry":{ "type": "Point", "coordinates": [-82.991818,32.382887]}},
{ "type": "Feature", "properties": {"Name":"Resaca town","State":"Georgia","State_Abbrev":"GA"},
"geometry":{ "type": "Point", "coordinates": [-84.943824,34.579365]}},
{ "type": "Feature", "properties": {"Name":"Rest Haven town","State":"Georgia","State_Abbrev":"GA"},
"geometry":{ "type": "Point", "coordinates": [-83.974714,34.136245]}},
{ "type": "Feature", "properties": {"Name":"Reynolds city","State":"Georgia","State_Abbrev":"GA"},
"geometry":{ "type": "Point", "coordinates": [-84.094363,32.560478]}},
{ "type": "Feature", "properties": {"Name":"Rhine town","State":"Georgia","State_Abbrev":"GA"},
"geometry":{ "type": "Point", "coordinates": [-83.200435,31.989315]}},
{ "type": "Feature", "properties": {"Name":"Riceboro city","State":"Georgia","State_Abbrev":"GA"},
"geometry":{ "type": "Point", "coordinates": [-81.442341,31.724439]}},
{ "type": "Feature", "properties": {"Name":"Richland city","State":"Georgia","State_Abbrev":"GA"},
"geometry":{ "type": "Point", "coordinates": [-84.662001,32.088762]}},
{ "type": "Feature", "properties": {"Name":"Richmond Hill city","State":"Georgia","State_Abbrev":"GA"},
"geometry":{ "type": "Point", "coordinates": [-81.310961,31.9]}},
{ "type": "Feature", "properties": {"Name":"Riddleville town","State":"Georgia","State_Abbrev":"GA"},
"geometry":{ "type": "Point", "coordinates": [-82.664984,32.902739]}},
{ "type": "Feature", "properties": {"Name":"Rincon city","State":"Georgia","State_Abbrev":"GA"},
"geometry":{ "type": "Point", "coordinates": [-81.235348,32.29469]}},
{ "type": "Feature", "properties": {"Name":"Ringgold city","State":"Georgia","State_Abbrev":"GA"},
"geometry":{ "type": "Point", "coordinates": [-85.121503,34.913657]}},
{ "type": "Feature", "properties": {"Name":"Riverdale city","State":"Georgia","State_Abbrev":"GA"},
"geometry":{ "type": "Point", "coordinates": [-84.410959,33.563869]}},
{ "type": "Feature", "properties": {"Name":"Roberta city","State":"Georgia","State_Abbrev":"GA"},
"geometry":{ "type": "Point", "coordinates": [-84.010381,32.719776]}},
{ "type": "Feature", "properties": {"Name":"Robins AFB CDP","State":"Georgia","State_Abbrev":"GA"},
"geometry":{ "type": "Point", "coordinates": [-83.582946,32.610005]}},
{ "type": "Feature", "properties": {"Name":"Rochelle city","State":"Georgia","State_Abbrev":"GA"},
"geometry":{ "type": "Point", "coordinates": [-83.456882,31.948766]}},
{ "type": "Feature", "properties": {"Name":"Rockingham CDP","State":"Georgia","State_Abbrev":"GA"},
"geometry":{ "type": "Point", "coordinates": [-82.417685,31.541928]}},
{ "type": "Feature", "properties": {"Name":"Rockmart city","State":"Georgia","State_Abbrev":"GA"},
"geometry":{ "type": "Point", "coordinates": [-85.047716,34.010014]}},
{ "type": "Feature", "properties": {"Name":"Rock Spring CDP","State":"Georgia","State_Abbrev":"GA"},
"geometry":{ "type": "Point", "coordinates": [-85.238869,34.81467]}},
{ "type": "Feature", "properties": {"Name":"Rocky Ford town","State":"Georgia","State_Abbrev":"GA"},
"geometry":{ "type": "Point", "coordinates": [-81.835465,32.663507]}},
{ "type": "Feature", "properties": {"Name":"Rome city","State":"Georgia","State_Abbrev":"GA"},
"geometry":{ "type": "Point", "coordinates": [-85.186052,34.266133]}},
{ "type": "Feature", "properties": {"Name":"Roopville town","State":"Georgia","State_Abbrev":"GA"},
"geometry":{ "type": "Point", "coordinates": [-85.130407,33.456639]}},
{ "type": "Feature", "properties": {"Name":"Rossville city","State":"Georgia","State_Abbrev":"GA"},
"geometry":{ "type": "Point", "coordinates": [-85.289568,34.975773]}},
{ "type": "Feature", "properties": {"Name":"Roswell city","State":"Georgia","State_Abbrev":"GA"},
"geometry":{ "type": "Point", "coordinates": [-84.350946,34.039453]}},
{ "type": "Feature", "properties": {"Name":"Royston city","State":"Georgia","State_Abbrev":"GA"},
"geometry":{ "type": "Point", "coordinates": [-83.111787,34.285818]}},
{ "type": "Feature", "properties": {"Name":"Russell CDP","State":"Georgia","State_Abbrev":"GA"},
"geometry":{ "type": "Point", "coordinates": [-83.69227,33.979]}},
{ "type": "Feature", "properties": {"Name":"Rutledge city","State":"Georgia","State_Abbrev":"GA"},
"geometry":{ "type": "Point", "coordinates": [-83.609698,33.625654]}},
{ "type": "Feature", "properties": {"Name":"St. Marys city","State":"Georgia","State_Abbrev":"GA"},
"geometry":{ "type": "Point", "coordinates": [-81.572635,30.754245]}},
{ "type": "Feature", "properties": {"Name":"St. Simons CDP","State":"Georgia","State_Abbrev":"GA"},
"geometry":{ "type": "Point", "coordinates": [-81.385377,31.180149]}},
{ "type": "Feature", "properties": {"Name":"Sale City city","State":"Georgia","State_Abbrev":"GA"},
"geometry":{ "type": "Point", "coordinates": [-84.020816,31.262925]}},
{ "type": "Feature", "properties": {"Name":"Salem CDP","State":"Georgia","State_Abbrev":"GA"},
"geometry":{ "type": "Point", "coordinates": [-84.193624,32.758587]}},
{ "type": "Feature", "properties": {"Name":"Sandersville city","State":"Georgia","State_Abbrev":"GA"},
"geometry":{ "type": "Point", "coordinates": [-82.809694,32.982089]}},
{ "type": "Feature", "properties": {"Name":"Sandy Springs city","State":"Georgia","State_Abbrev":"GA"},
"geometry":{ "type": "Point", "coordinates": [-84.368889,33.931502]}},
{ "type": "Feature", "properties": {"Name":"Santa Claus city","State":"Georgia","State_Abbrev":"GA"},
"geometry":{ "type": "Point", "coordinates": [-82.329594,32.170653]}},
{ "type": "Feature", "properties": {"Name":"Sardis city","State":"Georgia","State_Abbrev":"GA"},
"geometry":{ "type": "Point", "coordinates": [-81.76151,32.975073]}},
{ "type": "Feature", "properties": {"Name":"Sasser town","State":"Georgia","State_Abbrev":"GA"},
"geometry":{ "type": "Point", "coordinates": [-84.347765,31.719916]}},
{ "type": "Feature", "properties": {"Name":"Satilla CDP","State":"Georgia","State_Abbrev":"GA"},
"geometry":{ "type": "Point", "coordinates": [-82.559167,31.791866]}},
{ "type": "Feature", "properties": {"Name":"Sautee-Nacoochee CDP","State":"Georgia","State_Abbrev":"GA"},
"geometry":{ "type": "Point", "coordinates": [-83.683078,34.688809]}},
{ "type": "Feature", "properties": {"Name":"Savannah city","State":"Georgia","State_Abbrev":"GA"},
"geometry":{ "type": "Point", "coordinates": [-81.196492,32.018043]}},
{ "type": "Feature", "properties": {"Name":"Scotland city","State":"Georgia","State_Abbrev":"GA"},
"geometry":{ "type": "Point", "coordinates": [-82.817615,32.047247]}},
{ "type": "Feature", "properties": {"Name":"Scottdale CDP","State":"Georgia","State_Abbrev":"GA"},
"geometry":{ "type": "Point", "coordinates": [-84.266012,33.795434]}},
{ "type": "Feature", "properties": {"Name":"Screven city","State":"Georgia","State_Abbrev":"GA"},
"geometry":{ "type": "Point", "coordinates": [-82.016879,31.484153]}},
{ "type": "Feature", "properties": {"Name":"Senoia city","State":"Georgia","State_Abbrev":"GA"},
"geometry":{ "type": "Point", "coordinates": [-84.554759,33.307664]}},
{ "type": "Feature", "properties": {"Name":"Seville CDP","State":"Georgia","State_Abbrev":"GA"},
"geometry":{ "type": "Point", "coordinates": [-83.600641,31.960953]}},
{ "type": "Feature", "properties": {"Name":"Shady Dale town","State":"Georgia","State_Abbrev":"GA"},
"geometry":{ "type": "Point", "coordinates": [-83.589375,33.398475]}},
{ "type": "Feature", "properties": {"Name":"Shannon CDP","State":"Georgia","State_Abbrev":"GA"},
"geometry":{ "type": "Point", "coordinates": [-85.084083,34.340318]}},
{ "type": "Feature", "properties": {"Name":"Sharon city","State":"Georgia","State_Abbrev":"GA"},
"geometry":{ "type": "Point", "coordinates": [-82.795436,33.562681]}},
{ "type": "Feature", "properties": {"Name":"Sharpsburg town","State":"Georgia","State_Abbrev":"GA"},
"geometry":{ "type": "Point", "coordinates": [-84.650911,33.337111]}},
{ "type": "Feature", "properties": {"Name":"Shellman city","State":"Georgia","State_Abbrev":"GA"},
"geometry":{ "type": "Point", "coordinates": [-84.6159,31.757085]}},
{ "type": "Feature", "properties": {"Name":"Shiloh city","State":"Georgia","State_Abbrev":"GA"},
"geometry":{ "type": "Point", "coordinates": [-84.698708,32.81158]}},
{ "type": "Feature", "properties": {"Name":"Siloam town","State":"Georgia","State_Abbrev":"GA"},
"geometry":{ "type": "Point", "coordinates": [-83.084892,33.540913]}},
{ "type": "Feature", "properties": {"Name":"Skidaway Island CDP","State":"Georgia","State_Abbrev":"GA"},
"geometry":{ "type": "Point", "coordinates": [-81.046395,31.937772]}},
{ "type": "Feature", "properties": {"Name":"Sky Valley city","State":"Georgia","State_Abbrev":"GA"},
"geometry":{ "type": "Point", "coordinates": [-83.333994,34.984996]}},
{ "type": "Feature", "properties": {"Name":"Smarr CDP","State":"Georgia","State_Abbrev":"GA"},
"geometry":{ "type": "Point", "coordinates": [-83.883024,32.987019]}},
{ "type": "Feature", "properties": {"Name":"Smithville city","State":"Georgia","State_Abbrev":"GA"},
"geometry":{ "type": "Point", "coordinates": [-84.255174,31.901098]}},
{ "type": "Feature", "properties": {"Name":"Smyrna city","State":"Georgia","State_Abbrev":"GA"},
"geometry":{ "type": "Point", "coordinates": [-84.51612,33.862559]}},
{ "type": "Feature", "properties": {"Name":"Snellville city","State":"Georgia","State_Abbrev":"GA"},
"geometry":{ "type": "Point", "coordinates": [-84.006295,33.860224]}},
{ "type": "Feature", "properties": {"Name":"Social Circle city","State":"Georgia","State_Abbrev":"GA"},
"geometry":{ "type": "Point", "coordinates": [-83.712782,33.646139]}},
{ "type": "Feature", "properties": {"Name":"Soperton city","State":"Georgia","State_Abbrev":"GA"},
"geometry":{ "type": "Point", "coordinates": [-82.594019,32.378268]}},
{ "type": "Feature", "properties": {"Name":"South Fulton city","State":"Georgia","State_Abbrev":"GA"},
"geometry":{ "type": "Point", "coordinates": [-84.583417,33.63572]}},
{ "type": "Feature", "properties": {"Name":"Sparks town","State":"Georgia","State_Abbrev":"GA"},
"geometry":{ "type": "Point", "coordinates": [-83.441225,31.169023]}},
{ "type": "Feature", "properties": {"Name":"Sparta city","State":"Georgia","State_Abbrev":"GA"},
"geometry":{ "type": "Point", "coordinates": [-82.969815,33.277912]}},
{ "type": "Feature", "properties": {"Name":"Springfield city","State":"Georgia","State_Abbrev":"GA"},
"geometry":{ "type": "Point", "coordinates": [-81.301855,32.363067]}},
{ "type": "Feature", "properties": {"Name":"Stapleton city","State":"Georgia","State_Abbrev":"GA"},
"geometry":{ "type": "Point", "coordinates": [-82.467241,33.216889]}},
{ "type": "Feature", "properties": {"Name":"Statesboro city","State":"Georgia","State_Abbrev":"GA"},
"geometry":{ "type": "Point", "coordinates": [-81.775637,32.437726]}},
{ "type": "Feature", "properties": {"Name":"Statham city","State":"Georgia","State_Abbrev":"GA"},
"geometry":{ "type": "Point", "coordinates": [-83.603753,33.962774]}},
{ "type": "Feature", "properties": {"Name":"Sterling CDP","State":"Georgia","State_Abbrev":"GA"},
"geometry":{ "type": "Point", "coordinates": [-81.553083,31.262153]}},
{ "type": "Feature", "properties": {"Name":"Stillmore city","State":"Georgia","State_Abbrev":"GA"},
"geometry":{ "type": "Point", "coordinates": [-82.214484,32.441609]}},
{ "type": "Feature", "properties": {"Name":"Stockbridge city","State":"Georgia","State_Abbrev":"GA"},
"geometry":{ "type": "Point", "coordinates": [-84.228186,33.526191]}},
{ "type": "Feature", "properties": {"Name":"Stockton CDP","State":"Georgia","State_Abbrev":"GA"},
"geometry":{ "type": "Point", "coordinates": [-83.003613,30.946423]}},
{ "type": "Feature", "properties": {"Name":"Stonecrest city","State":"Georgia","State_Abbrev":"GA"},
"geometry":{ "type": "Point", "coordinates": [-84.14525,33.680667]}},
{ "type": "Feature", "properties": {"Name":"Stone Mountain city","State":"Georgia","State_Abbrev":"GA"},
"geometry":{ "type": "Point", "coordinates": [-84.17142,33.804187]}},
{ "type": "Feature", "properties": {"Name":"Sugar Hill city","State":"Georgia","State_Abbrev":"GA"},
"geometry":{ "type": "Point", "coordinates": [-84.03397,34.085962]}},
{ "type": "Feature", "properties": {"Name":"Summertown city","State":"Georgia","State_Abbrev":"GA"},
"geometry":{ "type": "Point", "coordinates": [-82.276859,32.745239]}},
{ "type": "Feature", "properties": {"Name":"Summerville city","State":"Georgia","State_Abbrev":"GA"},
"geometry":{ "type": "Point", "coordinates": [-85.349072,34.478751]}},
{ "type": "Feature", "properties": {"Name":"Sumner town","State":"Georgia","State_Abbrev":"GA"},
"geometry":{ "type": "Point", "coordinates": [-83.736838,31.510337]}},
{ "type": "Feature", "properties": {"Name":"Sunny Side city","State":"Georgia","State_Abbrev":"GA"},
"geometry":{ "type": "Point", "coordinates": [-84.29174,33.343277]}},
{ "type": "Feature", "properties": {"Name":"Sunnyside CDP","State":"Georgia","State_Abbrev":"GA"},
"geometry":{ "type": "Point", "coordinates": [-82.341783,31.239489]}},
{ "type": "Feature", "properties": {"Name":"Sunset Village CDP","State":"Georgia","State_Abbrev":"GA"},
"geometry":{ "type": "Point", "coordinates": [-84.409712,32.891774]}},
{ "type": "Feature", "properties": {"Name":"Surrency town","State":"Georgia","State_Abbrev":"GA"},
"geometry":{ "type": "Point", "coordinates": [-82.197823,31.721916]}},
{ "type": "Feature", "properties": {"Name":"Suwanee city","State":"Georgia","State_Abbrev":"GA"},
"geometry":{ "type": "Point", "coordinates": [-84.06591,34.051119]}},
{ "type": "Feature", "properties": {"Name":"Swainsboro city","State":"Georgia","State_Abbrev":"GA"},
"geometry":{ "type": "Point", "coordinates": [-82.334784,32.585588]}},
{ "type": "Feature", "properties": {"Name":"Sycamore city","State":"Georgia","State_Abbrev":"GA"},
"geometry":{ "type": "Point", "coordinates": [-83.635525,31.671652]}},
{ "type": "Feature", "properties": {"Name":"Sylvania city","State":"Georgia","State_Abbrev":"GA"},
"geometry":{ "type": "Point", "coordinates": [-81.640693,32.747226]}},
{ "type": "Feature", "properties": {"Name":"Sylvester city","State":"Georgia","State_Abbrev":"GA"},
"geometry":{ "type": "Point", "coordinates": [-83.834571,31.529745]}},
{ "type": "Feature", "properties": {"Name":"Talahi Island CDP","State":"Georgia","State_Abbrev":"GA"},
"geometry":{ "type": "Point", "coordinates": [-80.976021,32.032985]}},
{ "type": "Feature", "properties": {"Name":"Talbotton city","State":"Georgia","State_Abbrev":"GA"},
"geometry":{ "type": "Point", "coordinates": [-84.54065,32.677248]}},
{ "type": "Feature", "properties": {"Name":"Talking Rock town","State":"Georgia","State_Abbrev":"GA"},
"geometry":{ "type": "Point", "coordinates": [-84.491954,34.529219]}},
{ "type": "Feature", "properties": {"Name":"Tallapoosa city","State":"Georgia","State_Abbrev":"GA"},
"geometry":{ "type": "Point", "coordinates": [-85.287358,33.736656]}},
{ "type": "Feature", "properties": {"Name":"Tallulah Falls town","State":"Georgia","State_Abbrev":"GA"},
"geometry":{ "type": "Point", "coordinates": [-83.387512,34.725845]}},
{ "type": "Feature", "properties": {"Name":"Talmo town","State":"Georgia","State_Abbrev":"GA"},
"geometry":{ "type": "Point", "coordinates": [-83.717415,34.179368]}},
{ "type": "Feature", "properties": {"Name":"Tarrytown town","State":"Georgia","State_Abbrev":"GA"},
"geometry":{ "type": "Point", "coordinates": [-82.559905,32.319004]}},
{ "type": "Feature", "properties": {"Name":"Tate City CDP","State":"Georgia","State_Abbrev":"GA"},
"geometry":{ "type": "Point", "coordinates": [-83.551469,34.976365]}},
{ "type": "Feature", "properties": {"Name":"Taylorsville town","State":"Georgia","State_Abbrev":"GA"},
"geometry":{ "type": "Point", "coordinates": [-84.985629,34.085129]}},
{ "type": "Feature", "properties": {"Name":"Tazewell CDP","State":"Georgia","State_Abbrev":"GA"},
"geometry":{ "type": "Point", "coordinates": [-84.437955,32.374996]}},
{ "type": "Feature", "properties": {"Name":"Temple city","State":"Georgia","State_Abbrev":"GA"},
"geometry":{ "type": "Point", "coordinates": [-85.027295,33.733245]}},
{ "type": "Feature", "properties": {"Name":"Tennille city","State":"Georgia","State_Abbrev":"GA"},
"geometry":{ "type": "Point", "coordinates": [-82.813233,32.936563]}},
{ "type": "Feature", "properties": {"Name":"The Rock CDP","State":"Georgia","State_Abbrev":"GA"},
"geometry":{ "type": "Point", "coordinates": [-84.239175,32.960715]}},
{ "type": "Feature", "properties": {"Name":"Thomaston city","State":"Georgia","State_Abbrev":"GA"},
"geometry":{ "type": "Point", "coordinates": [-84.326691,32.891673]}},
{ "type": "Feature", "properties": {"Name":"Thomasville city","State":"Georgia","State_Abbrev":"GA"},
"geometry":{ "type": "Point", "coordinates": [-83.978781,30.839422]}},
{ "type": "Feature", "properties": {"Name":"Thomson city","State":"Georgia","State_Abbrev":"GA"},
"geometry":{ "type": "Point", "coordinates": [-82.497955,33.46853]}},
{ "type": "Feature", "properties": {"Name":"Thunderbolt town","State":"Georgia","State_Abbrev":"GA"},
"geometry":{ "type": "Point", "coordinates": [-81.049204,32.035729]}},
{ "type": "Feature", "properties": {"Name":"Tifton city","State":"Georgia","State_Abbrev":"GA"},
"geometry":{ "type": "Point", "coordinates": [-83.520499,31.462099]}},
{ "type": "Feature", "properties": {"Name":"Tiger town","State":"Georgia","State_Abbrev":"GA"},
"geometry":{ "type": "Point", "coordinates": [-83.432562,34.846066]}},
{ "type": "Feature", "properties": {"Name":"Tignall town","State":"Georgia","State_Abbrev":"GA"},
"geometry":{ "type": "Point", "coordinates": [-82.742146,33.866962]}},
{ "type": "Feature", "properties": {"Name":"Toccoa city","State":"Georgia","State_Abbrev":"GA"},
"geometry":{ "type": "Point", "coordinates": [-83.327169,34.582081]}},
{ "type": "Feature", "properties": {"Name":"Toomsboro city","State":"Georgia","State_Abbrev":"GA"},
"geometry":{ "type": "Point", "coordinates": [-83.082637,32.822373]}},
{ "type": "Feature", "properties": {"Name":"Trenton city","State":"Georgia","State_Abbrev":"GA"},
"geometry":{ "type": "Point", "coordinates": [-85.50965,34.874147]}},
{ "type": "Feature", "properties": {"Name":"Trion town","State":"Georgia","State_Abbrev":"GA"},
"geometry":{ "type": "Point", "coordinates": [-85.310769,34.548418]}},
{ "type": "Feature", "properties": {"Name":"Tucker city","State":"Georgia","State_Abbrev":"GA"},
"geometry":{ "type": "Point", "coordinates": [-84.202085,33.845169]}},
{ "type": "Feature", "properties": {"Name":"Tunnel Hill city","State":"Georgia","State_Abbrev":"GA"},
"geometry":{ "type": "Point", "coordinates": [-85.036778,34.855413]}},
{ "type": "Feature", "properties": {"Name":"Turin town","State":"Georgia","State_Abbrev":"GA"},
"geometry":{ "type": "Point", "coordinates": [-84.638692,33.322977]}},
{ "type": "Feature", "properties": {"Name":"Twin City city","State":"Georgia","State_Abbrev":"GA"},
"geometry":{ "type": "Point", "coordinates": [-82.159379,32.582227]}},
{ "type": "Feature", "properties": {"Name":"Tybee Island city","State":"Georgia","State_Abbrev":"GA"},
"geometry":{ "type": "Point", "coordinates": [-80.855904,32.010216]}},
{ "type": "Feature", "properties": {"Name":"Tyrone town","State":"Georgia","State_Abbrev":"GA"},
"geometry":{ "type": "Point", "coordinates": [-84.594522,33.476059]}},
{ "type": "Feature", "properties": {"Name":"Ty Ty city","State":"Georgia","State_Abbrev":"GA"},
"geometry":{ "type": "Point", "coordinates": [-83.650265,31.471881]}},
{ "type": "Feature", "properties": {"Name":"Unadilla city","State":"Georgia","State_Abbrev":"GA"},
"geometry":{ "type": "Point", "coordinates": [-83.735898,32.257284]}},
{ "type": "Feature", "properties": {"Name":"Union City city","State":"Georgia","State_Abbrev":"GA"},
"geometry":{ "type": "Point", "coordinates": [-84.56263,33.593837]}},
{ "type": "Feature", "properties": {"Name":"Union Point city","State":"Georgia","State_Abbrev":"GA"},
"geometry":{ "type": "Point", "coordinates": [-83.075036,33.618816]}},
{ "type": "Feature", "properties": {"Name":"Unionville CDP","State":"Georgia","State_Abbrev":"GA"},
"geometry":{ "type": "Point", "coordinates": [-83.509063,31.436548]}},
{ "type": "Feature", "properties": {"Name":"Uvalda city","State":"Georgia","State_Abbrev":"GA"},
"geometry":{ "type": "Point", "coordinates": [-82.507459,32.038084]}},
{ "type": "Feature", "properties": {"Name":"Valdosta city","State":"Georgia","State_Abbrev":"GA"},
"geometry":{ "type": "Point", "coordinates": [-83.278833,30.850126]}},
{ "type": "Feature", "properties": {"Name":"Varnell city","State":"Georgia","State_Abbrev":"GA"},
"geometry":{ "type": "Point", "coordinates": [-84.965064,34.901575]}},
{ "type": "Feature", "properties": {"Name":"Vernonburg town","State":"Georgia","State_Abbrev":"GA"},
"geometry":{ "type": "Point", "coordinates": [-81.120562,31.966172]}},
{ "type": "Feature", "properties": {"Name":"Vidalia city","State":"Georgia","State_Abbrev":"GA"},
"geometry":{ "type": "Point", "coordinates": [-82.402187,32.212079]}},
{ "type": "Feature", "properties": {"Name":"Vidette city","State":"Georgia","State_Abbrev":"GA"},
"geometry":{ "type": "Point", "coordinates": [-82.244029,33.036123]}},
{ "type": "Feature", "properties": {"Name":"Vienna city","State":"Georgia","State_Abbrev":"GA"},
"geometry":{ "type": "Point", "coordinates": [-83.786839,32.092747]}},
{ "type": "Feature", "properties": {"Name":"Villa Rica city","State":"Georgia","State_Abbrev":"GA"},
"geometry":{ "type": "Point", "coordinates": [-84.916662,33.728365]}},
{ "type": "Feature", "properties": {"Name":"Vinings CDP","State":"Georgia","State_Abbrev":"GA"},
"geometry":{ "type": "Point", "coordinates": [-84.467843,33.85916]}},
{ "type": "Feature", "properties": {"Name":"Waco city","State":"Georgia","State_Abbrev":"GA"},
"geometry":{ "type": "Point", "coordinates": [-85.189244,33.7026]}},
{ "type": "Feature", "properties": {"Name":"Wadley city","State":"Georgia","State_Abbrev":"GA"},
"geometry":{ "type": "Point", "coordinates": [-82.402802,32.86479]}},
{ "type": "Feature", "properties": {"Name":"Waleska city","State":"Georgia","State_Abbrev":"GA"},
"geometry":{ "type": "Point", "coordinates": [-84.550982,34.317022]}},
{ "type": "Feature", "properties": {"Name":"Walnut Grove city","State":"Georgia","State_Abbrev":"GA"},
"geometry":{ "type": "Point", "coordinates": [-83.849962,33.74786]}},
{ "type": "Feature", "properties": {"Name":"Walthourville city","State":"Georgia","State_Abbrev":"GA"},
"geometry":{ "type": "Point", "coordinates": [-81.620943,31.771984]}},
{ "type": "Feature", "properties": {"Name":"Waresboro CDP","State":"Georgia","State_Abbrev":"GA"},
"geometry":{ "type": "Point", "coordinates": [-82.472031,31.247501]}},
{ "type": "Feature", "properties": {"Name":"Warm Springs city","State":"Georgia","State_Abbrev":"GA"},
"geometry":{ "type": "Point", "coordinates": [-84.678624,32.887196]}},
{ "type": "Feature", "properties": {"Name":"Warner Robins city","State":"Georgia","State_Abbrev":"GA"},
"geometry":{ "type": "Point", "coordinates": [-83.653936,32.597096]}},
{ "type": "Feature", "properties": {"Name":"Warrenton city","State":"Georgia","State_Abbrev":"GA"},
"geometry":{ "type": "Point", "coordinates": [-82.665431,33.406073]}},
{ "type": "Feature", "properties": {"Name":"Warthen CDP","State":"Georgia","State_Abbrev":"GA"},
"geometry":{ "type": "Point", "coordinates": [-82.804922,33.094754]}},
{ "type": "Feature", "properties": {"Name":"Warwick city","State":"Georgia","State_Abbrev":"GA"},
"geometry":{ "type": "Point", "coordinates": [-83.920625,31.82979]}},
{ "type": "Feature", "properties": {"Name":"Washington city","State":"Georgia","State_Abbrev":"GA"},
"geometry":{ "type": "Point", "coordinates": [-82.743613,33.732289]}},
{ "type": "Feature", "properties": {"Name":"Watkinsville city","State":"Georgia","State_Abbrev":"GA"},
"geometry":{ "type": "Point", "coordinates": [-83.404788,33.859666]}},
{ "type": "Feature", "properties": {"Name":"Waverly CDP","State":"Georgia","State_Abbrev":"GA"},
"geometry":{ "type": "Point", "coordinates": [-81.72762,31.109805]}},
{ "type": "Feature", "properties": {"Name":"Waverly Hall town","State":"Georgia","State_Abbrev":"GA"},
"geometry":{ "type": "Point", "coordinates": [-84.728333,32.68289]}},
{ "type": "Feature", "properties": {"Name":"Waycross city","State":"Georgia","State_Abbrev":"GA"},
"geometry":{ "type": "Point", "coordinates": [-82.357658,31.211006]}},
{ "type": "Feature", "properties": {"Name":"Waynesboro city","State":"Georgia","State_Abbrev":"GA"},
"geometry":{ "type": "Point", "coordinates": [-82.01429,33.091279]}},
{ "type": "Feature", "properties": {"Name":"Waynesville CDP","State":"Georgia","State_Abbrev":"GA"},
"geometry":{ "type": "Point", "coordinates": [-81.783591,31.227222]}},
{ "type": "Feature", "properties": {"Name":"Webster County unified government","State":"Georgia","State_Abbrev":"GA"},
"geometry":{ "type": "Point", "coordinates": [-84.553828,32.046691]}},
{ "type": "Feature", "properties": {"Name":"Wenona CDP","State":"Georgia","State_Abbrev":"GA"},
"geometry":{ "type": "Point", "coordinates": [-83.751066,31.910941]}},
{ "type": "Feature", "properties": {"Name":"West Brow CDP","State":"Georgia","State_Abbrev":"GA"},
"geometry":{ "type": "Point", "coordinates": [-85.418583,34.914816]}},
{ "type": "Feature", "properties": {"Name":"West Point city","State":"Georgia","State_Abbrev":"GA"},
"geometry":{ "type": "Point", "coordinates": [-85.141499,32.898518]}},
{ "type": "Feature", "properties": {"Name":"Whigham city","State":"Georgia","State_Abbrev":"GA"},
"geometry":{ "type": "Point", "coordinates": [-84.327368,30.883895]}},
{ "type": "Feature", "properties": {"Name":"White city","State":"Georgia","State_Abbrev":"GA"},
"geometry":{ "type": "Point", "coordinates": [-84.748028,34.282234]}},
{ "type": "Feature", "properties": {"Name":"Whitemarsh Island CDP","State":"Georgia","State_Abbrev":"GA"},
"geometry":{ "type": "Point", "coordinates": [-81.012919,32.030312]}},
{ "type": "Feature", "properties": {"Name":"White Plains city","State":"Georgia","State_Abbrev":"GA"},
"geometry":{ "type": "Point", "coordinates": [-83.036343,33.480313]}},
{ "type": "Feature", "properties": {"Name":"Whitesburg city","State":"Georgia","State_Abbrev":"GA"},
"geometry":{ "type": "Point", "coordinates": [-84.9143,33.492068]}},
{ "type": "Feature", "properties": {"Name":"Wildwood CDP","State":"Georgia","State_Abbrev":"GA"},
"geometry":{ "type": "Point", "coordinates": [-85.421501,34.966937]}},
{ "type": "Feature", "properties": {"Name":"Willacoochee city","State":"Georgia","State_Abbrev":"GA"},
"geometry":{ "type": "Point", "coordinates": [-83.044003,31.335094]}},
{ "type": "Feature", "properties": {"Name":"Williamson city","State":"Georgia","State_Abbrev":"GA"},
"geometry":{ "type": "Point", "coordinates": [-84.357575,33.178274]}},
{ "type": "Feature", "properties": {"Name":"Wilmington Island CDP","State":"Georgia","State_Abbrev":"GA"},
"geometry":{ "type": "Point", "coordinates": [-80.975229,31.999706]}},
{ "type": "Feature", "properties": {"Name":"Winder city","State":"Georgia","State_Abbrev":"GA"},
"geometry":{ "type": "Point", "coordinates": [-83.721508,33.991341]}},
{ "type": "Feature", "properties": {"Name":"Winterville city","State":"Georgia","State_Abbrev":"GA"},
"geometry":{ "type": "Point", "coordinates": [-83.281558,33.966635]}},
{ "type": "Feature", "properties": {"Name":"Woodbine city","State":"Georgia","State_Abbrev":"GA"},
"geometry":{ "type": "Point", "coordinates": [-81.718098,30.959855]}},
{ "type": "Feature", "properties": {"Name":"Woodbury city","State":"Georgia","State_Abbrev":"GA"},
"geometry":{ "type": "Point", "coordinates": [-84.582015,32.985218]}},
{ "type": "Feature", "properties": {"Name":"Woodland city","State":"Georgia","State_Abbrev":"GA"},
"geometry":{ "type": "Point", "coordinates": [-84.561221,32.788217]}},
{ "type": "Feature", "properties": {"Name":"Woodstock city","State":"Georgia","State_Abbrev":"GA"},
"geometry":{ "type": "Point", "coordinates": [-84.512997,34.10314]}},
{ "type": "Feature", "properties": {"Name":"Woodville city","State":"Georgia","State_Abbrev":"GA"},
"geometry":{ "type": "Point", "coordinates": [-83.118094,33.665503]}},
{ "type": "Feature", "properties": {"Name":"Woolsey town","State":"Georgia","State_Abbrev":"GA"},
"geometry":{ "type": "Point", "coordinates": [-84.407036,33.362901]}},
{ "type": "Feature", "properties": {"Name":"Wrens city","State":"Georgia","State_Abbrev":"GA"},
"geometry":{ "type": "Point", "coordinates": [-82.387583,33.207434]}},
{ "type": "Feature", "properties": {"Name":"Wrightsville city","State":"Georgia","State_Abbrev":"GA"},
"geometry":{ "type": "Point", "coordinates": [-82.719072,32.726812]}},
{ "type": "Feature", "properties": {"Name":"Yatesville town","State":"Georgia","State_Abbrev":"GA"},
"geometry":{ "type": "Point", "coordinates": [-84.142713,32.913416]}},
{ "type": "Feature", "properties": {"Name":"Yonah CDP","State":"Georgia","State_Abbrev":"GA"},
"geometry":{ "type": "Point", "coordinates": [-83.743,34.644182]}},
{ "type": "Feature", "properties": {"Name":"Young Harris city","State":"Georgia","State_Abbrev":"GA"},
"geometry":{ "type": "Point", "coordinates": [-83.847726,34.934606]}},
{ "type": "Feature", "properties": {"Name":"Zebulon city","State":"Georgia","State_Abbrev":"GA"},
"geometry":{ "type": "Point", "coordinates": [-84.339467,33.090996]}}]}
