{"type":"FeatureCollection","features":[
{ "type": "Feature", "properties": {"Name":"Ahuimanu CDP","State":"Hawaii","State_Abbrev":"HI"},
"geometry":{ "type": "Point", "coordinates": [-157.84033,21.437891]}},
{ "type": "Feature", "properties": {"Name":"Aiea CDP","State":"Hawaii","State_Abbrev":"HI"},
"geometry":{ "type": "Point", "coordinates": [-157.92475,21.385262]}},
{ "type": "Feature", "properties": {"Name":"Ainaloa CDP","State":"Hawaii","State_Abbrev":"HI"},
"geometry":{ "type": "Point", "coordinates": [-154.994378,19.521477]}},
{ "type": "Feature", "properties": {"Name":"Anahola CDP","State":"Hawaii","State_Abbrev":"HI"},
"geometry":{ "type": "Point", "coordinates": [-159.314592,22.146402]}},
{ "type": "Feature", "properties": {"Name":"Black Sands CDP","State":"Hawaii","State_Abbrev":"HI"},
"geometry":{ "type": "Point", "coordinates": [-154.958803,19.41356]}},
{ "type": "Feature", "properties": {"Name":"Captain Cook CDP","State":"Hawaii","State_Abbrev":"HI"},
"geometry":{ "type": "Point", "coordinates": [-155.89368,19.499545]}},
{ "type": "Feature", "properties": {"Name":"Discovery Harbour CDP","State":"Hawaii","State_Abbrev":"HI"},
"geometry":{ "type": "Point", "coordinates": [-155.625412,19.041504]}},
{ "type": "Feature", "properties": {"Name":"East Honolulu CDP","State":"Hawaii","State_Abbrev":"HI"},
"geometry":{ "type": "Point", "coordinates": [-157.7179,21.288446]}},
{ "type": "Feature", "properties": {"Name":"East Kapolei CDP","State":"Hawaii","State_Abbrev":"HI"},
"geometry":{ "type": "Point", "coordinates": [-158.040949,21.363283]}},
{ "type": "Feature", "properties": {"Name":"Eden Roc CDP","State":"Hawaii","State_Abbrev":"HI"},
"geometry":{ "type": "Point", "coordinates": [-155.095784,19.491749]}},
{ "type": "Feature", "properties": {"Name":"Eleele CDP","State":"Hawaii","State_Abbrev":"HI"},
"geometry":{ "type": "Point", "coordinates": [-159.582766,21.906044]}},
{ "type": "Feature", "properties": {"Name":"Ewa Beach CDP","State":"Hawaii","State_Abbrev":"HI"},
"geometry":{ "type": "Point", "coordinates": [-158.006114,21.31274]}},
{ "type": "Feature", "properties": {"Name":"Ewa Gentry CDP","State":"Hawaii","State_Abbrev":"HI"},
"geometry":{ "type": "Point", "coordinates": [-158.026212,21.33442]}},
{ "type": "Feature", "properties": {"Name":"Ewa Villages CDP","State":"Hawaii","State_Abbrev":"HI"},
"geometry":{ "type": "Point", "coordinates": [-158.038929,21.341734]}},
{ "type": "Feature", "properties": {"Name":"Fern Acres CDP","State":"Hawaii","State_Abbrev":"HI"},
"geometry":{ "type": "Point", "coordinates": [-155.078544,19.508223]}},
{ "type": "Feature", "properties": {"Name":"Fern Forest CDP","State":"Hawaii","State_Abbrev":"HI"},
"geometry":{ "type": "Point", "coordinates": [-155.13238,19.464719]}},
{ "type": "Feature", "properties": {"Name":"Haena CDP","State":"Hawaii","State_Abbrev":"HI"},
"geometry":{ "type": "Point", "coordinates": [-159.56109,22.218503]}},
{ "type": "Feature", "properties": {"Name":"Haiku-Pauwela CDP","State":"Hawaii","State_Abbrev":"HI"},
"geometry":{ "type": "Point", "coordinates": [-156.301873,20.920874]}},
{ "type": "Feature", "properties": {"Name":"Halaula CDP","State":"Hawaii","State_Abbrev":"HI"},
"geometry":{ "type": "Point", "coordinates": [-155.776538,20.21709]}},
{ "type": "Feature", "properties": {"Name":"Halawa CDP","State":"Hawaii","State_Abbrev":"HI"},
"geometry":{ "type": "Point", "coordinates": [-157.918491,21.375318]}},
{ "type": "Feature", "properties": {"Name":"Haleiwa CDP","State":"Hawaii","State_Abbrev":"HI"},
"geometry":{ "type": "Point", "coordinates": [-158.09564,21.602384]}},
{ "type": "Feature", "properties": {"Name":"Haliimaile CDP","State":"Hawaii","State_Abbrev":"HI"},
"geometry":{ "type": "Point", "coordinates": [-156.328542,20.862913]}},
{ "type": "Feature", "properties": {"Name":"Hana CDP","State":"Hawaii","State_Abbrev":"HI"},
"geometry":{ "type": "Point", "coordinates": [-156.014258,20.773975]}},
{ "type": "Feature", "properties": {"Name":"Hanalei CDP","State":"Hawaii","State_Abbrev":"HI"},
"geometry":{ "type": "Point", "coordinates": [-159.497738,22.203847]}},
{ "type": "Feature", "properties": {"Name":"Hanamaulu CDP","State":"Hawaii","State_Abbrev":"HI"},
"geometry":{ "type": "Point", "coordinates": [-159.34711,21.996925]}},
{ "type": "Feature", "properties": {"Name":"Hanapepe CDP","State":"Hawaii","State_Abbrev":"HI"},
"geometry":{ "type": "Point", "coordinates": [-159.588164,21.913311]}},
{ "type": "Feature", "properties": {"Name":"Hauula CDP","State":"Hawaii","State_Abbrev":"HI"},
"geometry":{ "type": "Point", "coordinates": [-157.910886,21.612048]}},
{ "type": "Feature", "properties": {"Name":"Hawaiian Acres CDP","State":"Hawaii","State_Abbrev":"HI"},
"geometry":{ "type": "Point", "coordinates": [-155.049706,19.532458]}},
{ "type": "Feature", "properties": {"Name":"Hawaiian Beaches CDP","State":"Hawaii","State_Abbrev":"HI"},
"geometry":{ "type": "Point", "coordinates": [-154.928934,19.544648]}},
{ "type": "Feature", "properties": {"Name":"Hawaiian Ocean View CDP","State":"Hawaii","State_Abbrev":"HI"},
"geometry":{ "type": "Point", "coordinates": [-155.774961,19.095908]}},
{ "type": "Feature", "properties": {"Name":"Hawaiian Paradise Park CDP","State":"Hawaii","State_Abbrev":"HI"},
"geometry":{ "type": "Point", "coordinates": [-154.973069,19.587281]}},
{ "type": "Feature", "properties": {"Name":"Hawi CDP","State":"Hawaii","State_Abbrev":"HI"},
"geometry":{ "type": "Point", "coordinates": [-155.839597,20.227406]}},
{ "type": "Feature", "properties": {"Name":"Heeia CDP","State":"Hawaii","State_Abbrev":"HI"},
"geometry":{ "type": "Point", "coordinates": [-157.818885,21.420222]}},
{ "type": "Feature", "properties": {"Name":"Helemano CDP","State":"Hawaii","State_Abbrev":"HI"},
"geometry":{ "type": "Point", "coordinates": [-158.01948,21.536112]}},
{ "type": "Feature", "properties": {"Name":"Hickam Housing CDP","State":"Hawaii","State_Abbrev":"HI"},
"geometry":{ "type": "Point", "coordinates": [-157.954356,21.330961]}},
{ "type": "Feature", "properties": {"Name":"Hilo CDP","State":"Hawaii","State_Abbrev":"HI"},
"geometry":{ "type": "Point", "coordinates": [-155.082892,19.688748]}},
{ "type": "Feature", "properties": {"Name":"Holualoa CDP","State":"Hawaii","State_Abbrev":"HI"},
"geometry":{ "type": "Point", "coordinates": [-155.916947,19.669111]}},
{ "type": "Feature", "properties": {"Name":"Honalo CDP","State":"Hawaii","State_Abbrev":"HI"},
"geometry":{ "type": "Point", "coordinates": [-155.898443,19.581019]}},
{ "type": "Feature", "properties": {"Name":"Honaunau-Napoopoo CDP","State":"Hawaii","State_Abbrev":"HI"},
"geometry":{ "type": "Point", "coordinates": [-155.841489,19.472511]}},
{ "type": "Feature", "properties": {"Name":"Honokaa CDP","State":"Hawaii","State_Abbrev":"HI"},
"geometry":{ "type": "Point", "coordinates": [-155.464389,20.077575]}},
{ "type": "Feature", "properties": {"Name":"Honomu CDP","State":"Hawaii","State_Abbrev":"HI"},
"geometry":{ "type": "Point", "coordinates": [-155.10993,19.8701]}},
{ "type": "Feature", "properties": {"Name":"Iroquois Point CDP","State":"Hawaii","State_Abbrev":"HI"},
"geometry":{ "type": "Point", "coordinates": [-157.977429,21.320684]}},
{ "type": "Feature", "properties": {"Name":"Kaaawa CDP","State":"Hawaii","State_Abbrev":"HI"},
"geometry":{ "type": "Point", "coordinates": [-157.850481,21.543149]}},
{ "type": "Feature", "properties": {"Name":"Kaanapali CDP","State":"Hawaii","State_Abbrev":"HI"},
"geometry":{ "type": "Point", "coordinates": [-156.686446,20.930468]}},
{ "type": "Feature", "properties": {"Name":"Kahaluu CDP","State":"Hawaii","State_Abbrev":"HI"},
"geometry":{ "type": "Point", "coordinates": [-157.842138,21.456363]}},
{ "type": "Feature", "properties": {"Name":"Kahaluu-Keauhou CDP","State":"Hawaii","State_Abbrev":"HI"},
"geometry":{ "type": "Point", "coordinates": [-155.957277,19.573081]}},
{ "type": "Feature", "properties": {"Name":"Kahuku CDP","State":"Hawaii","State_Abbrev":"HI"},
"geometry":{ "type": "Point", "coordinates": [-157.941783,21.680679]}},
{ "type": "Feature", "properties": {"Name":"Kahului CDP","State":"Hawaii","State_Abbrev":"HI"},
"geometry":{ "type": "Point", "coordinates": [-156.465616,20.868471]}},
{ "type": "Feature", "properties": {"Name":"Kailua CDP","State":"Hawaii","State_Abbrev":"HI"},
"geometry":{ "type": "Point", "coordinates": [-155.997749,19.645581]}},
{ "type": "Feature", "properties": {"Name":"Kailua CDP","State":"Hawaii","State_Abbrev":"HI"},
"geometry":{ "type": "Point", "coordinates": [-157.735799,21.396783]}},
{ "type": "Feature", "properties": {"Name":"Kaiminani CDP","State":"Hawaii","State_Abbrev":"HI"},
"geometry":{ "type": "Point", "coordinates": [-156.001765,19.757709]}},
{ "type": "Feature", "properties": {"Name":"Kalaeloa CDP","State":"Hawaii","State_Abbrev":"HI"},
"geometry":{ "type": "Point", "coordinates": [-158.06503,21.313508]}},
{ "type": "Feature", "properties": {"Name":"Kalaheo CDP","State":"Hawaii","State_Abbrev":"HI"},
"geometry":{ "type": "Point", "coordinates": [-159.518733,21.918559]}},
{ "type": "Feature", "properties": {"Name":"Kalapana CDP","State":"Hawaii","State_Abbrev":"HI"},
"geometry":{ "type": "Point", "coordinates": [-154.975187,19.356559]}},
{ "type": "Feature", "properties": {"Name":"Kalihiwai CDP","State":"Hawaii","State_Abbrev":"HI"},
"geometry":{ "type": "Point", "coordinates": [-159.449166,22.217611]}},
{ "type": "Feature", "properties": {"Name":"Kaloko CDP","State":"Hawaii","State_Abbrev":"HI"},
"geometry":{ "type": "Point", "coordinates": [-155.953737,19.72839]}},
{ "type": "Feature", "properties": {"Name":"Kamaili CDP","State":"Hawaii","State_Abbrev":"HI"},
"geometry":{ "type": "Point", "coordinates": [-154.918848,19.439113]}},
{ "type": "Feature", "properties": {"Name":"Kaneohe CDP","State":"Hawaii","State_Abbrev":"HI"},
"geometry":{ "type": "Point", "coordinates": [-157.789648,21.409332]}},
{ "type": "Feature", "properties": {"Name":"Kaneohe Base CDP","State":"Hawaii","State_Abbrev":"HI"},
"geometry":{ "type": "Point", "coordinates": [-157.751436,21.445447]}},
{ "type": "Feature", "properties": {"Name":"Kapaa CDP","State":"Hawaii","State_Abbrev":"HI"},
"geometry":{ "type": "Point", "coordinates": [-159.35192,22.088223]}},
{ "type": "Feature", "properties": {"Name":"Kapaau CDP","State":"Hawaii","State_Abbrev":"HI"},
"geometry":{ "type": "Point", "coordinates": [-155.801653,20.234597]}},
{ "type": "Feature", "properties": {"Name":"Kapalua CDP","State":"Hawaii","State_Abbrev":"HI"},
"geometry":{ "type": "Point", "coordinates": [-156.643066,20.994055]}},
{ "type": "Feature", "properties": {"Name":"Kapolei CDP","State":"Hawaii","State_Abbrev":"HI"},
"geometry":{ "type": "Point", "coordinates": [-158.067827,21.339925]}},
{ "type": "Feature", "properties": {"Name":"Kaumakani CDP","State":"Hawaii","State_Abbrev":"HI"},
"geometry":{ "type": "Point", "coordinates": [-159.627269,21.917765]}},
{ "type": "Feature", "properties": {"Name":"Kaunakakai CDP","State":"Hawaii","State_Abbrev":"HI"},
"geometry":{ "type": "Point", "coordinates": [-157.000949,21.094154]}},
{ "type": "Feature", "properties": {"Name":"Kawela Bay CDP","State":"Hawaii","State_Abbrev":"HI"},
"geometry":{ "type": "Point", "coordinates": [-157.998901,21.698983]}},
{ "type": "Feature", "properties": {"Name":"Keaau CDP","State":"Hawaii","State_Abbrev":"HI"},
"geometry":{ "type": "Point", "coordinates": [-155.048269,19.623304]}},
{ "type": "Feature", "properties": {"Name":"Kealakekua CDP","State":"Hawaii","State_Abbrev":"HI"},
"geometry":{ "type": "Point", "coordinates": [-155.911108,19.528665]}},
{ "type": "Feature", "properties": {"Name":"Kekaha CDP","State":"Hawaii","State_Abbrev":"HI"},
"geometry":{ "type": "Point", "coordinates": [-159.71447,21.96753]}},
{ "type": "Feature", "properties": {"Name":"Keokea CDP","State":"Hawaii","State_Abbrev":"HI"},
"geometry":{ "type": "Point", "coordinates": [-156.362444,20.721034]}},
{ "type": "Feature", "properties": {"Name":"Kihei CDP","State":"Hawaii","State_Abbrev":"HI"},
"geometry":{ "type": "Point", "coordinates": [-156.435214,20.766087]}},
{ "type": "Feature", "properties": {"Name":"Kilauea CDP","State":"Hawaii","State_Abbrev":"HI"},
"geometry":{ "type": "Point", "coordinates": [-159.398662,22.212025]}},
{ "type": "Feature", "properties": {"Name":"Koloa CDP","State":"Hawaii","State_Abbrev":"HI"},
"geometry":{ "type": "Point", "coordinates": [-159.461067,21.902971]}},
{ "type": "Feature", "properties": {"Name":"Ko Olina CDP","State":"Hawaii","State_Abbrev":"HI"},
"geometry":{ "type": "Point", "coordinates": [-158.118618,21.337773]}},
{ "type": "Feature", "properties": {"Name":"Kualapuu CDP","State":"Hawaii","State_Abbrev":"HI"},
"geometry":{ "type": "Point", "coordinates": [-157.064244,21.155039]}},
{ "type": "Feature", "properties": {"Name":"Kukuihaele CDP","State":"Hawaii","State_Abbrev":"HI"},
"geometry":{ "type": "Point", "coordinates": [-155.562518,20.121326]}},
{ "type": "Feature", "properties": {"Name":"Kula CDP","State":"Hawaii","State_Abbrev":"HI"},
"geometry":{ "type": "Point", "coordinates": [-156.334541,20.76806]}},
{ "type": "Feature", "properties": {"Name":"Kurtistown CDP","State":"Hawaii","State_Abbrev":"HI"},
"geometry":{ "type": "Point", "coordinates": [-155.071278,19.586013]}},
{ "type": "Feature", "properties": {"Name":"Lahaina CDP","State":"Hawaii","State_Abbrev":"HI"},
"geometry":{ "type": "Point", "coordinates": [-156.666195,20.886048]}},
{ "type": "Feature", "properties": {"Name":"Laie CDP","State":"Hawaii","State_Abbrev":"HI"},
"geometry":{ "type": "Point", "coordinates": [-157.922855,21.645545]}},
{ "type": "Feature", "properties": {"Name":"Lanai City CDP","State":"Hawaii","State_Abbrev":"HI"},
"geometry":{ "type": "Point", "coordinates": [-156.914703,20.827932]}},
{ "type": "Feature", "properties": {"Name":"Launiupoko CDP","State":"Hawaii","State_Abbrev":"HI"},
"geometry":{ "type": "Point", "coordinates": [-156.64249,20.854352]}},
{ "type": "Feature", "properties": {"Name":"Laupahoehoe CDP","State":"Hawaii","State_Abbrev":"HI"},
"geometry":{ "type": "Point", "coordinates": [-155.236144,19.969944]}},
{ "type": "Feature", "properties": {"Name":"Lawai CDP","State":"Hawaii","State_Abbrev":"HI"},
"geometry":{ "type": "Point", "coordinates": [-159.500957,21.920117]}},
{ "type": "Feature", "properties": {"Name":"Leilani Estates CDP","State":"Hawaii","State_Abbrev":"HI"},
"geometry":{ "type": "Point", "coordinates": [-154.915744,19.465847]}},
{ "type": "Feature", "properties": {"Name":"Lihue CDP","State":"Hawaii","State_Abbrev":"HI"},
"geometry":{ "type": "Point", "coordinates": [-159.355807,21.972582]}},
{ "type": "Feature", "properties": {"Name":"Maalaea CDP","State":"Hawaii","State_Abbrev":"HI"},
"geometry":{ "type": "Point", "coordinates": [-156.488659,20.802244]}},
{ "type": "Feature", "properties": {"Name":"Mahinahina CDP","State":"Hawaii","State_Abbrev":"HI"},
"geometry":{ "type": "Point", "coordinates": [-156.657273,20.954634]}},
{ "type": "Feature", "properties": {"Name":"Maili CDP","State":"Hawaii","State_Abbrev":"HI"},
"geometry":{ "type": "Point", "coordinates": [-158.174832,21.41439]}},
{ "type": "Feature", "properties": {"Name":"Makaha CDP","State":"Hawaii","State_Abbrev":"HI"},
"geometry":{ "type": "Point", "coordinates": [-158.216389,21.467675]}},
{ "type": "Feature", "properties": {"Name":"Makaha Valley CDP","State":"Hawaii","State_Abbrev":"HI"},
"geometry":{ "type": "Point", "coordinates": [-158.184282,21.484373]}},
{ "type": "Feature", "properties": {"Name":"Makakilo CDP","State":"Hawaii","State_Abbrev":"HI"},
"geometry":{ "type": "Point", "coordinates": [-158.08121,21.359017]}},
{ "type": "Feature", "properties": {"Name":"Makawao CDP","State":"Hawaii","State_Abbrev":"HI"},
"geometry":{ "type": "Point", "coordinates": [-156.319028,20.848045]}},
{ "type": "Feature", "properties": {"Name":"Makena CDP","State":"Hawaii","State_Abbrev":"HI"},
"geometry":{ "type": "Point", "coordinates": [-156.428622,20.624042]}},
{ "type": "Feature", "properties": {"Name":"Manele CDP","State":"Hawaii","State_Abbrev":"HI"},
"geometry":{ "type": "Point", "coordinates": [-156.901169,20.741975]}},
{ "type": "Feature", "properties": {"Name":"Maunaloa CDP","State":"Hawaii","State_Abbrev":"HI"},
"geometry":{ "type": "Point", "coordinates": [-157.212217,21.133383]}},
{ "type": "Feature", "properties": {"Name":"Mauna Loa Estates CDP","State":"Hawaii","State_Abbrev":"HI"},
"geometry":{ "type": "Point", "coordinates": [-155.221324,19.427425]}},
{ "type": "Feature", "properties": {"Name":"Maunawili CDP","State":"Hawaii","State_Abbrev":"HI"},
"geometry":{ "type": "Point", "coordinates": [-157.771315,21.366743]}},
{ "type": "Feature", "properties": {"Name":"Mililani Mauka CDP","State":"Hawaii","State_Abbrev":"HI"},
"geometry":{ "type": "Point", "coordinates": [-157.994831,21.475628]}},
{ "type": "Feature", "properties": {"Name":"Mililani Town CDP","State":"Hawaii","State_Abbrev":"HI"},
"geometry":{ "type": "Point", "coordinates": [-158.014644,21.446506]}},
{ "type": "Feature", "properties": {"Name":"Mokuleia CDP","State":"Hawaii","State_Abbrev":"HI"},
"geometry":{ "type": "Point", "coordinates": [-158.171765,21.579444]}},
{ "type": "Feature", "properties": {"Name":"Mountain View CDP","State":"Hawaii","State_Abbrev":"HI"},
"geometry":{ "type": "Point", "coordinates": [-155.187553,19.537213]}},
{ "type": "Feature", "properties": {"Name":"Naalehu CDP","State":"Hawaii","State_Abbrev":"HI"},
"geometry":{ "type": "Point", "coordinates": [-155.575126,19.069816]}},
{ "type": "Feature", "properties": {"Name":"Nanakuli CDP","State":"Hawaii","State_Abbrev":"HI"},
"geometry":{ "type": "Point", "coordinates": [-158.154974,21.389848]}},
{ "type": "Feature", "properties": {"Name":"Nanawale Estates CDP","State":"Hawaii","State_Abbrev":"HI"},
"geometry":{ "type": "Point", "coordinates": [-154.910397,19.50356]}},
{ "type": "Feature", "properties": {"Name":"Napili-Honokowai CDP","State":"Hawaii","State_Abbrev":"HI"},
"geometry":{ "type": "Point", "coordinates": [-156.665051,20.973291]}},
{ "type": "Feature", "properties": {"Name":"Ocean Pointe CDP","State":"Hawaii","State_Abbrev":"HI"},
"geometry":{ "type": "Point", "coordinates": [-158.027164,21.313534]}},
{ "type": "Feature", "properties": {"Name":"Olinda CDP","State":"Hawaii","State_Abbrev":"HI"},
"geometry":{ "type": "Point", "coordinates": [-156.291643,20.827816]}},
{ "type": "Feature", "properties": {"Name":"Olowalu CDP","State":"Hawaii","State_Abbrev":"HI"},
"geometry":{ "type": "Point", "coordinates": [-156.619455,20.827688]}},
{ "type": "Feature", "properties": {"Name":"Omao CDP","State":"Hawaii","State_Abbrev":"HI"},
"geometry":{ "type": "Point", "coordinates": [-159.485732,21.936577]}},
{ "type": "Feature", "properties": {"Name":"Orchidlands Estates CDP","State":"Hawaii","State_Abbrev":"HI"},
"geometry":{ "type": "Point", "coordinates": [-155.014238,19.557001]}},
{ "type": "Feature", "properties": {"Name":"Paauilo CDP","State":"Hawaii","State_Abbrev":"HI"},
"geometry":{ "type": "Point", "coordinates": [-155.373591,20.034862]}},
{ "type": "Feature", "properties": {"Name":"Pahala CDP","State":"Hawaii","State_Abbrev":"HI"},
"geometry":{ "type": "Point", "coordinates": [-155.477279,19.19919]}},
{ "type": "Feature", "properties": {"Name":"Pahoa CDP","State":"Hawaii","State_Abbrev":"HI"},
"geometry":{ "type": "Point", "coordinates": [-154.94535,19.495967]}},
{ "type": "Feature", "properties": {"Name":"Paia CDP","State":"Hawaii","State_Abbrev":"HI"},
"geometry":{ "type": "Point", "coordinates": [-156.36929,20.909349]}},
{ "type": "Feature", "properties": {"Name":"Pakala Village CDP","State":"Hawaii","State_Abbrev":"HI"},
"geometry":{ "type": "Point", "coordinates": [-159.639136,21.950992]}},
{ "type": "Feature", "properties": {"Name":"Papaikou CDP","State":"Hawaii","State_Abbrev":"HI"},
"geometry":{ "type": "Point", "coordinates": [-155.092238,19.792335]}},
{ "type": "Feature", "properties": {"Name":"Paukaa CDP","State":"Hawaii","State_Abbrev":"HI"},
"geometry":{ "type": "Point", "coordinates": [-155.091915,19.764395]}},
{ "type": "Feature", "properties": {"Name":"Pearl City CDP","State":"Hawaii","State_Abbrev":"HI"},
"geometry":{ "type": "Point", "coordinates": [-157.956907,21.402609]}},
{ "type": "Feature", "properties": {"Name":"Pepeekeo CDP","State":"Hawaii","State_Abbrev":"HI"},
"geometry":{ "type": "Point", "coordinates": [-155.105635,19.83251]}},
{ "type": "Feature", "properties": {"Name":"Poipu CDP","State":"Hawaii","State_Abbrev":"HI"},
"geometry":{ "type": "Point", "coordinates": [-159.457168,21.886047]}},
{ "type": "Feature", "properties": {"Name":"Princeville CDP","State":"Hawaii","State_Abbrev":"HI"},
"geometry":{ "type": "Point", "coordinates": [-159.481445,22.219681]}},
{ "type": "Feature", "properties": {"Name":"Puako CDP","State":"Hawaii","State_Abbrev":"HI"},
"geometry":{ "type": "Point", "coordinates": [-155.849108,19.959125]}},
{ "type": "Feature", "properties": {"Name":"Puhi CDP","State":"Hawaii","State_Abbrev":"HI"},
"geometry":{ "type": "Point", "coordinates": [-159.391724,21.961582]}},
{ "type": "Feature", "properties": {"Name":"Pukalani CDP","State":"Hawaii","State_Abbrev":"HI"},
"geometry":{ "type": "Point", "coordinates": [-156.341509,20.832913]}},
{ "type": "Feature", "properties": {"Name":"Punaluu CDP","State":"Hawaii","State_Abbrev":"HI"},
"geometry":{ "type": "Point", "coordinates": [-157.889566,21.581885]}},
{ "type": "Feature", "properties": {"Name":"Pupukea CDP","State":"Hawaii","State_Abbrev":"HI"},
"geometry":{ "type": "Point", "coordinates": [-158.057876,21.652193]}},
{ "type": "Feature", "properties": {"Name":"Royal Hawaiian Estates CDP","State":"Hawaii","State_Abbrev":"HI"},
"geometry":{ "type": "Point", "coordinates": [-155.184028,19.441223]}},
{ "type": "Feature", "properties": {"Name":"Royal Kunia CDP","State":"Hawaii","State_Abbrev":"HI"},
"geometry":{ "type": "Point", "coordinates": [-158.031811,21.40528]}},
{ "type": "Feature", "properties": {"Name":"Schofield Barracks CDP","State":"Hawaii","State_Abbrev":"HI"},
"geometry":{ "type": "Point", "coordinates": [-158.062209,21.492782]}},
{ "type": "Feature", "properties": {"Name":"Seaview CDP","State":"Hawaii","State_Abbrev":"HI"},
"geometry":{ "type": "Point", "coordinates": [-154.921448,19.406718]}},
{ "type": "Feature", "properties": {"Name":"Tiki Gardens CDP","State":"Hawaii","State_Abbrev":"HI"},
"geometry":{ "type": "Point", "coordinates": [-155.003087,19.528699]}},
{ "type": "Feature", "properties": {"Name":"Ualapue CDP","State":"Hawaii","State_Abbrev":"HI"},
"geometry":{ "type": "Point", "coordinates": [-156.834987,21.071883]}},
{ "type": "Feature", "properties": {"Name":"Urban Honolulu CDP","State":"Hawaii","State_Abbrev":"HI"},
"geometry":{ "type": "Point", "coordinates": [-157.84764,21.324347]}},
{ "type": "Feature", "properties": {"Name":"Volcano CDP","State":"Hawaii","State_Abbrev":"HI"},
"geometry":{ "type": "Point", "coordinates": [-155.277414,19.486411]}},
{ "type": "Feature", "properties": {"Name":"Volcano Golf Course CDP","State":"Hawaii","State_Abbrev":"HI"},
"geometry":{ "type": "Point", "coordinates": [-155.278833,19.442375]}},
{ "type": "Feature", "properties": {"Name":"Wahiawa CDP","State":"Hawaii","State_Abbrev":"HI"},
"geometry":{ "type": "Point", "coordinates": [-158.017964,21.500665]}},
{ "type": "Feature", "properties": {"Name":"Waiahole-Waikane CDP","State":"Hawaii","State_Abbrev":"HI"},
"geometry":{ "type": "Point", "coordinates": [-157.865965,21.489778]}},
{ "type": "Feature", "properties": {"Name":"Waialua CDP","State":"Hawaii","State_Abbrev":"HI"},
"geometry":{ "type": "Point", "coordinates": [-158.120525,21.567445]}},
{ "type": "Feature", "properties": {"Name":"Waianae CDP","State":"Hawaii","State_Abbrev":"HI"},
"geometry":{ "type": "Point", "coordinates": [-158.182043,21.451816]}},
{ "type": "Feature", "properties": {"Name":"Waihee-Waiehu CDP","State":"Hawaii","State_Abbrev":"HI"},
"geometry":{ "type": "Point", "coordinates": [-156.507565,20.923932]}},
{ "type": "Feature", "properties": {"Name":"Waikapu CDP","State":"Hawaii","State_Abbrev":"HI"},
"geometry":{ "type": "Point", "coordinates": [-156.530599,20.836653]}},
{ "type": "Feature", "properties": {"Name":"Waikele CDP","State":"Hawaii","State_Abbrev":"HI"},
"geometry":{ "type": "Point", "coordinates": [-158.005832,21.402554]}},
{ "type": "Feature", "properties": {"Name":"Waikoloa Beach Resort CDP","State":"Hawaii","State_Abbrev":"HI"},
"geometry":{ "type": "Point", "coordinates": [-155.877908,19.930563]}},
{ "type": "Feature", "properties": {"Name":"Waikoloa Village CDP","State":"Hawaii","State_Abbrev":"HI"},
"geometry":{ "type": "Point", "coordinates": [-155.805271,19.944249]}},
{ "type": "Feature", "properties": {"Name":"Wailea CDP","State":"Hawaii","State_Abbrev":"HI"},
"geometry":{ "type": "Point", "coordinates": [-156.435323,20.682352]}},
{ "type": "Feature", "properties": {"Name":"Wailua CDP","State":"Hawaii","State_Abbrev":"HI"},
"geometry":{ "type": "Point", "coordinates": [-159.337211,22.054476]}},
{ "type": "Feature", "properties": {"Name":"Wailua Homesteads CDP","State":"Hawaii","State_Abbrev":"HI"},
"geometry":{ "type": "Point", "coordinates": [-159.381401,22.069165]}},
{ "type": "Feature", "properties": {"Name":"Wailuku CDP","State":"Hawaii","State_Abbrev":"HI"},
"geometry":{ "type": "Point", "coordinates": [-156.503627,20.885467]}},
{ "type": "Feature", "properties": {"Name":"Waimalu CDP","State":"Hawaii","State_Abbrev":"HI"},
"geometry":{ "type": "Point", "coordinates": [-157.933401,21.391216]}},
{ "type": "Feature", "properties": {"Name":"Waimanalo CDP","State":"Hawaii","State_Abbrev":"HI"},
"geometry":{ "type": "Point", "coordinates": [-157.730238,21.34207]}},
{ "type": "Feature", "properties": {"Name":"Waimanalo Beach CDP","State":"Hawaii","State_Abbrev":"HI"},
"geometry":{ "type": "Point", "coordinates": [-157.693974,21.329934]}},
{ "type": "Feature", "properties": {"Name":"Waimea CDP","State":"Hawaii","State_Abbrev":"HI"},
"geometry":{ "type": "Point", "coordinates": [-155.625491,20.010327]}},
{ "type": "Feature", "properties": {"Name":"Waimea CDP","State":"Hawaii","State_Abbrev":"HI"},
"geometry":{ "type": "Point", "coordinates": [-159.669388,21.966496]}},
{ "type": "Feature", "properties": {"Name":"Wainaku CDP","State":"Hawaii","State_Abbrev":"HI"},
"geometry":{ "type": "Point", "coordinates": [-155.099811,19.743805]}},
{ "type": "Feature", "properties": {"Name":"Wainiha CDP","State":"Hawaii","State_Abbrev":"HI"},
"geometry":{ "type": "Point", "coordinates": [-159.546746,22.192139]}},
{ "type": "Feature", "properties": {"Name":"Waiohinu CDP","State":"Hawaii","State_Abbrev":"HI"},
"geometry":{ "type": "Point", "coordinates": [-155.614436,19.071363]}},
{ "type": "Feature", "properties": {"Name":"Waipahu CDP","State":"Hawaii","State_Abbrev":"HI"},
"geometry":{ "type": "Point", "coordinates": [-158.010993,21.384938]}},
{ "type": "Feature", "properties": {"Name":"Waipio CDP","State":"Hawaii","State_Abbrev":"HI"},
"geometry":{ "type": "Point", "coordinates": [-157.996583,21.414393]}},
{ "type": "Feature", "properties": {"Name":"Waipio Acres CDP","State":"Hawaii","State_Abbrev":"HI"},
"geometry":{ "type": "Point", "coordinates": [-158.017284,21.46877]}},
{ "type": "Feature", "properties": {"Name":"West Loch Estate CDP","State":"Hawaii","State_Abbrev":"HI"},
"geometry":{ "type": "Point", "coordinates": [-158.024527,21.361264]}},
{ "type": "Feature", "properties": {"Name":"Wheeler AFB CDP","State":"Hawaii","State_Abbrev":"HI"},
"geometry":{ "type": "Point", "coordinates": [-158.035174,21.475545]}},
{ "type": "Feature", "properties": {"Name":"Whitmore Village CDP","State":"Hawaii","State_Abbrev":"HI"},
"geometry":{ "type": "Point", "coordinates": [-158.029127,21.512573]}}]}
