{"type":"FeatureCollection","features":[
{ "type": "Feature", "properties": {"Name":"Aberdeen city","State":"Idaho","State_Abbrev":"ID"},
"geometry":{ "type": "Point", "coordinates": [-112.838381,42.944098]}},
{ "type": "Feature", "properties": {"Name":"Acequia city","State":"Idaho","State_Abbrev":"ID"},
"geometry":{ "type": "Point", "coordinates": [-113.597281,42.668343]}},
{ "type": "Feature", "properties": {"Name":"Albion city","State":"Idaho","State_Abbrev":"ID"},
"geometry":{ "type": "Point", "coordinates": [-113.580438,42.409808]}},
{ "type": "Feature", "properties": {"Name":"American Falls city","State":"Idaho","State_Abbrev":"ID"},
"geometry":{ "type": "Point", "coordinates": [-112.854211,42.782846]}},
{ "type": "Feature", "properties": {"Name":"Ammon city","State":"Idaho","State_Abbrev":"ID"},
"geometry":{ "type": "Point", "coordinates": [-111.959631,43.474999]}},
{ "type": "Feature", "properties": {"Name":"Arbon Valley CDP","State":"Idaho","State_Abbrev":"ID"},
"geometry":{ "type": "Point", "coordinates": [-112.589386,42.88763]}},
{ "type": "Feature", "properties": {"Name":"Arco city","State":"Idaho","State_Abbrev":"ID"},
"geometry":{ "type": "Point", "coordinates": [-113.301033,43.631893]}},
{ "type": "Feature", "properties": {"Name":"Arimo city","State":"Idaho","State_Abbrev":"ID"},
"geometry":{ "type": "Point", "coordinates": [-112.172922,42.560395]}},
{ "type": "Feature", "properties": {"Name":"Ashton city","State":"Idaho","State_Abbrev":"ID"},
"geometry":{ "type": "Point", "coordinates": [-111.448311,44.073332]}},
{ "type": "Feature", "properties": {"Name":"Athol city","State":"Idaho","State_Abbrev":"ID"},
"geometry":{ "type": "Point", "coordinates": [-116.707757,47.947042]}},
{ "type": "Feature", "properties": {"Name":"Atomic City city","State":"Idaho","State_Abbrev":"ID"},
"geometry":{ "type": "Point", "coordinates": [-112.812428,43.443135]}},
{ "type": "Feature", "properties": {"Name":"Avimor CDP","State":"Idaho","State_Abbrev":"ID"},
"geometry":{ "type": "Point", "coordinates": [-116.257108,43.776181]}},
{ "type": "Feature", "properties": {"Name":"Bancroft city","State":"Idaho","State_Abbrev":"ID"},
"geometry":{ "type": "Point", "coordinates": [-111.88301,42.720241]}},
{ "type": "Feature", "properties": {"Name":"Banks CDP","State":"Idaho","State_Abbrev":"ID"},
"geometry":{ "type": "Point", "coordinates": [-116.131684,44.072248]}},
{ "type": "Feature", "properties": {"Name":"Basalt city","State":"Idaho","State_Abbrev":"ID"},
"geometry":{ "type": "Point", "coordinates": [-112.165044,43.314443]}},
{ "type": "Feature", "properties": {"Name":"Bellevue city","State":"Idaho","State_Abbrev":"ID"},
"geometry":{ "type": "Point", "coordinates": [-114.254955,43.467894]}},
{ "type": "Feature", "properties": {"Name":"Bennington CDP","State":"Idaho","State_Abbrev":"ID"},
"geometry":{ "type": "Point", "coordinates": [-111.32098,42.382259]}},
{ "type": "Feature", "properties": {"Name":"Blackfoot city","State":"Idaho","State_Abbrev":"ID"},
"geometry":{ "type": "Point", "coordinates": [-112.34469,43.194228]}},
{ "type": "Feature", "properties": {"Name":"Blanchard CDP","State":"Idaho","State_Abbrev":"ID"},
"geometry":{ "type": "Point", "coordinates": [-116.996503,48.0137]}},
{ "type": "Feature", "properties": {"Name":"Bliss city","State":"Idaho","State_Abbrev":"ID"},
"geometry":{ "type": "Point", "coordinates": [-114.947516,42.924284]}},
{ "type": "Feature", "properties": {"Name":"Bloomington city","State":"Idaho","State_Abbrev":"ID"},
"geometry":{ "type": "Point", "coordinates": [-111.402756,42.19099]}},
{ "type": "Feature", "properties": {"Name":"Boise City city","State":"Idaho","State_Abbrev":"ID"},
"geometry":{ "type": "Point", "coordinates": [-116.2298,43.600233]}},
{ "type": "Feature", "properties": {"Name":"Bonners Ferry city","State":"Idaho","State_Abbrev":"ID"},
"geometry":{ "type": "Point", "coordinates": [-116.317019,48.693579]}},
{ "type": "Feature", "properties": {"Name":"Bovill city","State":"Idaho","State_Abbrev":"ID"},
"geometry":{ "type": "Point", "coordinates": [-116.393551,46.858679]}},
{ "type": "Feature", "properties": {"Name":"Bruneau CDP","State":"Idaho","State_Abbrev":"ID"},
"geometry":{ "type": "Point", "coordinates": [-115.795239,42.872792]}},
{ "type": "Feature", "properties": {"Name":"Buhl city","State":"Idaho","State_Abbrev":"ID"},
"geometry":{ "type": "Point", "coordinates": [-114.759536,42.598362]}},
{ "type": "Feature", "properties": {"Name":"Burley city","State":"Idaho","State_Abbrev":"ID"},
"geometry":{ "type": "Point", "coordinates": [-113.791288,42.537439]}},
{ "type": "Feature", "properties": {"Name":"Butte City city","State":"Idaho","State_Abbrev":"ID"},
"geometry":{ "type": "Point", "coordinates": [-113.240739,43.606988]}},
{ "type": "Feature", "properties": {"Name":"Caldwell city","State":"Idaho","State_Abbrev":"ID"},
"geometry":{ "type": "Point", "coordinates": [-116.659336,43.64588]}},
{ "type": "Feature", "properties": {"Name":"Cambridge city","State":"Idaho","State_Abbrev":"ID"},
"geometry":{ "type": "Point", "coordinates": [-116.678101,44.571748]}},
{ "type": "Feature", "properties": {"Name":"Carey city","State":"Idaho","State_Abbrev":"ID"},
"geometry":{ "type": "Point", "coordinates": [-113.941008,43.312011]}},
{ "type": "Feature", "properties": {"Name":"Cascade city","State":"Idaho","State_Abbrev":"ID"},
"geometry":{ "type": "Point", "coordinates": [-116.043627,44.508761]}},
{ "type": "Feature", "properties": {"Name":"Castleford city","State":"Idaho","State_Abbrev":"ID"},
"geometry":{ "type": "Point", "coordinates": [-114.871806,42.520569]}},
{ "type": "Feature", "properties": {"Name":"Challis city","State":"Idaho","State_Abbrev":"ID"},
"geometry":{ "type": "Point", "coordinates": [-114.228184,44.505779]}},
{ "type": "Feature", "properties": {"Name":"Chubbuck city","State":"Idaho","State_Abbrev":"ID"},
"geometry":{ "type": "Point", "coordinates": [-112.462537,42.926182]}},
{ "type": "Feature", "properties": {"Name":"Clark Fork city","State":"Idaho","State_Abbrev":"ID"},
"geometry":{ "type": "Point", "coordinates": [-116.172988,48.148019]}},
{ "type": "Feature", "properties": {"Name":"Clayton city","State":"Idaho","State_Abbrev":"ID"},
"geometry":{ "type": "Point", "coordinates": [-114.383108,44.259202]}},
{ "type": "Feature", "properties": {"Name":"Clifton city","State":"Idaho","State_Abbrev":"ID"},
"geometry":{ "type": "Point", "coordinates": [-112.004596,42.187286]}},
{ "type": "Feature", "properties": {"Name":"Coeur d'Alene city","State":"Idaho","State_Abbrev":"ID"},
"geometry":{ "type": "Point", "coordinates": [-116.793861,47.703498]}},
{ "type": "Feature", "properties": {"Name":"Conkling Park CDP","State":"Idaho","State_Abbrev":"ID"},
"geometry":{ "type": "Point", "coordinates": [-116.770309,47.399815]}},
{ "type": "Feature", "properties": {"Name":"Coolin CDP","State":"Idaho","State_Abbrev":"ID"},
"geometry":{ "type": "Point", "coordinates": [-116.843985,48.476019]}},
{ "type": "Feature", "properties": {"Name":"Cottonwood city","State":"Idaho","State_Abbrev":"ID"},
"geometry":{ "type": "Point", "coordinates": [-116.349751,46.051045]}},
{ "type": "Feature", "properties": {"Name":"Council city","State":"Idaho","State_Abbrev":"ID"},
"geometry":{ "type": "Point", "coordinates": [-116.436837,44.733195]}},
{ "type": "Feature", "properties": {"Name":"Craigmont city","State":"Idaho","State_Abbrev":"ID"},
"geometry":{ "type": "Point", "coordinates": [-116.471344,46.24174]}},
{ "type": "Feature", "properties": {"Name":"Crouch city","State":"Idaho","State_Abbrev":"ID"},
"geometry":{ "type": "Point", "coordinates": [-115.975813,44.115362]}},
{ "type": "Feature", "properties": {"Name":"Culdesac city","State":"Idaho","State_Abbrev":"ID"},
"geometry":{ "type": "Point", "coordinates": [-116.670097,46.374896]}},
{ "type": "Feature", "properties": {"Name":"Dalton Gardens city","State":"Idaho","State_Abbrev":"ID"},
"geometry":{ "type": "Point", "coordinates": [-116.767873,47.733412]}},
{ "type": "Feature", "properties": {"Name":"Dayton city","State":"Idaho","State_Abbrev":"ID"},
"geometry":{ "type": "Point", "coordinates": [-111.984615,42.111246]}},
{ "type": "Feature", "properties": {"Name":"Deary city","State":"Idaho","State_Abbrev":"ID"},
"geometry":{ "type": "Point", "coordinates": [-116.557368,46.800586]}},
{ "type": "Feature", "properties": {"Name":"Declo city","State":"Idaho","State_Abbrev":"ID"},
"geometry":{ "type": "Point", "coordinates": [-113.628732,42.519599]}},
{ "type": "Feature", "properties": {"Name":"De Smet CDP","State":"Idaho","State_Abbrev":"ID"},
"geometry":{ "type": "Point", "coordinates": [-116.911366,47.14102]}},
{ "type": "Feature", "properties": {"Name":"Dietrich city","State":"Idaho","State_Abbrev":"ID"},
"geometry":{ "type": "Point", "coordinates": [-114.266289,42.912796]}},
{ "type": "Feature", "properties": {"Name":"Donnelly city","State":"Idaho","State_Abbrev":"ID"},
"geometry":{ "type": "Point", "coordinates": [-116.086842,44.733372]}},
{ "type": "Feature", "properties": {"Name":"Dover city","State":"Idaho","State_Abbrev":"ID"},
"geometry":{ "type": "Point", "coordinates": [-116.609843,48.259156]}},
{ "type": "Feature", "properties": {"Name":"Downey city","State":"Idaho","State_Abbrev":"ID"},
"geometry":{ "type": "Point", "coordinates": [-112.123339,42.428852]}},
{ "type": "Feature", "properties": {"Name":"Driggs city","State":"Idaho","State_Abbrev":"ID"},
"geometry":{ "type": "Point", "coordinates": [-111.104059,43.73025]}},
{ "type": "Feature", "properties": {"Name":"Drummond city","State":"Idaho","State_Abbrev":"ID"},
"geometry":{ "type": "Point", "coordinates": [-111.343358,43.99959]}},
{ "type": "Feature", "properties": {"Name":"Dubois city","State":"Idaho","State_Abbrev":"ID"},
"geometry":{ "type": "Point", "coordinates": [-112.228278,44.171161]}},
{ "type": "Feature", "properties": {"Name":"Eagle city","State":"Idaho","State_Abbrev":"ID"},
"geometry":{ "type": "Point", "coordinates": [-116.345989,43.693423]}},
{ "type": "Feature", "properties": {"Name":"East Hope city","State":"Idaho","State_Abbrev":"ID"},
"geometry":{ "type": "Point", "coordinates": [-116.28941,48.240895]}},
{ "type": "Feature", "properties": {"Name":"Eden city","State":"Idaho","State_Abbrev":"ID"},
"geometry":{ "type": "Point", "coordinates": [-114.209087,42.605309]}},
{ "type": "Feature", "properties": {"Name":"Elk City CDP","State":"Idaho","State_Abbrev":"ID"},
"geometry":{ "type": "Point", "coordinates": [-115.441146,45.820903]}},
{ "type": "Feature", "properties": {"Name":"Elk River city","State":"Idaho","State_Abbrev":"ID"},
"geometry":{ "type": "Point", "coordinates": [-116.181105,46.783006]}},
{ "type": "Feature", "properties": {"Name":"Emmett city","State":"Idaho","State_Abbrev":"ID"},
"geometry":{ "type": "Point", "coordinates": [-116.491336,43.869228]}},
{ "type": "Feature", "properties": {"Name":"Fairfield city","State":"Idaho","State_Abbrev":"ID"},
"geometry":{ "type": "Point", "coordinates": [-114.800826,43.348045]}},
{ "type": "Feature", "properties": {"Name":"Ferdinand city","State":"Idaho","State_Abbrev":"ID"},
"geometry":{ "type": "Point", "coordinates": [-116.390008,46.151915]}},
{ "type": "Feature", "properties": {"Name":"Fernan Lake Village city","State":"Idaho","State_Abbrev":"ID"},
"geometry":{ "type": "Point", "coordinates": [-116.747555,47.672291]}},
{ "type": "Feature", "properties": {"Name":"Fernwood CDP","State":"Idaho","State_Abbrev":"ID"},
"geometry":{ "type": "Point", "coordinates": [-116.386484,47.115099]}},
{ "type": "Feature", "properties": {"Name":"Filer city","State":"Idaho","State_Abbrev":"ID"},
"geometry":{ "type": "Point", "coordinates": [-114.611539,42.56801]}},
{ "type": "Feature", "properties": {"Name":"Firth city","State":"Idaho","State_Abbrev":"ID"},
"geometry":{ "type": "Point", "coordinates": [-112.183454,43.305788]}},
{ "type": "Feature", "properties": {"Name":"Fort Hall CDP","State":"Idaho","State_Abbrev":"ID"},
"geometry":{ "type": "Point", "coordinates": [-112.45787,43.014547]}},
{ "type": "Feature", "properties": {"Name":"Franklin city","State":"Idaho","State_Abbrev":"ID"},
"geometry":{ "type": "Point", "coordinates": [-111.802183,42.009503]}},
{ "type": "Feature", "properties": {"Name":"Fruitland city","State":"Idaho","State_Abbrev":"ID"},
"geometry":{ "type": "Point", "coordinates": [-116.921025,44.019123]}},
{ "type": "Feature", "properties": {"Name":"Gannett CDP","State":"Idaho","State_Abbrev":"ID"},
"geometry":{ "type": "Point", "coordinates": [-114.167689,43.352097]}},
{ "type": "Feature", "properties": {"Name":"Garden City city","State":"Idaho","State_Abbrev":"ID"},
"geometry":{ "type": "Point", "coordinates": [-116.294389,43.668297]}},
{ "type": "Feature", "properties": {"Name":"Garden Valley CDP","State":"Idaho","State_Abbrev":"ID"},
"geometry":{ "type": "Point", "coordinates": [-115.958464,44.083404]}},
{ "type": "Feature", "properties": {"Name":"Genesee city","State":"Idaho","State_Abbrev":"ID"},
"geometry":{ "type": "Point", "coordinates": [-116.928389,46.551608]}},
{ "type": "Feature", "properties": {"Name":"Georgetown city","State":"Idaho","State_Abbrev":"ID"},
"geometry":{ "type": "Point", "coordinates": [-111.363497,42.479083]}},
{ "type": "Feature", "properties": {"Name":"Glenns Ferry city","State":"Idaho","State_Abbrev":"ID"},
"geometry":{ "type": "Point", "coordinates": [-115.308185,42.949908]}},
{ "type": "Feature", "properties": {"Name":"Gooding city","State":"Idaho","State_Abbrev":"ID"},
"geometry":{ "type": "Point", "coordinates": [-114.713188,42.937048]}},
{ "type": "Feature", "properties": {"Name":"Grace city","State":"Idaho","State_Abbrev":"ID"},
"geometry":{ "type": "Point", "coordinates": [-111.729771,42.575182]}},
{ "type": "Feature", "properties": {"Name":"Grand View city","State":"Idaho","State_Abbrev":"ID"},
"geometry":{ "type": "Point", "coordinates": [-116.09368,42.985123]}},
{ "type": "Feature", "properties": {"Name":"Grangeville city","State":"Idaho","State_Abbrev":"ID"},
"geometry":{ "type": "Point", "coordinates": [-116.121916,45.925826]}},
{ "type": "Feature", "properties": {"Name":"Greenleaf city","State":"Idaho","State_Abbrev":"ID"},
"geometry":{ "type": "Point", "coordinates": [-116.821443,43.672607]}},
{ "type": "Feature", "properties": {"Name":"Groveland CDP","State":"Idaho","State_Abbrev":"ID"},
"geometry":{ "type": "Point", "coordinates": [-112.37547,43.223483]}},
{ "type": "Feature", "properties": {"Name":"Hagerman city","State":"Idaho","State_Abbrev":"ID"},
"geometry":{ "type": "Point", "coordinates": [-114.897681,42.816016]}},
{ "type": "Feature", "properties": {"Name":"Hailey city","State":"Idaho","State_Abbrev":"ID"},
"geometry":{ "type": "Point", "coordinates": [-114.299499,43.512674]}},
{ "type": "Feature", "properties": {"Name":"Hamer city","State":"Idaho","State_Abbrev":"ID"},
"geometry":{ "type": "Point", "coordinates": [-112.20622,43.92674]}},
{ "type": "Feature", "properties": {"Name":"Hammett CDP","State":"Idaho","State_Abbrev":"ID"},
"geometry":{ "type": "Point", "coordinates": [-115.465521,42.944114]}},
{ "type": "Feature", "properties": {"Name":"Hansen city","State":"Idaho","State_Abbrev":"ID"},
"geometry":{ "type": "Point", "coordinates": [-114.301177,42.531365]}},
{ "type": "Feature", "properties": {"Name":"Harrison city","State":"Idaho","State_Abbrev":"ID"},
"geometry":{ "type": "Point", "coordinates": [-116.808586,47.469471]}},
{ "type": "Feature", "properties": {"Name":"Hauser city","State":"Idaho","State_Abbrev":"ID"},
"geometry":{ "type": "Point", "coordinates": [-117.014104,47.764965]}},
{ "type": "Feature", "properties": {"Name":"Hayden city","State":"Idaho","State_Abbrev":"ID"},
"geometry":{ "type": "Point", "coordinates": [-116.801239,47.768454]}},
{ "type": "Feature", "properties": {"Name":"Hayden Lake city","State":"Idaho","State_Abbrev":"ID"},
"geometry":{ "type": "Point", "coordinates": [-116.756097,47.76446]}},
{ "type": "Feature", "properties": {"Name":"Hazelton city","State":"Idaho","State_Abbrev":"ID"},
"geometry":{ "type": "Point", "coordinates": [-114.136614,42.59548]}},
{ "type": "Feature", "properties": {"Name":"Heyburn city","State":"Idaho","State_Abbrev":"ID"},
"geometry":{ "type": "Point", "coordinates": [-113.762067,42.559982]}},
{ "type": "Feature", "properties": {"Name":"Hidden Springs CDP","State":"Idaho","State_Abbrev":"ID"},
"geometry":{ "type": "Point", "coordinates": [-116.259415,43.716541]}},
{ "type": "Feature", "properties": {"Name":"Hollister city","State":"Idaho","State_Abbrev":"ID"},
"geometry":{ "type": "Point", "coordinates": [-114.583846,42.352911]}},
{ "type": "Feature", "properties": {"Name":"Homedale city","State":"Idaho","State_Abbrev":"ID"},
"geometry":{ "type": "Point", "coordinates": [-116.939029,43.615937]}},
{ "type": "Feature", "properties": {"Name":"Hope city","State":"Idaho","State_Abbrev":"ID"},
"geometry":{ "type": "Point", "coordinates": [-116.304576,48.250376]}},
{ "type": "Feature", "properties": {"Name":"Horseshoe Bend city","State":"Idaho","State_Abbrev":"ID"},
"geometry":{ "type": "Point", "coordinates": [-116.199236,43.916085]}},
{ "type": "Feature", "properties": {"Name":"Huetter city","State":"Idaho","State_Abbrev":"ID"},
"geometry":{ "type": "Point", "coordinates": [-116.850838,47.703544]}},
{ "type": "Feature", "properties": {"Name":"Idaho City city","State":"Idaho","State_Abbrev":"ID"},
"geometry":{ "type": "Point", "coordinates": [-115.830474,43.827844]}},
{ "type": "Feature", "properties": {"Name":"Idaho Falls city","State":"Idaho","State_Abbrev":"ID"},
"geometry":{ "type": "Point", "coordinates": [-112.035703,43.488615]}},
{ "type": "Feature", "properties": {"Name":"Inkom city","State":"Idaho","State_Abbrev":"ID"},
"geometry":{ "type": "Point", "coordinates": [-112.254625,42.796548]}},
{ "type": "Feature", "properties": {"Name":"Iona city","State":"Idaho","State_Abbrev":"ID"},
"geometry":{ "type": "Point", "coordinates": [-111.930927,43.527002]}},
{ "type": "Feature", "properties": {"Name":"Irwin city","State":"Idaho","State_Abbrev":"ID"},
"geometry":{ "type": "Point", "coordinates": [-111.279513,43.403359]}},
{ "type": "Feature", "properties": {"Name":"Island Park city","State":"Idaho","State_Abbrev":"ID"},
"geometry":{ "type": "Point", "coordinates": [-111.337788,44.534191]}},
{ "type": "Feature", "properties": {"Name":"Jerome city","State":"Idaho","State_Abbrev":"ID"},
"geometry":{ "type": "Point", "coordinates": [-114.515791,42.718095]}},
{ "type": "Feature", "properties": {"Name":"Juliaetta city","State":"Idaho","State_Abbrev":"ID"},
"geometry":{ "type": "Point", "coordinates": [-116.70808,46.574737]}},
{ "type": "Feature", "properties": {"Name":"Kamiah city","State":"Idaho","State_Abbrev":"ID"},
"geometry":{ "type": "Point", "coordinates": [-116.028303,46.226796]}},
{ "type": "Feature", "properties": {"Name":"Kellogg city","State":"Idaho","State_Abbrev":"ID"},
"geometry":{ "type": "Point", "coordinates": [-116.132678,47.53496]}},
{ "type": "Feature", "properties": {"Name":"Kendrick city","State":"Idaho","State_Abbrev":"ID"},
"geometry":{ "type": "Point", "coordinates": [-116.661272,46.614183]}},
{ "type": "Feature", "properties": {"Name":"Ketchum city","State":"Idaho","State_Abbrev":"ID"},
"geometry":{ "type": "Point", "coordinates": [-114.380069,43.687718]}},
{ "type": "Feature", "properties": {"Name":"Kimberly city","State":"Idaho","State_Abbrev":"ID"},
"geometry":{ "type": "Point", "coordinates": [-114.369931,42.534299]}},
{ "type": "Feature", "properties": {"Name":"Kooskia city","State":"Idaho","State_Abbrev":"ID"},
"geometry":{ "type": "Point", "coordinates": [-115.973646,46.141687]}},
{ "type": "Feature", "properties": {"Name":"Kootenai city","State":"Idaho","State_Abbrev":"ID"},
"geometry":{ "type": "Point", "coordinates": [-116.517128,48.311831]}},
{ "type": "Feature", "properties": {"Name":"Kuna city","State":"Idaho","State_Abbrev":"ID"},
"geometry":{ "type": "Point", "coordinates": [-116.403639,43.52484]}},
{ "type": "Feature", "properties": {"Name":"Laclede CDP","State":"Idaho","State_Abbrev":"ID"},
"geometry":{ "type": "Point", "coordinates": [-116.751565,48.167129]}},
{ "type": "Feature", "properties": {"Name":"Lapwai city","State":"Idaho","State_Abbrev":"ID"},
"geometry":{ "type": "Point", "coordinates": [-116.804223,46.403715]}},
{ "type": "Feature", "properties": {"Name":"Lava Hot Springs city","State":"Idaho","State_Abbrev":"ID"},
"geometry":{ "type": "Point", "coordinates": [-112.009902,42.620107]}},
{ "type": "Feature", "properties": {"Name":"Leadore city","State":"Idaho","State_Abbrev":"ID"},
"geometry":{ "type": "Point", "coordinates": [-113.35922,44.680046]}},
{ "type": "Feature", "properties": {"Name":"Letha CDP","State":"Idaho","State_Abbrev":"ID"},
"geometry":{ "type": "Point", "coordinates": [-116.647026,43.892829]}},
{ "type": "Feature", "properties": {"Name":"Lewiston city","State":"Idaho","State_Abbrev":"ID"},
"geometry":{ "type": "Point", "coordinates": [-116.993472,46.39313]}},
{ "type": "Feature", "properties": {"Name":"Lewisville city","State":"Idaho","State_Abbrev":"ID"},
"geometry":{ "type": "Point", "coordinates": [-112.013898,43.695734]}},
{ "type": "Feature", "properties": {"Name":"Lincoln CDP","State":"Idaho","State_Abbrev":"ID"},
"geometry":{ "type": "Point", "coordinates": [-111.9692,43.518245]}},
{ "type": "Feature", "properties": {"Name":"Lost River city","State":"Idaho","State_Abbrev":"ID"},
"geometry":{ "type": "Point", "coordinates": [-113.635283,43.688262]}},
{ "type": "Feature", "properties": {"Name":"Lowman CDP","State":"Idaho","State_Abbrev":"ID"},
"geometry":{ "type": "Point", "coordinates": [-115.6183,44.071978]}},
{ "type": "Feature", "properties": {"Name":"McCall city","State":"Idaho","State_Abbrev":"ID"},
"geometry":{ "type": "Point", "coordinates": [-116.112491,44.908408]}},
{ "type": "Feature", "properties": {"Name":"McCammon city","State":"Idaho","State_Abbrev":"ID"},
"geometry":{ "type": "Point", "coordinates": [-112.189394,42.648236]}},
{ "type": "Feature", "properties": {"Name":"Mackay city","State":"Idaho","State_Abbrev":"ID"},
"geometry":{ "type": "Point", "coordinates": [-113.612728,43.911996]}},
{ "type": "Feature", "properties": {"Name":"Malad City city","State":"Idaho","State_Abbrev":"ID"},
"geometry":{ "type": "Point", "coordinates": [-112.249688,42.189909]}},
{ "type": "Feature", "properties": {"Name":"Malta city","State":"Idaho","State_Abbrev":"ID"},
"geometry":{ "type": "Point", "coordinates": [-113.369737,42.307532]}},
{ "type": "Feature", "properties": {"Name":"Marsing city","State":"Idaho","State_Abbrev":"ID"},
"geometry":{ "type": "Point", "coordinates": [-116.810422,43.54636]}},
{ "type": "Feature", "properties": {"Name":"Melba city","State":"Idaho","State_Abbrev":"ID"},
"geometry":{ "type": "Point", "coordinates": [-116.531933,43.373633]}},
{ "type": "Feature", "properties": {"Name":"Menan city","State":"Idaho","State_Abbrev":"ID"},
"geometry":{ "type": "Point", "coordinates": [-111.992353,43.721791]}},
{ "type": "Feature", "properties": {"Name":"Meridian city","State":"Idaho","State_Abbrev":"ID"},
"geometry":{ "type": "Point", "coordinates": [-116.397763,43.611493]}},
{ "type": "Feature", "properties": {"Name":"Middleton city","State":"Idaho","State_Abbrev":"ID"},
"geometry":{ "type": "Point", "coordinates": [-116.615008,43.711593]}},
{ "type": "Feature", "properties": {"Name":"Midvale city","State":"Idaho","State_Abbrev":"ID"},
"geometry":{ "type": "Point", "coordinates": [-116.740652,44.462255]}},
{ "type": "Feature", "properties": {"Name":"Minidoka city","State":"Idaho","State_Abbrev":"ID"},
"geometry":{ "type": "Point", "coordinates": [-113.489955,42.75397]}},
{ "type": "Feature", "properties": {"Name":"Montpelier city","State":"Idaho","State_Abbrev":"ID"},
"geometry":{ "type": "Point", "coordinates": [-111.298826,42.325992]}},
{ "type": "Feature", "properties": {"Name":"Moore city","State":"Idaho","State_Abbrev":"ID"},
"geometry":{ "type": "Point", "coordinates": [-113.36734,43.73441]}},
{ "type": "Feature", "properties": {"Name":"Moreland CDP","State":"Idaho","State_Abbrev":"ID"},
"geometry":{ "type": "Point", "coordinates": [-112.437772,43.21948]}},
{ "type": "Feature", "properties": {"Name":"Moscow city","State":"Idaho","State_Abbrev":"ID"},
"geometry":{ "type": "Point", "coordinates": [-116.998909,46.730609]}},
{ "type": "Feature", "properties": {"Name":"Mountain Home city","State":"Idaho","State_Abbrev":"ID"},
"geometry":{ "type": "Point", "coordinates": [-115.698456,43.13307]}},
{ "type": "Feature", "properties": {"Name":"Mountain Home AFB CDP","State":"Idaho","State_Abbrev":"ID"},
"geometry":{ "type": "Point", "coordinates": [-115.86586,43.049186]}},
{ "type": "Feature", "properties": {"Name":"Moyie Springs city","State":"Idaho","State_Abbrev":"ID"},
"geometry":{ "type": "Point", "coordinates": [-116.195607,48.724901]}},
{ "type": "Feature", "properties": {"Name":"Mud Lake city","State":"Idaho","State_Abbrev":"ID"},
"geometry":{ "type": "Point", "coordinates": [-112.479504,43.842855]}},
{ "type": "Feature", "properties": {"Name":"Mullan city","State":"Idaho","State_Abbrev":"ID"},
"geometry":{ "type": "Point", "coordinates": [-115.796351,47.468759]}},
{ "type": "Feature", "properties": {"Name":"Murphy CDP","State":"Idaho","State_Abbrev":"ID"},
"geometry":{ "type": "Point", "coordinates": [-116.548501,43.212138]}},
{ "type": "Feature", "properties": {"Name":"Murtaugh city","State":"Idaho","State_Abbrev":"ID"},
"geometry":{ "type": "Point", "coordinates": [-114.162311,42.491685]}},
{ "type": "Feature", "properties": {"Name":"Nampa city","State":"Idaho","State_Abbrev":"ID"},
"geometry":{ "type": "Point", "coordinates": [-116.565631,43.585541]}},
{ "type": "Feature", "properties": {"Name":"Newdale city","State":"Idaho","State_Abbrev":"ID"},
"geometry":{ "type": "Point", "coordinates": [-111.603888,43.886385]}},
{ "type": "Feature", "properties": {"Name":"New Meadows city","State":"Idaho","State_Abbrev":"ID"},
"geometry":{ "type": "Point", "coordinates": [-116.285195,44.971335]}},
{ "type": "Feature", "properties": {"Name":"New Plymouth city","State":"Idaho","State_Abbrev":"ID"},
"geometry":{ "type": "Point", "coordinates": [-116.818781,43.970417]}},
{ "type": "Feature", "properties": {"Name":"Nezperce city","State":"Idaho","State_Abbrev":"ID"},
"geometry":{ "type": "Point", "coordinates": [-116.241418,46.233582]}},
{ "type": "Feature", "properties": {"Name":"Notus city","State":"Idaho","State_Abbrev":"ID"},
"geometry":{ "type": "Point", "coordinates": [-116.800432,43.726863]}},
{ "type": "Feature", "properties": {"Name":"Oakley city","State":"Idaho","State_Abbrev":"ID"},
"geometry":{ "type": "Point", "coordinates": [-113.883058,42.24206]}},
{ "type": "Feature", "properties": {"Name":"Oldtown city","State":"Idaho","State_Abbrev":"ID"},
"geometry":{ "type": "Point", "coordinates": [-117.018005,48.182488]}},
{ "type": "Feature", "properties": {"Name":"Onaway city","State":"Idaho","State_Abbrev":"ID"},
"geometry":{ "type": "Point", "coordinates": [-116.889621,46.928211]}},
{ "type": "Feature", "properties": {"Name":"Orofino city","State":"Idaho","State_Abbrev":"ID"},
"geometry":{ "type": "Point", "coordinates": [-116.253027,46.484943]}},
{ "type": "Feature", "properties": {"Name":"Osburn city","State":"Idaho","State_Abbrev":"ID"},
"geometry":{ "type": "Point", "coordinates": [-116.000709,47.505731]}},
{ "type": "Feature", "properties": {"Name":"Oxford city","State":"Idaho","State_Abbrev":"ID"},
"geometry":{ "type": "Point", "coordinates": [-112.01787,42.259831]}},
{ "type": "Feature", "properties": {"Name":"Paris city","State":"Idaho","State_Abbrev":"ID"},
"geometry":{ "type": "Point", "coordinates": [-111.402424,42.227978]}},
{ "type": "Feature", "properties": {"Name":"Parker city","State":"Idaho","State_Abbrev":"ID"},
"geometry":{ "type": "Point", "coordinates": [-111.759206,43.958405]}},
{ "type": "Feature", "properties": {"Name":"Parkline CDP","State":"Idaho","State_Abbrev":"ID"},
"geometry":{ "type": "Point", "coordinates": [-116.69398,47.338483]}},
{ "type": "Feature", "properties": {"Name":"Parma city","State":"Idaho","State_Abbrev":"ID"},
"geometry":{ "type": "Point", "coordinates": [-116.942491,43.786284]}},
{ "type": "Feature", "properties": {"Name":"Paul city","State":"Idaho","State_Abbrev":"ID"},
"geometry":{ "type": "Point", "coordinates": [-113.784487,42.605496]}},
{ "type": "Feature", "properties": {"Name":"Payette city","State":"Idaho","State_Abbrev":"ID"},
"geometry":{ "type": "Point", "coordinates": [-116.926852,44.080093]}},
{ "type": "Feature", "properties": {"Name":"Peck city","State":"Idaho","State_Abbrev":"ID"},
"geometry":{ "type": "Point", "coordinates": [-116.426196,46.474696]}},
{ "type": "Feature", "properties": {"Name":"Pierce city","State":"Idaho","State_Abbrev":"ID"},
"geometry":{ "type": "Point", "coordinates": [-115.803292,46.495335]}},
{ "type": "Feature", "properties": {"Name":"Pinehurst city","State":"Idaho","State_Abbrev":"ID"},
"geometry":{ "type": "Point", "coordinates": [-116.231746,47.536314]}},
{ "type": "Feature", "properties": {"Name":"Placerville city","State":"Idaho","State_Abbrev":"ID"},
"geometry":{ "type": "Point", "coordinates": [-115.945986,43.942737]}},
{ "type": "Feature", "properties": {"Name":"Plummer city","State":"Idaho","State_Abbrev":"ID"},
"geometry":{ "type": "Point", "coordinates": [-116.884909,47.330135]}},
{ "type": "Feature", "properties": {"Name":"Pocatello city","State":"Idaho","State_Abbrev":"ID"},
"geometry":{ "type": "Point", "coordinates": [-112.464524,42.872223]}},
{ "type": "Feature", "properties": {"Name":"Ponderay city","State":"Idaho","State_Abbrev":"ID"},
"geometry":{ "type": "Point", "coordinates": [-116.536645,48.30478]}},
{ "type": "Feature", "properties": {"Name":"Post Falls city","State":"Idaho","State_Abbrev":"ID"},
"geometry":{ "type": "Point", "coordinates": [-116.938807,47.721211]}},
{ "type": "Feature", "properties": {"Name":"Potlatch city","State":"Idaho","State_Abbrev":"ID"},
"geometry":{ "type": "Point", "coordinates": [-116.898327,46.923012]}},
{ "type": "Feature", "properties": {"Name":"Preston city","State":"Idaho","State_Abbrev":"ID"},
"geometry":{ "type": "Point", "coordinates": [-111.880738,42.099414]}},
{ "type": "Feature", "properties": {"Name":"Priest River city","State":"Idaho","State_Abbrev":"ID"},
"geometry":{ "type": "Point", "coordinates": [-116.905405,48.185191]}},
{ "type": "Feature", "properties": {"Name":"Princeton CDP","State":"Idaho","State_Abbrev":"ID"},
"geometry":{ "type": "Point", "coordinates": [-116.82608,46.917198]}},
{ "type": "Feature", "properties": {"Name":"Rathdrum city","State":"Idaho","State_Abbrev":"ID"},
"geometry":{ "type": "Point", "coordinates": [-116.893052,47.79393]}},
{ "type": "Feature", "properties": {"Name":"Reubens city","State":"Idaho","State_Abbrev":"ID"},
"geometry":{ "type": "Point", "coordinates": [-116.542861,46.322923]}},
{ "type": "Feature", "properties": {"Name":"Rexburg city","State":"Idaho","State_Abbrev":"ID"},
"geometry":{ "type": "Point", "coordinates": [-111.790988,43.822893]}},
{ "type": "Feature", "properties": {"Name":"Richfield city","State":"Idaho","State_Abbrev":"ID"},
"geometry":{ "type": "Point", "coordinates": [-114.155942,43.05164]}},
{ "type": "Feature", "properties": {"Name":"Rigby city","State":"Idaho","State_Abbrev":"ID"},
"geometry":{ "type": "Point", "coordinates": [-111.913525,43.673587]}},
{ "type": "Feature", "properties": {"Name":"Riggins city","State":"Idaho","State_Abbrev":"ID"},
"geometry":{ "type": "Point", "coordinates": [-116.317636,45.420591]}},
{ "type": "Feature", "properties": {"Name":"Ririe city","State":"Idaho","State_Abbrev":"ID"},
"geometry":{ "type": "Point", "coordinates": [-111.771717,43.632494]}},
{ "type": "Feature", "properties": {"Name":"Riverside CDP","State":"Idaho","State_Abbrev":"ID"},
"geometry":{ "type": "Point", "coordinates": [-112.435625,43.196554]}},
{ "type": "Feature", "properties": {"Name":"Roberts city","State":"Idaho","State_Abbrev":"ID"},
"geometry":{ "type": "Point", "coordinates": [-112.128868,43.720488]}},
{ "type": "Feature", "properties": {"Name":"Robie Creek CDP","State":"Idaho","State_Abbrev":"ID"},
"geometry":{ "type": "Point", "coordinates": [-116.015203,43.667649]}},
{ "type": "Feature", "properties": {"Name":"Rockford CDP","State":"Idaho","State_Abbrev":"ID"},
"geometry":{ "type": "Point", "coordinates": [-112.530618,43.189235]}},
{ "type": "Feature", "properties": {"Name":"Rockford Bay CDP","State":"Idaho","State_Abbrev":"ID"},
"geometry":{ "type": "Point", "coordinates": [-116.886536,47.508637]}},
{ "type": "Feature", "properties": {"Name":"Rockland city","State":"Idaho","State_Abbrev":"ID"},
"geometry":{ "type": "Point", "coordinates": [-112.874507,42.573276]}},
{ "type": "Feature", "properties": {"Name":"Rupert city","State":"Idaho","State_Abbrev":"ID"},
"geometry":{ "type": "Point", "coordinates": [-113.673967,42.618936]}},
{ "type": "Feature", "properties": {"Name":"St. Anthony city","State":"Idaho","State_Abbrev":"ID"},
"geometry":{ "type": "Point", "coordinates": [-111.684509,43.966137]}},
{ "type": "Feature", "properties": {"Name":"St. Charles city","State":"Idaho","State_Abbrev":"ID"},
"geometry":{ "type": "Point", "coordinates": [-111.390316,42.111826]}},
{ "type": "Feature", "properties": {"Name":"St. Maries city","State":"Idaho","State_Abbrev":"ID"},
"geometry":{ "type": "Point", "coordinates": [-116.572235,47.314589]}},
{ "type": "Feature", "properties": {"Name":"Salmon city","State":"Idaho","State_Abbrev":"ID"},
"geometry":{ "type": "Point", "coordinates": [-113.894764,45.174386]}},
{ "type": "Feature", "properties": {"Name":"Sandpoint city","State":"Idaho","State_Abbrev":"ID"},
"geometry":{ "type": "Point", "coordinates": [-116.560013,48.281694]}},
{ "type": "Feature", "properties": {"Name":"Shelley city","State":"Idaho","State_Abbrev":"ID"},
"geometry":{ "type": "Point", "coordinates": [-112.126098,43.379537]}},
{ "type": "Feature", "properties": {"Name":"Shoshone city","State":"Idaho","State_Abbrev":"ID"},
"geometry":{ "type": "Point", "coordinates": [-114.404747,42.936185]}},
{ "type": "Feature", "properties": {"Name":"Silverton CDP","State":"Idaho","State_Abbrev":"ID"},
"geometry":{ "type": "Point", "coordinates": [-115.960513,47.495681]}},
{ "type": "Feature", "properties": {"Name":"Smelterville city","State":"Idaho","State_Abbrev":"ID"},
"geometry":{ "type": "Point", "coordinates": [-116.177448,47.542423]}},
{ "type": "Feature", "properties": {"Name":"Smiths Ferry CDP","State":"Idaho","State_Abbrev":"ID"},
"geometry":{ "type": "Point", "coordinates": [-116.078379,44.299159]}},
{ "type": "Feature", "properties": {"Name":"Soda Springs city","State":"Idaho","State_Abbrev":"ID"},
"geometry":{ "type": "Point", "coordinates": [-111.586081,42.657874]}},
{ "type": "Feature", "properties": {"Name":"Spencer city","State":"Idaho","State_Abbrev":"ID"},
"geometry":{ "type": "Point", "coordinates": [-112.18428,44.367769]}},
{ "type": "Feature", "properties": {"Name":"Spirit Lake city","State":"Idaho","State_Abbrev":"ID"},
"geometry":{ "type": "Point", "coordinates": [-116.869831,47.965799]}},
{ "type": "Feature", "properties": {"Name":"Stanley city","State":"Idaho","State_Abbrev":"ID"},
"geometry":{ "type": "Point", "coordinates": [-114.934074,44.211775]}},
{ "type": "Feature", "properties": {"Name":"Star city","State":"Idaho","State_Abbrev":"ID"},
"geometry":{ "type": "Point", "coordinates": [-116.49102,43.70149]}},
{ "type": "Feature", "properties": {"Name":"State Line city","State":"Idaho","State_Abbrev":"ID"},
"geometry":{ "type": "Point", "coordinates": [-117.036629,47.705341]}},
{ "type": "Feature", "properties": {"Name":"Stites city","State":"Idaho","State_Abbrev":"ID"},
"geometry":{ "type": "Point", "coordinates": [-115.975985,46.09252]}},
{ "type": "Feature", "properties": {"Name":"Sugar City city","State":"Idaho","State_Abbrev":"ID"},
"geometry":{ "type": "Point", "coordinates": [-111.751032,43.87582]}},
{ "type": "Feature", "properties": {"Name":"Sun Valley city","State":"Idaho","State_Abbrev":"ID"},
"geometry":{ "type": "Point", "coordinates": [-114.334203,43.683852]}},
{ "type": "Feature", "properties": {"Name":"Swan Valley city","State":"Idaho","State_Abbrev":"ID"},
"geometry":{ "type": "Point", "coordinates": [-111.324544,43.442575]}},
{ "type": "Feature", "properties": {"Name":"Sweetwater CDP","State":"Idaho","State_Abbrev":"ID"},
"geometry":{ "type": "Point", "coordinates": [-116.79748,46.367638]}},
{ "type": "Feature", "properties": {"Name":"Tensed city","State":"Idaho","State_Abbrev":"ID"},
"geometry":{ "type": "Point", "coordinates": [-116.923795,47.159612]}},
{ "type": "Feature", "properties": {"Name":"Teton city","State":"Idaho","State_Abbrev":"ID"},
"geometry":{ "type": "Point", "coordinates": [-111.672254,43.887773]}},
{ "type": "Feature", "properties": {"Name":"Tetonia city","State":"Idaho","State_Abbrev":"ID"},
"geometry":{ "type": "Point", "coordinates": [-111.158664,43.814578]}},
{ "type": "Feature", "properties": {"Name":"Troy city","State":"Idaho","State_Abbrev":"ID"},
"geometry":{ "type": "Point", "coordinates": [-116.773154,46.737981]}},
{ "type": "Feature", "properties": {"Name":"Twin Falls city","State":"Idaho","State_Abbrev":"ID"},
"geometry":{ "type": "Point", "coordinates": [-114.460608,42.564674]}},
{ "type": "Feature", "properties": {"Name":"Tyhee CDP","State":"Idaho","State_Abbrev":"ID"},
"geometry":{ "type": "Point", "coordinates": [-112.456199,42.954001]}},
{ "type": "Feature", "properties": {"Name":"Ucon city","State":"Idaho","State_Abbrev":"ID"},
"geometry":{ "type": "Point", "coordinates": [-111.959073,43.5936]}},
{ "type": "Feature", "properties": {"Name":"Victor city","State":"Idaho","State_Abbrev":"ID"},
"geometry":{ "type": "Point", "coordinates": [-111.110822,43.60155]}},
{ "type": "Feature", "properties": {"Name":"Viola CDP","State":"Idaho","State_Abbrev":"ID"},
"geometry":{ "type": "Point", "coordinates": [-117.018845,46.838885]}},
{ "type": "Feature", "properties": {"Name":"Wallace city","State":"Idaho","State_Abbrev":"ID"},
"geometry":{ "type": "Point", "coordinates": [-115.922542,47.473578]}},
{ "type": "Feature", "properties": {"Name":"Wardner city","State":"Idaho","State_Abbrev":"ID"},
"geometry":{ "type": "Point", "coordinates": [-116.135674,47.518971]}},
{ "type": "Feature", "properties": {"Name":"Warm River city","State":"Idaho","State_Abbrev":"ID"},
"geometry":{ "type": "Point", "coordinates": [-111.320995,44.120958]}},
{ "type": "Feature", "properties": {"Name":"Weippe city","State":"Idaho","State_Abbrev":"ID"},
"geometry":{ "type": "Point", "coordinates": [-115.938844,46.37825]}},
{ "type": "Feature", "properties": {"Name":"Weiser city","State":"Idaho","State_Abbrev":"ID"},
"geometry":{ "type": "Point", "coordinates": [-116.968859,44.25468]}},
{ "type": "Feature", "properties": {"Name":"Wendell city","State":"Idaho","State_Abbrev":"ID"},
"geometry":{ "type": "Point", "coordinates": [-114.70296,42.77468]}},
{ "type": "Feature", "properties": {"Name":"Weston city","State":"Idaho","State_Abbrev":"ID"},
"geometry":{ "type": "Point", "coordinates": [-111.977799,42.036209]}},
{ "type": "Feature", "properties": {"Name":"White Bird city","State":"Idaho","State_Abbrev":"ID"},
"geometry":{ "type": "Point", "coordinates": [-116.300351,45.76268]}},
{ "type": "Feature", "properties": {"Name":"Wilder city","State":"Idaho","State_Abbrev":"ID"},
"geometry":{ "type": "Point", "coordinates": [-116.907585,43.678388]}},
{ "type": "Feature", "properties": {"Name":"Winchester city","State":"Idaho","State_Abbrev":"ID"},
"geometry":{ "type": "Point", "coordinates": [-116.624137,46.240812]}},
{ "type": "Feature", "properties": {"Name":"Worley city","State":"Idaho","State_Abbrev":"ID"},
"geometry":{ "type": "Point", "coordinates": [-116.919254,47.400533]}},
{ "type": "Feature", "properties": {"Name":"Yellow Pine CDP","State":"Idaho","State_Abbrev":"ID"},
"geometry":{ "type": "Point", "coordinates": [-115.485434,44.960716]}}]}
