{"type":"FeatureCollection","features":[
{ "type": "Feature", "properties": {"Name":"Aberdeen CDP","State":"Indiana","State_Abbrev":"IN"},
"geometry":{ "type": "Point", "coordinates": [-87.116618,41.441794]}},
{ "type": "Feature", "properties": {"Name":"Abington CDP","State":"Indiana","State_Abbrev":"IN"},
"geometry":{ "type": "Point", "coordinates": [-84.967958,39.733136]}},
{ "type": "Feature", "properties": {"Name":"Adams CDP","State":"Indiana","State_Abbrev":"IN"},
"geometry":{ "type": "Point", "coordinates": [-85.561348,39.382503]}},
{ "type": "Feature", "properties": {"Name":"Adams Lake CDP","State":"Indiana","State_Abbrev":"IN"},
"geometry":{ "type": "Point", "coordinates": [-85.329454,41.549954]}},
{ "type": "Feature", "properties": {"Name":"Advance town","State":"Indiana","State_Abbrev":"IN"},
"geometry":{ "type": "Point", "coordinates": [-86.619922,39.995552]}},
{ "type": "Feature", "properties": {"Name":"Akron town","State":"Indiana","State_Abbrev":"IN"},
"geometry":{ "type": "Point", "coordinates": [-86.024923,41.038829]}},
{ "type": "Feature", "properties": {"Name":"Alamo town","State":"Indiana","State_Abbrev":"IN"},
"geometry":{ "type": "Point", "coordinates": [-87.055233,39.983429]}},
{ "type": "Feature", "properties": {"Name":"Albany town","State":"Indiana","State_Abbrev":"IN"},
"geometry":{ "type": "Point", "coordinates": [-85.232191,40.305954]}},
{ "type": "Feature", "properties": {"Name":"Albion town","State":"Indiana","State_Abbrev":"IN"},
"geometry":{ "type": "Point", "coordinates": [-85.418694,41.396592]}},
{ "type": "Feature", "properties": {"Name":"Alexandria city","State":"Indiana","State_Abbrev":"IN"},
"geometry":{ "type": "Point", "coordinates": [-85.673683,40.262964]}},
{ "type": "Feature", "properties": {"Name":"Alford CDP","State":"Indiana","State_Abbrev":"IN"},
"geometry":{ "type": "Point", "coordinates": [-87.246199,38.493188]}},
{ "type": "Feature", "properties": {"Name":"Alfordsville town","State":"Indiana","State_Abbrev":"IN"},
"geometry":{ "type": "Point", "coordinates": [-86.948557,38.560296]}},
{ "type": "Feature", "properties": {"Name":"Alton town","State":"Indiana","State_Abbrev":"IN"},
"geometry":{ "type": "Point", "coordinates": [-86.418595,38.1201]}},
{ "type": "Feature", "properties": {"Name":"Altona town","State":"Indiana","State_Abbrev":"IN"},
"geometry":{ "type": "Point", "coordinates": [-85.152539,41.35216]}},
{ "type": "Feature", "properties": {"Name":"Ambia town","State":"Indiana","State_Abbrev":"IN"},
"geometry":{ "type": "Point", "coordinates": [-87.516274,40.489311]}},
{ "type": "Feature", "properties": {"Name":"Amboy town","State":"Indiana","State_Abbrev":"IN"},
"geometry":{ "type": "Point", "coordinates": [-85.927359,40.602756]}},
{ "type": "Feature", "properties": {"Name":"Americus CDP","State":"Indiana","State_Abbrev":"IN"},
"geometry":{ "type": "Point", "coordinates": [-86.744622,40.524482]}},
{ "type": "Feature", "properties": {"Name":"Amity CDP","State":"Indiana","State_Abbrev":"IN"},
"geometry":{ "type": "Point", "coordinates": [-86.003895,39.427029]}},
{ "type": "Feature", "properties": {"Name":"Amo town","State":"Indiana","State_Abbrev":"IN"},
"geometry":{ "type": "Point", "coordinates": [-86.612692,39.688878]}},
{ "type": "Feature", "properties": {"Name":"Anderson city","State":"Indiana","State_Abbrev":"IN"},
"geometry":{ "type": "Point", "coordinates": [-85.689449,40.089766]}},
{ "type": "Feature", "properties": {"Name":"Andersonville CDP","State":"Indiana","State_Abbrev":"IN"},
"geometry":{ "type": "Point", "coordinates": [-85.285862,39.50049]}},
{ "type": "Feature", "properties": {"Name":"Andrews town","State":"Indiana","State_Abbrev":"IN"},
"geometry":{ "type": "Point", "coordinates": [-85.602124,40.859914]}},
{ "type": "Feature", "properties": {"Name":"Angola city","State":"Indiana","State_Abbrev":"IN"},
"geometry":{ "type": "Point", "coordinates": [-85.010973,41.64109]}},
{ "type": "Feature", "properties": {"Name":"Anoka CDP","State":"Indiana","State_Abbrev":"IN"},
"geometry":{ "type": "Point", "coordinates": [-86.28511,40.723495]}},
{ "type": "Feature", "properties": {"Name":"Antioch CDP","State":"Indiana","State_Abbrev":"IN"},
"geometry":{ "type": "Point", "coordinates": [-86.505704,40.227365]}},
{ "type": "Feature", "properties": {"Name":"Arcadia town","State":"Indiana","State_Abbrev":"IN"},
"geometry":{ "type": "Point", "coordinates": [-86.021036,40.174173]}},
{ "type": "Feature", "properties": {"Name":"Arcola CDP","State":"Indiana","State_Abbrev":"IN"},
"geometry":{ "type": "Point", "coordinates": [-85.291138,41.106295]}},
{ "type": "Feature", "properties": {"Name":"Ardmore CDP","State":"Indiana","State_Abbrev":"IN"},
"geometry":{ "type": "Point", "coordinates": [-86.324167,41.692234]}},
{ "type": "Feature", "properties": {"Name":"Argos town","State":"Indiana","State_Abbrev":"IN"},
"geometry":{ "type": "Point", "coordinates": [-86.253166,41.237621]}},
{ "type": "Feature", "properties": {"Name":"Arlington CDP","State":"Indiana","State_Abbrev":"IN"},
"geometry":{ "type": "Point", "coordinates": [-85.57711,39.641107]}},
{ "type": "Feature", "properties": {"Name":"Arthur CDP","State":"Indiana","State_Abbrev":"IN"},
"geometry":{ "type": "Point", "coordinates": [-87.244333,38.346716]}},
{ "type": "Feature", "properties": {"Name":"Ashley town","State":"Indiana","State_Abbrev":"IN"},
"geometry":{ "type": "Point", "coordinates": [-85.061398,41.521494]}},
{ "type": "Feature", "properties": {"Name":"Atlanta town","State":"Indiana","State_Abbrev":"IN"},
"geometry":{ "type": "Point", "coordinates": [-86.027018,40.213862]}},
{ "type": "Feature", "properties": {"Name":"Attica city","State":"Indiana","State_Abbrev":"IN"},
"geometry":{ "type": "Point", "coordinates": [-87.245179,40.287372]}},
{ "type": "Feature", "properties": {"Name":"Auburn city","State":"Indiana","State_Abbrev":"IN"},
"geometry":{ "type": "Point", "coordinates": [-85.054985,41.367629]}},
{ "type": "Feature", "properties": {"Name":"Aurora city","State":"Indiana","State_Abbrev":"IN"},
"geometry":{ "type": "Point", "coordinates": [-84.904746,39.069774]}},
{ "type": "Feature", "properties": {"Name":"Austin city","State":"Indiana","State_Abbrev":"IN"},
"geometry":{ "type": "Point", "coordinates": [-85.811696,38.741693]}},
{ "type": "Feature", "properties": {"Name":"Avilla town","State":"Indiana","State_Abbrev":"IN"},
"geometry":{ "type": "Point", "coordinates": [-85.231683,41.363768]}},
{ "type": "Feature", "properties": {"Name":"Avoca CDP","State":"Indiana","State_Abbrev":"IN"},
"geometry":{ "type": "Point", "coordinates": [-86.555642,38.917196]}},
{ "type": "Feature", "properties": {"Name":"Avon town","State":"Indiana","State_Abbrev":"IN"},
"geometry":{ "type": "Point", "coordinates": [-86.394145,39.760713]}},
{ "type": "Feature", "properties": {"Name":"Azalia CDP","State":"Indiana","State_Abbrev":"IN"},
"geometry":{ "type": "Point", "coordinates": [-85.844814,39.092387]}},
{ "type": "Feature", "properties": {"Name":"Bainbridge town","State":"Indiana","State_Abbrev":"IN"},
"geometry":{ "type": "Point", "coordinates": [-86.81126,39.7614]}},
{ "type": "Feature", "properties": {"Name":"Barbee CDP","State":"Indiana","State_Abbrev":"IN"},
"geometry":{ "type": "Point", "coordinates": [-85.718087,41.292326]}},
{ "type": "Feature", "properties": {"Name":"Bargersville town","State":"Indiana","State_Abbrev":"IN"},
"geometry":{ "type": "Point", "coordinates": [-86.203247,39.542637]}},
{ "type": "Feature", "properties": {"Name":"Bass Lake CDP","State":"Indiana","State_Abbrev":"IN"},
"geometry":{ "type": "Point", "coordinates": [-86.595949,41.22297]}},
{ "type": "Feature", "properties": {"Name":"Batesville city","State":"Indiana","State_Abbrev":"IN"},
"geometry":{ "type": "Point", "coordinates": [-85.213455,39.297698]}},
{ "type": "Feature", "properties": {"Name":"Battle Ground town","State":"Indiana","State_Abbrev":"IN"},
"geometry":{ "type": "Point", "coordinates": [-86.852684,40.507513]}},
{ "type": "Feature", "properties": {"Name":"Bear Lake CDP","State":"Indiana","State_Abbrev":"IN"},
"geometry":{ "type": "Point", "coordinates": [-85.514144,41.325951]}},
{ "type": "Feature", "properties": {"Name":"Beaver Dam CDP","State":"Indiana","State_Abbrev":"IN"},
"geometry":{ "type": "Point", "coordinates": [-85.972957,41.095494]}},
{ "type": "Feature", "properties": {"Name":"Bedford city","State":"Indiana","State_Abbrev":"IN"},
"geometry":{ "type": "Point", "coordinates": [-86.489503,38.860167]}},
{ "type": "Feature", "properties": {"Name":"Beech Grove city","State":"Indiana","State_Abbrev":"IN"},
"geometry":{ "type": "Point", "coordinates": [-86.087018,39.715669]}},
{ "type": "Feature", "properties": {"Name":"Belleville CDP","State":"Indiana","State_Abbrev":"IN"},
"geometry":{ "type": "Point", "coordinates": [-86.479447,39.669731]}},
{ "type": "Feature", "properties": {"Name":"Bennetts Switch CDP","State":"Indiana","State_Abbrev":"IN"},
"geometry":{ "type": "Point", "coordinates": [-86.109933,40.587243]}},
{ "type": "Feature", "properties": {"Name":"Benton CDP","State":"Indiana","State_Abbrev":"IN"},
"geometry":{ "type": "Point", "coordinates": [-85.766227,41.509784]}},
{ "type": "Feature", "properties": {"Name":"Berne city","State":"Indiana","State_Abbrev":"IN"},
"geometry":{ "type": "Point", "coordinates": [-84.955505,40.657271]}},
{ "type": "Feature", "properties": {"Name":"Bethany town","State":"Indiana","State_Abbrev":"IN"},
"geometry":{ "type": "Point", "coordinates": [-86.378821,39.533804]}},
{ "type": "Feature", "properties": {"Name":"Bethel Village CDP","State":"Indiana","State_Abbrev":"IN"},
"geometry":{ "type": "Point", "coordinates": [-85.925236,39.151436]}},
{ "type": "Feature", "properties": {"Name":"Beverly Shores town","State":"Indiana","State_Abbrev":"IN"},
"geometry":{ "type": "Point", "coordinates": [-86.978774,41.691148]}},
{ "type": "Feature", "properties": {"Name":"Bicknell city","State":"Indiana","State_Abbrev":"IN"},
"geometry":{ "type": "Point", "coordinates": [-87.307797,38.774312]}},
{ "type": "Feature", "properties": {"Name":"Big Lake CDP","State":"Indiana","State_Abbrev":"IN"},
"geometry":{ "type": "Point", "coordinates": [-85.498282,41.26883]}},
{ "type": "Feature", "properties": {"Name":"Billtown CDP","State":"Indiana","State_Abbrev":"IN"},
"geometry":{ "type": "Point", "coordinates": [-87.187269,39.510075]}},
{ "type": "Feature", "properties": {"Name":"Bippus CDP","State":"Indiana","State_Abbrev":"IN"},
"geometry":{ "type": "Point", "coordinates": [-85.624634,40.944466]}},
{ "type": "Feature", "properties": {"Name":"Birdseye town","State":"Indiana","State_Abbrev":"IN"},
"geometry":{ "type": "Point", "coordinates": [-86.698508,38.312721]}},
{ "type": "Feature", "properties": {"Name":"Blairsville CDP","State":"Indiana","State_Abbrev":"IN"},
"geometry":{ "type": "Point", "coordinates": [-87.763101,38.079461]}},
{ "type": "Feature", "properties": {"Name":"Blanford CDP","State":"Indiana","State_Abbrev":"IN"},
"geometry":{ "type": "Point", "coordinates": [-87.520592,39.668118]}},
{ "type": "Feature", "properties": {"Name":"Blocher CDP","State":"Indiana","State_Abbrev":"IN"},
"geometry":{ "type": "Point", "coordinates": [-85.655205,38.720607]}},
{ "type": "Feature", "properties": {"Name":"Bloomfield town","State":"Indiana","State_Abbrev":"IN"},
"geometry":{ "type": "Point", "coordinates": [-86.937364,39.026134]}},
{ "type": "Feature", "properties": {"Name":"Bloomingdale town","State":"Indiana","State_Abbrev":"IN"},
"geometry":{ "type": "Point", "coordinates": [-87.250166,39.830562]}},
{ "type": "Feature", "properties": {"Name":"Blooming Grove CDP","State":"Indiana","State_Abbrev":"IN"},
"geometry":{ "type": "Point", "coordinates": [-85.068561,39.50893]}},
{ "type": "Feature", "properties": {"Name":"Bloomington city","State":"Indiana","State_Abbrev":"IN"},
"geometry":{ "type": "Point", "coordinates": [-86.524264,39.1637]}},
{ "type": "Feature", "properties": {"Name":"Blountsville town","State":"Indiana","State_Abbrev":"IN"},
"geometry":{ "type": "Point", "coordinates": [-85.239836,40.060255]}},
{ "type": "Feature", "properties": {"Name":"Blue Ridge CDP","State":"Indiana","State_Abbrev":"IN"},
"geometry":{ "type": "Point", "coordinates": [-85.637948,39.521197]}},
{ "type": "Feature", "properties": {"Name":"Bluffton city","State":"Indiana","State_Abbrev":"IN"},
"geometry":{ "type": "Point", "coordinates": [-85.172111,40.743479]}},
{ "type": "Feature", "properties": {"Name":"Boggstown CDP","State":"Indiana","State_Abbrev":"IN"},
"geometry":{ "type": "Point", "coordinates": [-85.912138,39.562914]}},
{ "type": "Feature", "properties": {"Name":"Boone Grove CDP","State":"Indiana","State_Abbrev":"IN"},
"geometry":{ "type": "Point", "coordinates": [-87.134127,41.35461]}},
{ "type": "Feature", "properties": {"Name":"Boonville city","State":"Indiana","State_Abbrev":"IN"},
"geometry":{ "type": "Point", "coordinates": [-87.291027,38.04661]}},
{ "type": "Feature", "properties": {"Name":"Borden town","State":"Indiana","State_Abbrev":"IN"},
"geometry":{ "type": "Point", "coordinates": [-85.948165,38.47198]}},
{ "type": "Feature", "properties": {"Name":"Boston town","State":"Indiana","State_Abbrev":"IN"},
"geometry":{ "type": "Point", "coordinates": [-84.851721,39.741178]}},
{ "type": "Feature", "properties": {"Name":"Boswell town","State":"Indiana","State_Abbrev":"IN"},
"geometry":{ "type": "Point", "coordinates": [-87.375343,40.517189]}},
{ "type": "Feature", "properties": {"Name":"Bourbon town","State":"Indiana","State_Abbrev":"IN"},
"geometry":{ "type": "Point", "coordinates": [-86.116852,41.299394]}},
{ "type": "Feature", "properties": {"Name":"Bowling Green CDP","State":"Indiana","State_Abbrev":"IN"},
"geometry":{ "type": "Point", "coordinates": [-87.011493,39.38016]}},
{ "type": "Feature", "properties": {"Name":"Boxley CDP","State":"Indiana","State_Abbrev":"IN"},
"geometry":{ "type": "Point", "coordinates": [-86.179067,40.167783]}},
{ "type": "Feature", "properties": {"Name":"Brazil city","State":"Indiana","State_Abbrev":"IN"},
"geometry":{ "type": "Point", "coordinates": [-87.124479,39.522449]}},
{ "type": "Feature", "properties": {"Name":"Bremen town","State":"Indiana","State_Abbrev":"IN"},
"geometry":{ "type": "Point", "coordinates": [-86.150654,41.448762]}},
{ "type": "Feature", "properties": {"Name":"Bretzville CDP","State":"Indiana","State_Abbrev":"IN"},
"geometry":{ "type": "Point", "coordinates": [-86.866278,38.296467]}},
{ "type": "Feature", "properties": {"Name":"Bridgeton CDP","State":"Indiana","State_Abbrev":"IN"},
"geometry":{ "type": "Point", "coordinates": [-87.176386,39.645472]}},
{ "type": "Feature", "properties": {"Name":"Bright CDP","State":"Indiana","State_Abbrev":"IN"},
"geometry":{ "type": "Point", "coordinates": [-84.862326,39.224924]}},
{ "type": "Feature", "properties": {"Name":"Brimfield CDP","State":"Indiana","State_Abbrev":"IN"},
"geometry":{ "type": "Point", "coordinates": [-85.40175,41.456792]}},
{ "type": "Feature", "properties": {"Name":"Bringhurst CDP","State":"Indiana","State_Abbrev":"IN"},
"geometry":{ "type": "Point", "coordinates": [-86.525167,40.526877]}},
{ "type": "Feature", "properties": {"Name":"Bristol town","State":"Indiana","State_Abbrev":"IN"},
"geometry":{ "type": "Point", "coordinates": [-85.824653,41.718574]}},
{ "type": "Feature", "properties": {"Name":"Brook town","State":"Indiana","State_Abbrev":"IN"},
"geometry":{ "type": "Point", "coordinates": [-87.365722,40.866097]}},
{ "type": "Feature", "properties": {"Name":"Brooklyn town","State":"Indiana","State_Abbrev":"IN"},
"geometry":{ "type": "Point", "coordinates": [-86.369851,39.544518]}},
{ "type": "Feature", "properties": {"Name":"Brooksburg town","State":"Indiana","State_Abbrev":"IN"},
"geometry":{ "type": "Point", "coordinates": [-85.245327,38.735859]}},
{ "type": "Feature", "properties": {"Name":"Brookston town","State":"Indiana","State_Abbrev":"IN"},
"geometry":{ "type": "Point", "coordinates": [-86.866352,40.600947]}},
{ "type": "Feature", "properties": {"Name":"Brookville town","State":"Indiana","State_Abbrev":"IN"},
"geometry":{ "type": "Point", "coordinates": [-85.01016,39.423273]}},
{ "type": "Feature", "properties": {"Name":"Brownsburg town","State":"Indiana","State_Abbrev":"IN"},
"geometry":{ "type": "Point", "coordinates": [-86.383856,39.833507]}},
{ "type": "Feature", "properties": {"Name":"Browns Crossing CDP","State":"Indiana","State_Abbrev":"IN"},
"geometry":{ "type": "Point", "coordinates": [-86.501828,39.40681]}},
{ "type": "Feature", "properties": {"Name":"Brownstown town","State":"Indiana","State_Abbrev":"IN"},
"geometry":{ "type": "Point", "coordinates": [-86.047693,38.879079]}},
{ "type": "Feature", "properties": {"Name":"Brownsville CDP","State":"Indiana","State_Abbrev":"IN"},
"geometry":{ "type": "Point", "coordinates": [-85.003392,39.664797]}},
{ "type": "Feature", "properties": {"Name":"Bruceville town","State":"Indiana","State_Abbrev":"IN"},
"geometry":{ "type": "Point", "coordinates": [-87.4154,38.75802]}},
{ "type": "Feature", "properties": {"Name":"Bryant town","State":"Indiana","State_Abbrev":"IN"},
"geometry":{ "type": "Point", "coordinates": [-84.963342,40.535832]}},
{ "type": "Feature", "properties": {"Name":"Buck Creek CDP","State":"Indiana","State_Abbrev":"IN"},
"geometry":{ "type": "Point", "coordinates": [-86.761516,40.487556]}},
{ "type": "Feature", "properties": {"Name":"Buckskin CDP","State":"Indiana","State_Abbrev":"IN"},
"geometry":{ "type": "Point", "coordinates": [-87.414776,38.225499]}},
{ "type": "Feature", "properties": {"Name":"Buffalo CDP","State":"Indiana","State_Abbrev":"IN"},
"geometry":{ "type": "Point", "coordinates": [-86.73609,40.889394]}},
{ "type": "Feature", "properties": {"Name":"Bunker Hill town","State":"Indiana","State_Abbrev":"IN"},
"geometry":{ "type": "Point", "coordinates": [-86.101424,40.660075]}},
{ "type": "Feature", "properties": {"Name":"Burket town","State":"Indiana","State_Abbrev":"IN"},
"geometry":{ "type": "Point", "coordinates": [-85.968731,41.154897]}},
{ "type": "Feature", "properties": {"Name":"Burlington town","State":"Indiana","State_Abbrev":"IN"},
"geometry":{ "type": "Point", "coordinates": [-86.394646,40.481958]}},
{ "type": "Feature", "properties": {"Name":"Burnett CDP","State":"Indiana","State_Abbrev":"IN"},
"geometry":{ "type": "Point", "coordinates": [-87.299173,39.543967]}},
{ "type": "Feature", "properties": {"Name":"Burnettsville town","State":"Indiana","State_Abbrev":"IN"},
"geometry":{ "type": "Point", "coordinates": [-86.594687,40.761179]}},
{ "type": "Feature", "properties": {"Name":"Burney CDP","State":"Indiana","State_Abbrev":"IN"},
"geometry":{ "type": "Point", "coordinates": [-85.639796,39.318098]}},
{ "type": "Feature", "properties": {"Name":"Burns City CDP","State":"Indiana","State_Abbrev":"IN"},
"geometry":{ "type": "Point", "coordinates": [-86.89374,38.817097]}},
{ "type": "Feature", "properties": {"Name":"Burns Harbor town","State":"Indiana","State_Abbrev":"IN"},
"geometry":{ "type": "Point", "coordinates": [-87.125869,41.618922]}},
{ "type": "Feature", "properties": {"Name":"Burrows CDP","State":"Indiana","State_Abbrev":"IN"},
"geometry":{ "type": "Point", "coordinates": [-86.509156,40.677155]}},
{ "type": "Feature", "properties": {"Name":"Butler city","State":"Indiana","State_Abbrev":"IN"},
"geometry":{ "type": "Point", "coordinates": [-84.872119,41.42744]}},
{ "type": "Feature", "properties": {"Name":"Butlerville CDP","State":"Indiana","State_Abbrev":"IN"},
"geometry":{ "type": "Point", "coordinates": [-85.512923,39.032589]}},
{ "type": "Feature", "properties": {"Name":"Cadiz town","State":"Indiana","State_Abbrev":"IN"},
"geometry":{ "type": "Point", "coordinates": [-85.486891,39.950923]}},
{ "type": "Feature", "properties": {"Name":"Cambridge City town","State":"Indiana","State_Abbrev":"IN"},
"geometry":{ "type": "Point", "coordinates": [-85.17082,39.812084]}},
{ "type": "Feature", "properties": {"Name":"Camden town","State":"Indiana","State_Abbrev":"IN"},
"geometry":{ "type": "Point", "coordinates": [-86.539349,40.609941]}},
{ "type": "Feature", "properties": {"Name":"Campbellsburg town","State":"Indiana","State_Abbrev":"IN"},
"geometry":{ "type": "Point", "coordinates": [-86.264603,38.652317]}},
{ "type": "Feature", "properties": {"Name":"Canaan CDP","State":"Indiana","State_Abbrev":"IN"},
"geometry":{ "type": "Point", "coordinates": [-85.300834,38.865377]}},
{ "type": "Feature", "properties": {"Name":"Cannelburg town","State":"Indiana","State_Abbrev":"IN"},
"geometry":{ "type": "Point", "coordinates": [-86.997585,38.667901]}},
{ "type": "Feature", "properties": {"Name":"Cannelton city","State":"Indiana","State_Abbrev":"IN"},
"geometry":{ "type": "Point", "coordinates": [-86.738709,37.911543]}},
{ "type": "Feature", "properties": {"Name":"Canton CDP","State":"Indiana","State_Abbrev":"IN"},
"geometry":{ "type": "Point", "coordinates": [-86.034966,38.625918]}},
{ "type": "Feature", "properties": {"Name":"Carbon town","State":"Indiana","State_Abbrev":"IN"},
"geometry":{ "type": "Point", "coordinates": [-87.107745,39.599219]}},
{ "type": "Feature", "properties": {"Name":"Carlisle town","State":"Indiana","State_Abbrev":"IN"},
"geometry":{ "type": "Point", "coordinates": [-87.401424,38.960778]}},
{ "type": "Feature", "properties": {"Name":"Carmel city","State":"Indiana","State_Abbrev":"IN"},
"geometry":{ "type": "Point", "coordinates": [-86.148369,39.965479]}},
{ "type": "Feature", "properties": {"Name":"Carrollton CDP","State":"Indiana","State_Abbrev":"IN"},
"geometry":{ "type": "Point", "coordinates": [-85.819868,39.705525]}},
{ "type": "Feature", "properties": {"Name":"Cartersburg CDP","State":"Indiana","State_Abbrev":"IN"},
"geometry":{ "type": "Point", "coordinates": [-86.4664,39.6988]}},
{ "type": "Feature", "properties": {"Name":"Carthage town","State":"Indiana","State_Abbrev":"IN"},
"geometry":{ "type": "Point", "coordinates": [-85.571422,39.736817]}},
{ "type": "Feature", "properties": {"Name":"Cass CDP","State":"Indiana","State_Abbrev":"IN"},
"geometry":{ "type": "Point", "coordinates": [-87.277283,39.087607]}},
{ "type": "Feature", "properties": {"Name":"Cassville CDP","State":"Indiana","State_Abbrev":"IN"},
"geometry":{ "type": "Point", "coordinates": [-86.12962,40.556069]}},
{ "type": "Feature", "properties": {"Name":"Cates CDP","State":"Indiana","State_Abbrev":"IN"},
"geometry":{ "type": "Point", "coordinates": [-87.338293,39.997251]}},
{ "type": "Feature", "properties": {"Name":"Cayuga town","State":"Indiana","State_Abbrev":"IN"},
"geometry":{ "type": "Point", "coordinates": [-87.464571,39.947334]}},
{ "type": "Feature", "properties": {"Name":"Cedar Grove town","State":"Indiana","State_Abbrev":"IN"},
"geometry":{ "type": "Point", "coordinates": [-84.937076,39.355949]}},
{ "type": "Feature", "properties": {"Name":"Cedar Lake town","State":"Indiana","State_Abbrev":"IN"},
"geometry":{ "type": "Point", "coordinates": [-87.441971,41.372342]}},
{ "type": "Feature", "properties": {"Name":"Celestine CDP","State":"Indiana","State_Abbrev":"IN"},
"geometry":{ "type": "Point", "coordinates": [-86.773151,38.386497]}},
{ "type": "Feature", "properties": {"Name":"Centenary CDP","State":"Indiana","State_Abbrev":"IN"},
"geometry":{ "type": "Point", "coordinates": [-87.471433,39.659114]}},
{ "type": "Feature", "properties": {"Name":"Center CDP","State":"Indiana","State_Abbrev":"IN"},
"geometry":{ "type": "Point", "coordinates": [-86.059566,40.436781]}},
{ "type": "Feature", "properties": {"Name":"Center Point town","State":"Indiana","State_Abbrev":"IN"},
"geometry":{ "type": "Point", "coordinates": [-87.075574,39.415766]}},
{ "type": "Feature", "properties": {"Name":"Centerton CDP","State":"Indiana","State_Abbrev":"IN"},
"geometry":{ "type": "Point", "coordinates": [-86.395697,39.516103]}},
{ "type": "Feature", "properties": {"Name":"Centerville town","State":"Indiana","State_Abbrev":"IN"},
"geometry":{ "type": "Point", "coordinates": [-84.99925,39.821987]}},
{ "type": "Feature", "properties": {"Name":"Chain-O-Lakes CDP","State":"Indiana","State_Abbrev":"IN"},
"geometry":{ "type": "Point", "coordinates": [-86.388333,41.707131]}},
{ "type": "Feature", "properties": {"Name":"Chalmers town","State":"Indiana","State_Abbrev":"IN"},
"geometry":{ "type": "Point", "coordinates": [-86.867741,40.662473]}},
{ "type": "Feature", "properties": {"Name":"Chandler town","State":"Indiana","State_Abbrev":"IN"},
"geometry":{ "type": "Point", "coordinates": [-87.374075,38.037298]}},
{ "type": "Feature", "properties": {"Name":"Charlestown city","State":"Indiana","State_Abbrev":"IN"},
"geometry":{ "type": "Point", "coordinates": [-85.670366,38.429839]}},
{ "type": "Feature", "properties": {"Name":"Charlottesville CDP","State":"Indiana","State_Abbrev":"IN"},
"geometry":{ "type": "Point", "coordinates": [-85.611941,39.790879]}},
{ "type": "Feature", "properties": {"Name":"Chesterfield town","State":"Indiana","State_Abbrev":"IN"},
"geometry":{ "type": "Point", "coordinates": [-85.594338,40.113023]}},
{ "type": "Feature", "properties": {"Name":"Chesterton town","State":"Indiana","State_Abbrev":"IN"},
"geometry":{ "type": "Point", "coordinates": [-87.054996,41.599822]}},
{ "type": "Feature", "properties": {"Name":"Chili CDP","State":"Indiana","State_Abbrev":"IN"},
"geometry":{ "type": "Point", "coordinates": [-86.028996,40.862789]}},
{ "type": "Feature", "properties": {"Name":"Chrisney town","State":"Indiana","State_Abbrev":"IN"},
"geometry":{ "type": "Point", "coordinates": [-87.030996,38.010613]}},
{ "type": "Feature", "properties": {"Name":"Churubusco town","State":"Indiana","State_Abbrev":"IN"},
"geometry":{ "type": "Point", "coordinates": [-85.319672,41.230964]}},
{ "type": "Feature", "properties": {"Name":"Cicero town","State":"Indiana","State_Abbrev":"IN"},
"geometry":{ "type": "Point", "coordinates": [-86.034042,40.121932]}},
{ "type": "Feature", "properties": {"Name":"Clarksburg CDP","State":"Indiana","State_Abbrev":"IN"},
"geometry":{ "type": "Point", "coordinates": [-85.349205,39.435016]}},
{ "type": "Feature", "properties": {"Name":"Clarks Hill town","State":"Indiana","State_Abbrev":"IN"},
"geometry":{ "type": "Point", "coordinates": [-86.724412,40.247206]}},
{ "type": "Feature", "properties": {"Name":"Clarksville town","State":"Indiana","State_Abbrev":"IN"},
"geometry":{ "type": "Point", "coordinates": [-85.767576,38.322082]}},
{ "type": "Feature", "properties": {"Name":"Clay City town","State":"Indiana","State_Abbrev":"IN"},
"geometry":{ "type": "Point", "coordinates": [-87.11271,39.276986]}},
{ "type": "Feature", "properties": {"Name":"Claypool town","State":"Indiana","State_Abbrev":"IN"},
"geometry":{ "type": "Point", "coordinates": [-85.882272,41.130758]}},
{ "type": "Feature", "properties": {"Name":"Clayton town","State":"Indiana","State_Abbrev":"IN"},
"geometry":{ "type": "Point", "coordinates": [-86.521856,39.688392]}},
{ "type": "Feature", "properties": {"Name":"Clear Lake town","State":"Indiana","State_Abbrev":"IN"},
"geometry":{ "type": "Point", "coordinates": [-84.834443,41.738986]}},
{ "type": "Feature", "properties": {"Name":"Clermont town","State":"Indiana","State_Abbrev":"IN"},
"geometry":{ "type": "Point", "coordinates": [-86.320678,39.816523]}},
{ "type": "Feature", "properties": {"Name":"Clifford town","State":"Indiana","State_Abbrev":"IN"},
"geometry":{ "type": "Point", "coordinates": [-85.869051,39.282638]}},
{ "type": "Feature", "properties": {"Name":"Clinton city","State":"Indiana","State_Abbrev":"IN"},
"geometry":{ "type": "Point", "coordinates": [-87.404659,39.660965]}},
{ "type": "Feature", "properties": {"Name":"Cloverdale town","State":"Indiana","State_Abbrev":"IN"},
"geometry":{ "type": "Point", "coordinates": [-86.798689,39.521221]}},
{ "type": "Feature", "properties": {"Name":"Cloverland CDP","State":"Indiana","State_Abbrev":"IN"},
"geometry":{ "type": "Point", "coordinates": [-87.225697,39.504261]}},
{ "type": "Feature", "properties": {"Name":"Coal City CDP","State":"Indiana","State_Abbrev":"IN"},
"geometry":{ "type": "Point", "coordinates": [-87.044257,39.228267]}},
{ "type": "Feature", "properties": {"Name":"Coalmont CDP","State":"Indiana","State_Abbrev":"IN"},
"geometry":{ "type": "Point", "coordinates": [-87.219495,39.189623]}},
{ "type": "Feature", "properties": {"Name":"Coatesville town","State":"Indiana","State_Abbrev":"IN"},
"geometry":{ "type": "Point", "coordinates": [-86.669388,39.688449]}},
{ "type": "Feature", "properties": {"Name":"Coesse CDP","State":"Indiana","State_Abbrev":"IN"},
"geometry":{ "type": "Point", "coordinates": [-85.400676,41.12755]}},
{ "type": "Feature", "properties": {"Name":"Colburn CDP","State":"Indiana","State_Abbrev":"IN"},
"geometry":{ "type": "Point", "coordinates": [-86.712192,40.518777]}},
{ "type": "Feature", "properties": {"Name":"Colfax town","State":"Indiana","State_Abbrev":"IN"},
"geometry":{ "type": "Point", "coordinates": [-86.666942,40.194182]}},
{ "type": "Feature", "properties": {"Name":"Columbia City city","State":"Indiana","State_Abbrev":"IN"},
"geometry":{ "type": "Point", "coordinates": [-85.478751,41.163051]}},
{ "type": "Feature", "properties": {"Name":"Columbus city","State":"Indiana","State_Abbrev":"IN"},
"geometry":{ "type": "Point", "coordinates": [-85.919059,39.208684]}},
{ "type": "Feature", "properties": {"Name":"Commiskey CDP","State":"Indiana","State_Abbrev":"IN"},
"geometry":{ "type": "Point", "coordinates": [-85.642958,38.860521]}},
{ "type": "Feature", "properties": {"Name":"Connersville city","State":"Indiana","State_Abbrev":"IN"},
"geometry":{ "type": "Point", "coordinates": [-85.141747,39.658023]}},
{ "type": "Feature", "properties": {"Name":"Converse town","State":"Indiana","State_Abbrev":"IN"},
"geometry":{ "type": "Point", "coordinates": [-85.87537,40.578913]}},
{ "type": "Feature", "properties": {"Name":"Cordry Sweetwater Lakes CDP","State":"Indiana","State_Abbrev":"IN"},
"geometry":{ "type": "Point", "coordinates": [-86.123805,39.30693]}},
{ "type": "Feature", "properties": {"Name":"Cortland CDP","State":"Indiana","State_Abbrev":"IN"},
"geometry":{ "type": "Point", "coordinates": [-85.962878,38.973747]}},
{ "type": "Feature", "properties": {"Name":"Corunna town","State":"Indiana","State_Abbrev":"IN"},
"geometry":{ "type": "Point", "coordinates": [-85.14415,41.435859]}},
{ "type": "Feature", "properties": {"Name":"Cory CDP","State":"Indiana","State_Abbrev":"IN"},
"geometry":{ "type": "Point", "coordinates": [-87.203888,39.381256]}},
{ "type": "Feature", "properties": {"Name":"Corydon town","State":"Indiana","State_Abbrev":"IN"},
"geometry":{ "type": "Point", "coordinates": [-86.125603,38.212878]}},
{ "type": "Feature", "properties": {"Name":"Country Club Heights town","State":"Indiana","State_Abbrev":"IN"},
"geometry":{ "type": "Point", "coordinates": [-85.687735,40.124412]}},
{ "type": "Feature", "properties": {"Name":"Country Squire Lakes CDP","State":"Indiana","State_Abbrev":"IN"},
"geometry":{ "type": "Point", "coordinates": [-85.685283,39.037942]}},
{ "type": "Feature", "properties": {"Name":"Covington city","State":"Indiana","State_Abbrev":"IN"},
"geometry":{ "type": "Point", "coordinates": [-87.390599,40.14147]}},
{ "type": "Feature", "properties": {"Name":"Cowan CDP","State":"Indiana","State_Abbrev":"IN"},
"geometry":{ "type": "Point", "coordinates": [-85.390762,40.105751]}},
{ "type": "Feature", "properties": {"Name":"Craigville CDP","State":"Indiana","State_Abbrev":"IN"},
"geometry":{ "type": "Point", "coordinates": [-85.091312,40.776877]}},
{ "type": "Feature", "properties": {"Name":"Crandall town","State":"Indiana","State_Abbrev":"IN"},
"geometry":{ "type": "Point", "coordinates": [-86.065948,38.288097]}},
{ "type": "Feature", "properties": {"Name":"Crane town","State":"Indiana","State_Abbrev":"IN"},
"geometry":{ "type": "Point", "coordinates": [-86.901258,38.894296]}},
{ "type": "Feature", "properties": {"Name":"Crawfordsville city","State":"Indiana","State_Abbrev":"IN"},
"geometry":{ "type": "Point", "coordinates": [-86.897598,40.042328]}},
{ "type": "Feature", "properties": {"Name":"Cree Lake CDP","State":"Indiana","State_Abbrev":"IN"},
"geometry":{ "type": "Point", "coordinates": [-85.275027,41.504837]}},
{ "type": "Feature", "properties": {"Name":"Cromwell town","State":"Indiana","State_Abbrev":"IN"},
"geometry":{ "type": "Point", "coordinates": [-85.614277,41.403261]}},
{ "type": "Feature", "properties": {"Name":"Cross Plains CDP","State":"Indiana","State_Abbrev":"IN"},
"geometry":{ "type": "Point", "coordinates": [-85.205671,38.939295]}},
{ "type": "Feature", "properties": {"Name":"Crothersville town","State":"Indiana","State_Abbrev":"IN"},
"geometry":{ "type": "Point", "coordinates": [-85.840023,38.794455]}},
{ "type": "Feature", "properties": {"Name":"Crown Point city","State":"Indiana","State_Abbrev":"IN"},
"geometry":{ "type": "Point", "coordinates": [-87.347425,41.41711]}},
{ "type": "Feature", "properties": {"Name":"Crows Nest town","State":"Indiana","State_Abbrev":"IN"},
"geometry":{ "type": "Point", "coordinates": [-86.169064,39.856481]}},
{ "type": "Feature", "properties": {"Name":"Culver town","State":"Indiana","State_Abbrev":"IN"},
"geometry":{ "type": "Point", "coordinates": [-86.424283,41.216606]}},
{ "type": "Feature", "properties": {"Name":"Cumberland town","State":"Indiana","State_Abbrev":"IN"},
"geometry":{ "type": "Point", "coordinates": [-85.944598,39.786773]}},
{ "type": "Feature", "properties": {"Name":"Cutler CDP","State":"Indiana","State_Abbrev":"IN"},
"geometry":{ "type": "Point", "coordinates": [-86.525221,40.474407]}},
{ "type": "Feature", "properties": {"Name":"Cynthiana town","State":"Indiana","State_Abbrev":"IN"},
"geometry":{ "type": "Point", "coordinates": [-87.70853,38.187258]}},
{ "type": "Feature", "properties": {"Name":"Dale town","State":"Indiana","State_Abbrev":"IN"},
"geometry":{ "type": "Point", "coordinates": [-86.970411,38.184861]}},
{ "type": "Feature", "properties": {"Name":"Daleville town","State":"Indiana","State_Abbrev":"IN"},
"geometry":{ "type": "Point", "coordinates": [-85.556247,40.118872]}},
{ "type": "Feature", "properties": {"Name":"Dana town","State":"Indiana","State_Abbrev":"IN"},
"geometry":{ "type": "Point", "coordinates": [-87.494534,39.807257]}},
{ "type": "Feature", "properties": {"Name":"Danville town","State":"Indiana","State_Abbrev":"IN"},
"geometry":{ "type": "Point", "coordinates": [-86.495282,39.758812]}},
{ "type": "Feature", "properties": {"Name":"Darlington town","State":"Indiana","State_Abbrev":"IN"},
"geometry":{ "type": "Point", "coordinates": [-86.776738,40.107313]}},
{ "type": "Feature", "properties": {"Name":"Darmstadt town","State":"Indiana","State_Abbrev":"IN"},
"geometry":{ "type": "Point", "coordinates": [-87.576844,38.091371]}},
{ "type": "Feature", "properties": {"Name":"Dayton town","State":"Indiana","State_Abbrev":"IN"},
"geometry":{ "type": "Point", "coordinates": [-86.773972,40.375159]}},
{ "type": "Feature", "properties": {"Name":"Decatur city","State":"Indiana","State_Abbrev":"IN"},
"geometry":{ "type": "Point", "coordinates": [-84.927813,40.828854]}},
{ "type": "Feature", "properties": {"Name":"Decker town","State":"Indiana","State_Abbrev":"IN"},
"geometry":{ "type": "Point", "coordinates": [-87.52408,38.518472]}},
{ "type": "Feature", "properties": {"Name":"Deer Creek CDP","State":"Indiana","State_Abbrev":"IN"},
"geometry":{ "type": "Point", "coordinates": [-86.390421,40.615023]}},
{ "type": "Feature", "properties": {"Name":"Delaware CDP","State":"Indiana","State_Abbrev":"IN"},
"geometry":{ "type": "Point", "coordinates": [-85.206038,39.145656]}},
{ "type": "Feature", "properties": {"Name":"Delphi city","State":"Indiana","State_Abbrev":"IN"},
"geometry":{ "type": "Point", "coordinates": [-86.666811,40.583408]}},
{ "type": "Feature", "properties": {"Name":"De Motte town","State":"Indiana","State_Abbrev":"IN"},
"geometry":{ "type": "Point", "coordinates": [-87.195453,41.199271]}},
{ "type": "Feature", "properties": {"Name":"Denver town","State":"Indiana","State_Abbrev":"IN"},
"geometry":{ "type": "Point", "coordinates": [-86.077093,40.864762]}},
{ "type": "Feature", "properties": {"Name":"Depauw CDP","State":"Indiana","State_Abbrev":"IN"},
"geometry":{ "type": "Point", "coordinates": [-86.2216,38.332711]}},
{ "type": "Feature", "properties": {"Name":"Deputy CDP","State":"Indiana","State_Abbrev":"IN"},
"geometry":{ "type": "Point", "coordinates": [-85.652724,38.795115]}},
{ "type": "Feature", "properties": {"Name":"Dillsboro town","State":"Indiana","State_Abbrev":"IN"},
"geometry":{ "type": "Point", "coordinates": [-85.052772,39.018444]}},
{ "type": "Feature", "properties": {"Name":"Donaldson CDP","State":"Indiana","State_Abbrev":"IN"},
"geometry":{ "type": "Point", "coordinates": [-86.443597,41.3621]}},
{ "type": "Feature", "properties": {"Name":"Dover Hill CDP","State":"Indiana","State_Abbrev":"IN"},
"geometry":{ "type": "Point", "coordinates": [-86.801256,38.719172]}},
{ "type": "Feature", "properties": {"Name":"Dresser CDP","State":"Indiana","State_Abbrev":"IN"},
"geometry":{ "type": "Point", "coordinates": [-87.423929,39.463328]}},
{ "type": "Feature", "properties": {"Name":"Dublin town","State":"Indiana","State_Abbrev":"IN"},
"geometry":{ "type": "Point", "coordinates": [-85.205175,39.812537]}},
{ "type": "Feature", "properties": {"Name":"Dubois CDP","State":"Indiana","State_Abbrev":"IN"},
"geometry":{ "type": "Point", "coordinates": [-86.797466,38.446328]}},
{ "type": "Feature", "properties": {"Name":"Dugger town","State":"Indiana","State_Abbrev":"IN"},
"geometry":{ "type": "Point", "coordinates": [-87.259038,39.070367]}},
{ "type": "Feature", "properties": {"Name":"Dune Acres town","State":"Indiana","State_Abbrev":"IN"},
"geometry":{ "type": "Point", "coordinates": [-87.088791,41.651804]}},
{ "type": "Feature", "properties": {"Name":"Duneland Beach CDP","State":"Indiana","State_Abbrev":"IN"},
"geometry":{ "type": "Point", "coordinates": [-86.830065,41.757682]}},
{ "type": "Feature", "properties": {"Name":"Dunkirk city","State":"Indiana","State_Abbrev":"IN"},
"geometry":{ "type": "Point", "coordinates": [-85.208209,40.374326]}},
{ "type": "Feature", "properties": {"Name":"Dunlap CDP","State":"Indiana","State_Abbrev":"IN"},
"geometry":{ "type": "Point", "coordinates": [-85.922588,41.634651]}},
{ "type": "Feature", "properties": {"Name":"Dunreith town","State":"Indiana","State_Abbrev":"IN"},
"geometry":{ "type": "Point", "coordinates": [-85.436633,39.802817]}},
{ "type": "Feature", "properties": {"Name":"Dupont town","State":"Indiana","State_Abbrev":"IN"},
"geometry":{ "type": "Point", "coordinates": [-85.516724,38.891464]}},
{ "type": "Feature", "properties": {"Name":"Dyer town","State":"Indiana","State_Abbrev":"IN"},
"geometry":{ "type": "Point", "coordinates": [-87.509039,41.497693]}},
{ "type": "Feature", "properties": {"Name":"Earl Park town","State":"Indiana","State_Abbrev":"IN"},
"geometry":{ "type": "Point", "coordinates": [-87.420124,40.685631]}},
{ "type": "Feature", "properties": {"Name":"East Chicago city","State":"Indiana","State_Abbrev":"IN"},
"geometry":{ "type": "Point", "coordinates": [-87.452885,41.64813]}},
{ "type": "Feature", "properties": {"Name":"East Enterprise CDP","State":"Indiana","State_Abbrev":"IN"},
"geometry":{ "type": "Point", "coordinates": [-84.988095,38.870804]}},
{ "type": "Feature", "properties": {"Name":"East Germantown town","State":"Indiana","State_Abbrev":"IN"},
"geometry":{ "type": "Point", "coordinates": [-85.137025,39.813163]}},
{ "type": "Feature", "properties": {"Name":"East Oolitic CDP","State":"Indiana","State_Abbrev":"IN"},
"geometry":{ "type": "Point", "coordinates": [-86.512212,38.899675]}},
{ "type": "Feature", "properties": {"Name":"Eaton town","State":"Indiana","State_Abbrev":"IN"},
"geometry":{ "type": "Point", "coordinates": [-85.357029,40.326892]}},
{ "type": "Feature", "properties": {"Name":"Eckerty CDP","State":"Indiana","State_Abbrev":"IN"},
"geometry":{ "type": "Point", "coordinates": [-86.612352,38.322045]}},
{ "type": "Feature", "properties": {"Name":"Economy town","State":"Indiana","State_Abbrev":"IN"},
"geometry":{ "type": "Point", "coordinates": [-85.086846,39.977296]}},
{ "type": "Feature", "properties": {"Name":"Eden CDP","State":"Indiana","State_Abbrev":"IN"},
"geometry":{ "type": "Point", "coordinates": [-85.769033,39.902507]}},
{ "type": "Feature", "properties": {"Name":"Edgewood town","State":"Indiana","State_Abbrev":"IN"},
"geometry":{ "type": "Point", "coordinates": [-85.737461,40.103208]}},
{ "type": "Feature", "properties": {"Name":"Edinburgh town","State":"Indiana","State_Abbrev":"IN"},
"geometry":{ "type": "Point", "coordinates": [-85.962485,39.350889]}},
{ "type": "Feature", "properties": {"Name":"Edwardsport town","State":"Indiana","State_Abbrev":"IN"},
"geometry":{ "type": "Point", "coordinates": [-87.251254,38.812566]}},
{ "type": "Feature", "properties": {"Name":"Elberfeld town","State":"Indiana","State_Abbrev":"IN"},
"geometry":{ "type": "Point", "coordinates": [-87.448155,38.16165]}},
{ "type": "Feature", "properties": {"Name":"Elizabeth town","State":"Indiana","State_Abbrev":"IN"},
"geometry":{ "type": "Point", "coordinates": [-85.973855,38.124059]}},
{ "type": "Feature", "properties": {"Name":"Elizabethtown town","State":"Indiana","State_Abbrev":"IN"},
"geometry":{ "type": "Point", "coordinates": [-85.812438,39.135079]}},
{ "type": "Feature", "properties": {"Name":"Elizaville CDP","State":"Indiana","State_Abbrev":"IN"},
"geometry":{ "type": "Point", "coordinates": [-86.377322,40.12402]}},
{ "type": "Feature", "properties": {"Name":"Elkhart city","State":"Indiana","State_Abbrev":"IN"},
"geometry":{ "type": "Point", "coordinates": [-85.962248,41.691543]}},
{ "type": "Feature", "properties": {"Name":"Ellettsville town","State":"Indiana","State_Abbrev":"IN"},
"geometry":{ "type": "Point", "coordinates": [-86.624136,39.232212]}},
{ "type": "Feature", "properties": {"Name":"Elnora town","State":"Indiana","State_Abbrev":"IN"},
"geometry":{ "type": "Point", "coordinates": [-87.084637,38.876196]}},
{ "type": "Feature", "properties": {"Name":"Elrod CDP","State":"Indiana","State_Abbrev":"IN"},
"geometry":{ "type": "Point", "coordinates": [-85.163118,39.055904]}},
{ "type": "Feature", "properties": {"Name":"Elwood city","State":"Indiana","State_Abbrev":"IN"},
"geometry":{ "type": "Point", "coordinates": [-85.837288,40.273823]}},
{ "type": "Feature", "properties": {"Name":"Eminence CDP","State":"Indiana","State_Abbrev":"IN"},
"geometry":{ "type": "Point", "coordinates": [-86.642394,39.521484]}},
{ "type": "Feature", "properties": {"Name":"Emison CDP","State":"Indiana","State_Abbrev":"IN"},
"geometry":{ "type": "Point", "coordinates": [-87.461371,38.797786]}},
{ "type": "Feature", "properties": {"Name":"Enchanted Hills CDP","State":"Indiana","State_Abbrev":"IN"},
"geometry":{ "type": "Point", "coordinates": [-85.67023,41.407043]}},
{ "type": "Feature", "properties": {"Name":"English town","State":"Indiana","State_Abbrev":"IN"},
"geometry":{ "type": "Point", "coordinates": [-86.459156,38.340763]}},
{ "type": "Feature", "properties": {"Name":"Etna Green town","State":"Indiana","State_Abbrev":"IN"},
"geometry":{ "type": "Point", "coordinates": [-86.042699,41.275521]}},
{ "type": "Feature", "properties": {"Name":"Eugene CDP","State":"Indiana","State_Abbrev":"IN"},
"geometry":{ "type": "Point", "coordinates": [-87.472616,39.962097]}},
{ "type": "Feature", "properties": {"Name":"Evansville city","State":"Indiana","State_Abbrev":"IN"},
"geometry":{ "type": "Point", "coordinates": [-87.534705,37.987737]}},
{ "type": "Feature", "properties": {"Name":"Everton CDP","State":"Indiana","State_Abbrev":"IN"},
"geometry":{ "type": "Point", "coordinates": [-85.0934,39.566356]}},
{ "type": "Feature", "properties": {"Name":"Fairbanks CDP","State":"Indiana","State_Abbrev":"IN"},
"geometry":{ "type": "Point", "coordinates": [-87.522917,39.218205]}},
{ "type": "Feature", "properties": {"Name":"Fairland town","State":"Indiana","State_Abbrev":"IN"},
"geometry":{ "type": "Point", "coordinates": [-85.862391,39.584783]}},
{ "type": "Feature", "properties": {"Name":"Fairmount town","State":"Indiana","State_Abbrev":"IN"},
"geometry":{ "type": "Point", "coordinates": [-85.647716,40.417256]}},
{ "type": "Feature", "properties": {"Name":"Fair Oaks CDP","State":"Indiana","State_Abbrev":"IN"},
"geometry":{ "type": "Point", "coordinates": [-87.25727,41.074583]}},
{ "type": "Feature", "properties": {"Name":"Fairview CDP","State":"Indiana","State_Abbrev":"IN"},
"geometry":{ "type": "Point", "coordinates": [-85.198243,40.298509]}},
{ "type": "Feature", "properties": {"Name":"Fairview Park town","State":"Indiana","State_Abbrev":"IN"},
"geometry":{ "type": "Point", "coordinates": [-87.414255,39.682072]}},
{ "type": "Feature", "properties": {"Name":"Farmersburg town","State":"Indiana","State_Abbrev":"IN"},
"geometry":{ "type": "Point", "coordinates": [-87.380728,39.252519]}},
{ "type": "Feature", "properties": {"Name":"Farmland town","State":"Indiana","State_Abbrev":"IN"},
"geometry":{ "type": "Point", "coordinates": [-85.127331,40.189537]}},
{ "type": "Feature", "properties": {"Name":"Ferdinand town","State":"Indiana","State_Abbrev":"IN"},
"geometry":{ "type": "Point", "coordinates": [-86.862459,38.227952]}},
{ "type": "Feature", "properties": {"Name":"Fillmore town","State":"Indiana","State_Abbrev":"IN"},
"geometry":{ "type": "Point", "coordinates": [-86.753173,39.669724]}},
{ "type": "Feature", "properties": {"Name":"Fishers city","State":"Indiana","State_Abbrev":"IN"},
"geometry":{ "type": "Point", "coordinates": [-85.968364,39.96183]}},
{ "type": "Feature", "properties": {"Name":"Fishersburg CDP","State":"Indiana","State_Abbrev":"IN"},
"geometry":{ "type": "Point", "coordinates": [-85.860512,40.071511]}},
{ "type": "Feature", "properties": {"Name":"Fish Lake CDP","State":"Indiana","State_Abbrev":"IN"},
"geometry":{ "type": "Point", "coordinates": [-86.545545,41.557502]}},
{ "type": "Feature", "properties": {"Name":"Flat Rock CDP","State":"Indiana","State_Abbrev":"IN"},
"geometry":{ "type": "Point", "coordinates": [-85.831424,39.361858]}},
{ "type": "Feature", "properties": {"Name":"Flora town","State":"Indiana","State_Abbrev":"IN"},
"geometry":{ "type": "Point", "coordinates": [-86.522568,40.545484]}},
{ "type": "Feature", "properties": {"Name":"Florence CDP","State":"Indiana","State_Abbrev":"IN"},
"geometry":{ "type": "Point", "coordinates": [-84.925784,38.78263]}},
{ "type": "Feature", "properties": {"Name":"Floyds Knobs CDP","State":"Indiana","State_Abbrev":"IN"},
"geometry":{ "type": "Point", "coordinates": [-85.884827,38.333304]}},
{ "type": "Feature", "properties": {"Name":"Folsomville CDP","State":"Indiana","State_Abbrev":"IN"},
"geometry":{ "type": "Point", "coordinates": [-87.16188,38.130019]}},
{ "type": "Feature", "properties": {"Name":"Fontanet CDP","State":"Indiana","State_Abbrev":"IN"},
"geometry":{ "type": "Point", "coordinates": [-87.245581,39.571364]}},
{ "type": "Feature", "properties": {"Name":"Forest CDP","State":"Indiana","State_Abbrev":"IN"},
"geometry":{ "type": "Point", "coordinates": [-86.33227,40.373861]}},
{ "type": "Feature", "properties": {"Name":"Fort Branch town","State":"Indiana","State_Abbrev":"IN"},
"geometry":{ "type": "Point", "coordinates": [-87.573215,38.245827]}},
{ "type": "Feature", "properties": {"Name":"Fortville town","State":"Indiana","State_Abbrev":"IN"},
"geometry":{ "type": "Point", "coordinates": [-85.845687,39.923515]}},
{ "type": "Feature", "properties": {"Name":"Fort Wayne city","State":"Indiana","State_Abbrev":"IN"},
"geometry":{ "type": "Point", "coordinates": [-85.1439,41.089132]}},
{ "type": "Feature", "properties": {"Name":"Foster CDP","State":"Indiana","State_Abbrev":"IN"},
"geometry":{ "type": "Point", "coordinates": [-87.468653,40.14157]}},
{ "type": "Feature", "properties": {"Name":"Fountain City town","State":"Indiana","State_Abbrev":"IN"},
"geometry":{ "type": "Point", "coordinates": [-84.919133,39.954739]}},
{ "type": "Feature", "properties": {"Name":"Fountaintown CDP","State":"Indiana","State_Abbrev":"IN"},
"geometry":{ "type": "Point", "coordinates": [-85.782009,39.69404]}},
{ "type": "Feature", "properties": {"Name":"Fowler town","State":"Indiana","State_Abbrev":"IN"},
"geometry":{ "type": "Point", "coordinates": [-87.317929,40.617228]}},
{ "type": "Feature", "properties": {"Name":"Fowlerton town","State":"Indiana","State_Abbrev":"IN"},
"geometry":{ "type": "Point", "coordinates": [-85.572755,40.409608]}},
{ "type": "Feature", "properties": {"Name":"Foxcliff Estates CDP","State":"Indiana","State_Abbrev":"IN"},
"geometry":{ "type": "Point", "coordinates": [-86.393733,39.479404]}},
{ "type": "Feature", "properties": {"Name":"Francesville town","State":"Indiana","State_Abbrev":"IN"},
"geometry":{ "type": "Point", "coordinates": [-86.883696,40.985297]}},
{ "type": "Feature", "properties": {"Name":"Francisco town","State":"Indiana","State_Abbrev":"IN"},
"geometry":{ "type": "Point", "coordinates": [-87.447985,38.33268]}},
{ "type": "Feature", "properties": {"Name":"Frankfort city","State":"Indiana","State_Abbrev":"IN"},
"geometry":{ "type": "Point", "coordinates": [-86.521254,40.281025]}},
{ "type": "Feature", "properties": {"Name":"Franklin city","State":"Indiana","State_Abbrev":"IN"},
"geometry":{ "type": "Point", "coordinates": [-86.050575,39.4949]}},
{ "type": "Feature", "properties": {"Name":"Frankton town","State":"Indiana","State_Abbrev":"IN"},
"geometry":{ "type": "Point", "coordinates": [-85.771983,40.221014]}},
{ "type": "Feature", "properties": {"Name":"Fredericksburg CDP","State":"Indiana","State_Abbrev":"IN"},
"geometry":{ "type": "Point", "coordinates": [-86.196183,38.435541]}},
{ "type": "Feature", "properties": {"Name":"Freelandville CDP","State":"Indiana","State_Abbrev":"IN"},
"geometry":{ "type": "Point", "coordinates": [-87.310217,38.865345]}},
{ "type": "Feature", "properties": {"Name":"Freetown CDP","State":"Indiana","State_Abbrev":"IN"},
"geometry":{ "type": "Point", "coordinates": [-86.130113,38.979118]}},
{ "type": "Feature", "properties": {"Name":"Fremont town","State":"Indiana","State_Abbrev":"IN"},
"geometry":{ "type": "Point", "coordinates": [-84.938855,41.727622]}},
{ "type": "Feature", "properties": {"Name":"French Lick town","State":"Indiana","State_Abbrev":"IN"},
"geometry":{ "type": "Point", "coordinates": [-86.619132,38.545551]}},
{ "type": "Feature", "properties": {"Name":"Fulton town","State":"Indiana","State_Abbrev":"IN"},
"geometry":{ "type": "Point", "coordinates": [-86.264206,40.946317]}},
{ "type": "Feature", "properties": {"Name":"Galena CDP","State":"Indiana","State_Abbrev":"IN"},
"geometry":{ "type": "Point", "coordinates": [-85.937858,38.357225]}},
{ "type": "Feature", "properties": {"Name":"Galveston town","State":"Indiana","State_Abbrev":"IN"},
"geometry":{ "type": "Point", "coordinates": [-86.192327,40.57669]}},
{ "type": "Feature", "properties": {"Name":"Garrett city","State":"Indiana","State_Abbrev":"IN"},
"geometry":{ "type": "Point", "coordinates": [-85.123752,41.352612]}},
{ "type": "Feature", "properties": {"Name":"Gary city","State":"Indiana","State_Abbrev":"IN"},
"geometry":{ "type": "Point", "coordinates": [-87.347113,41.59074]}},
{ "type": "Feature", "properties": {"Name":"Gas City city","State":"Indiana","State_Abbrev":"IN"},
"geometry":{ "type": "Point", "coordinates": [-85.594335,40.48865]}},
{ "type": "Feature", "properties": {"Name":"Gaston town","State":"Indiana","State_Abbrev":"IN"},
"geometry":{ "type": "Point", "coordinates": [-85.501005,40.314005]}},
{ "type": "Feature", "properties": {"Name":"Geneva town","State":"Indiana","State_Abbrev":"IN"},
"geometry":{ "type": "Point", "coordinates": [-84.957252,40.596721]}},
{ "type": "Feature", "properties": {"Name":"Geneva CDP","State":"Indiana","State_Abbrev":"IN"},
"geometry":{ "type": "Point", "coordinates": [-85.71749,39.391154]}},
{ "type": "Feature", "properties": {"Name":"Gentryville town","State":"Indiana","State_Abbrev":"IN"},
"geometry":{ "type": "Point", "coordinates": [-87.033965,38.110003]}},
{ "type": "Feature", "properties": {"Name":"Georgetown town","State":"Indiana","State_Abbrev":"IN"},
"geometry":{ "type": "Point", "coordinates": [-85.963055,38.298796]}},
{ "type": "Feature", "properties": {"Name":"Gilmer Park CDP","State":"Indiana","State_Abbrev":"IN"},
"geometry":{ "type": "Point", "coordinates": [-86.247637,41.614612]}},
{ "type": "Feature", "properties": {"Name":"Glenwood town","State":"Indiana","State_Abbrev":"IN"},
"geometry":{ "type": "Point", "coordinates": [-85.302437,39.625586]}},
{ "type": "Feature", "properties": {"Name":"Glezen CDP","State":"Indiana","State_Abbrev":"IN"},
"geometry":{ "type": "Point", "coordinates": [-87.309967,38.417314]}},
{ "type": "Feature", "properties": {"Name":"Goldsmith CDP","State":"Indiana","State_Abbrev":"IN"},
"geometry":{ "type": "Point", "coordinates": [-86.150662,40.29072]}},
{ "type": "Feature", "properties": {"Name":"Goodland town","State":"Indiana","State_Abbrev":"IN"},
"geometry":{ "type": "Point", "coordinates": [-87.295204,40.763711]}},
{ "type": "Feature", "properties": {"Name":"Goshen city","State":"Indiana","State_Abbrev":"IN"},
"geometry":{ "type": "Point", "coordinates": [-85.829986,41.573884]}},
{ "type": "Feature", "properties": {"Name":"Gosport town","State":"Indiana","State_Abbrev":"IN"},
"geometry":{ "type": "Point", "coordinates": [-86.666456,39.350685]}},
{ "type": "Feature", "properties": {"Name":"Grabill town","State":"Indiana","State_Abbrev":"IN"},
"geometry":{ "type": "Point", "coordinates": [-84.968158,41.209468]}},
{ "type": "Feature", "properties": {"Name":"Grammer CDP","State":"Indiana","State_Abbrev":"IN"},
"geometry":{ "type": "Point", "coordinates": [-85.725931,39.152641]}},
{ "type": "Feature", "properties": {"Name":"Grandview town","State":"Indiana","State_Abbrev":"IN"},
"geometry":{ "type": "Point", "coordinates": [-86.983432,37.936029]}},
{ "type": "Feature", "properties": {"Name":"Grandview Lake CDP","State":"Indiana","State_Abbrev":"IN"},
"geometry":{ "type": "Point", "coordinates": [-86.03957,39.151634]}},
{ "type": "Feature", "properties": {"Name":"Granger CDP","State":"Indiana","State_Abbrev":"IN"},
"geometry":{ "type": "Point", "coordinates": [-86.134382,41.737729]}},
{ "type": "Feature", "properties": {"Name":"Grantsburg CDP","State":"Indiana","State_Abbrev":"IN"},
"geometry":{ "type": "Point", "coordinates": [-86.470519,38.291314]}},
{ "type": "Feature", "properties": {"Name":"Grayford CDP","State":"Indiana","State_Abbrev":"IN"},
"geometry":{ "type": "Point", "coordinates": [-85.577908,38.963369]}},
{ "type": "Feature", "properties": {"Name":"Graysville CDP","State":"Indiana","State_Abbrev":"IN"},
"geometry":{ "type": "Point", "coordinates": [-87.555694,39.118006]}},
{ "type": "Feature", "properties": {"Name":"Greencastle city","State":"Indiana","State_Abbrev":"IN"},
"geometry":{ "type": "Point", "coordinates": [-86.846339,39.641841]}},
{ "type": "Feature", "properties": {"Name":"Greendale city","State":"Indiana","State_Abbrev":"IN"},
"geometry":{ "type": "Point", "coordinates": [-84.829924,39.147725]}},
{ "type": "Feature", "properties": {"Name":"Greenfield city","State":"Indiana","State_Abbrev":"IN"},
"geometry":{ "type": "Point", "coordinates": [-85.772548,39.793283]}},
{ "type": "Feature", "properties": {"Name":"Green Hill CDP","State":"Indiana","State_Abbrev":"IN"},
"geometry":{ "type": "Point", "coordinates": [-87.111797,40.413608]}},
{ "type": "Feature", "properties": {"Name":"Greensboro town","State":"Indiana","State_Abbrev":"IN"},
"geometry":{ "type": "Point", "coordinates": [-85.463972,39.878548]}},
{ "type": "Feature", "properties": {"Name":"Greensburg city","State":"Indiana","State_Abbrev":"IN"},
"geometry":{ "type": "Point", "coordinates": [-85.501189,39.351019]}},
{ "type": "Feature", "properties": {"Name":"Greens Fork town","State":"Indiana","State_Abbrev":"IN"},
"geometry":{ "type": "Point", "coordinates": [-85.03915,39.891458]}},
{ "type": "Feature", "properties": {"Name":"Greentown town","State":"Indiana","State_Abbrev":"IN"},
"geometry":{ "type": "Point", "coordinates": [-85.962546,40.4775]}},
{ "type": "Feature", "properties": {"Name":"Greenville town","State":"Indiana","State_Abbrev":"IN"},
"geometry":{ "type": "Point", "coordinates": [-85.982203,38.372589]}},
{ "type": "Feature", "properties": {"Name":"Greenwood city","State":"Indiana","State_Abbrev":"IN"},
"geometry":{ "type": "Point", "coordinates": [-86.108505,39.60299]}},
{ "type": "Feature", "properties": {"Name":"Griffin town","State":"Indiana","State_Abbrev":"IN"},
"geometry":{ "type": "Point", "coordinates": [-87.91492,38.204304]}},
{ "type": "Feature", "properties": {"Name":"Griffith town","State":"Indiana","State_Abbrev":"IN"},
"geometry":{ "type": "Point", "coordinates": [-87.423882,41.527646]}},
{ "type": "Feature", "properties": {"Name":"Grissom AFB CDP","State":"Indiana","State_Abbrev":"IN"},
"geometry":{ "type": "Point", "coordinates": [-86.145425,40.657128]}},
{ "type": "Feature", "properties": {"Name":"Groveland CDP","State":"Indiana","State_Abbrev":"IN"},
"geometry":{ "type": "Point", "coordinates": [-86.72292,39.762392]}},
{ "type": "Feature", "properties": {"Name":"Groverton CDP","State":"Indiana","State_Abbrev":"IN"},
"geometry":{ "type": "Point", "coordinates": [-86.506007,41.375783]}},
{ "type": "Feature", "properties": {"Name":"Gwynneville CDP","State":"Indiana","State_Abbrev":"IN"},
"geometry":{ "type": "Point", "coordinates": [-85.649119,39.662009]}},
{ "type": "Feature", "properties": {"Name":"Hagerstown town","State":"Indiana","State_Abbrev":"IN"},
"geometry":{ "type": "Point", "coordinates": [-85.15425,39.914581]}},
{ "type": "Feature", "properties": {"Name":"Hamburg CDP","State":"Indiana","State_Abbrev":"IN"},
"geometry":{ "type": "Point", "coordinates": [-85.252283,39.38169]}},
{ "type": "Feature", "properties": {"Name":"Hamilton town","State":"Indiana","State_Abbrev":"IN"},
"geometry":{ "type": "Point", "coordinates": [-84.919827,41.540188]}},
{ "type": "Feature", "properties": {"Name":"Hamlet town","State":"Indiana","State_Abbrev":"IN"},
"geometry":{ "type": "Point", "coordinates": [-86.583216,41.379372]}},
{ "type": "Feature", "properties": {"Name":"Hammond city","State":"Indiana","State_Abbrev":"IN"},
"geometry":{ "type": "Point", "coordinates": [-87.494949,41.618736]}},
{ "type": "Feature", "properties": {"Name":"Hanna CDP","State":"Indiana","State_Abbrev":"IN"},
"geometry":{ "type": "Point", "coordinates": [-86.779449,41.412027]}},
{ "type": "Feature", "properties": {"Name":"Hanover town","State":"Indiana","State_Abbrev":"IN"},
"geometry":{ "type": "Point", "coordinates": [-85.467168,38.707483]}},
{ "type": "Feature", "properties": {"Name":"Hardinsburg town","State":"Indiana","State_Abbrev":"IN"},
"geometry":{ "type": "Point", "coordinates": [-86.276354,38.466505]}},
{ "type": "Feature", "properties": {"Name":"Harlan CDP","State":"Indiana","State_Abbrev":"IN"},
"geometry":{ "type": "Point", "coordinates": [-84.922998,41.197639]}},
{ "type": "Feature", "properties": {"Name":"Harmony town","State":"Indiana","State_Abbrev":"IN"},
"geometry":{ "type": "Point", "coordinates": [-87.073125,39.533682]}},
{ "type": "Feature", "properties": {"Name":"Harrison Lake CDP","State":"Indiana","State_Abbrev":"IN"},
"geometry":{ "type": "Point", "coordinates": [-86.026232,39.184514]}},
{ "type": "Feature", "properties": {"Name":"Harrodsburg CDP","State":"Indiana","State_Abbrev":"IN"},
"geometry":{ "type": "Point", "coordinates": [-86.554103,39.01708]}},
{ "type": "Feature", "properties": {"Name":"Hartford City city","State":"Indiana","State_Abbrev":"IN"},
"geometry":{ "type": "Point", "coordinates": [-85.373184,40.453659]}},
{ "type": "Feature", "properties": {"Name":"Hartsville town","State":"Indiana","State_Abbrev":"IN"},
"geometry":{ "type": "Point", "coordinates": [-85.699189,39.266964]}},
{ "type": "Feature", "properties": {"Name":"Hashtown CDP","State":"Indiana","State_Abbrev":"IN"},
"geometry":{ "type": "Point", "coordinates": [-86.923187,39.023928]}},
{ "type": "Feature", "properties": {"Name":"Hatfield CDP","State":"Indiana","State_Abbrev":"IN"},
"geometry":{ "type": "Point", "coordinates": [-87.220719,37.904019]}},
{ "type": "Feature", "properties": {"Name":"Haubstadt town","State":"Indiana","State_Abbrev":"IN"},
"geometry":{ "type": "Point", "coordinates": [-87.574735,38.203242]}},
{ "type": "Feature", "properties": {"Name":"Hayden CDP","State":"Indiana","State_Abbrev":"IN"},
"geometry":{ "type": "Point", "coordinates": [-85.738896,38.971424]}},
{ "type": "Feature", "properties": {"Name":"Haysville CDP","State":"Indiana","State_Abbrev":"IN"},
"geometry":{ "type": "Point", "coordinates": [-86.905855,38.490103]}},
{ "type": "Feature", "properties": {"Name":"Hazleton town","State":"Indiana","State_Abbrev":"IN"},
"geometry":{ "type": "Point", "coordinates": [-87.539426,38.488401]}},
{ "type": "Feature", "properties": {"Name":"Hartz Lake CDP","State":"Indiana","State_Abbrev":"IN"},
"geometry":{ "type": "Point", "coordinates": [-86.497975,41.177881]}},
{ "type": "Feature", "properties": {"Name":"Hebron town","State":"Indiana","State_Abbrev":"IN"},
"geometry":{ "type": "Point", "coordinates": [-87.201916,41.325085]}},
{ "type": "Feature", "properties": {"Name":"Hedrick CDP","State":"Indiana","State_Abbrev":"IN"},
"geometry":{ "type": "Point", "coordinates": [-87.492397,40.303093]}},
{ "type": "Feature", "properties": {"Name":"Helmer CDP","State":"Indiana","State_Abbrev":"IN"},
"geometry":{ "type": "Point", "coordinates": [-85.171156,41.532706]}},
{ "type": "Feature", "properties": {"Name":"Helmsburg CDP","State":"Indiana","State_Abbrev":"IN"},
"geometry":{ "type": "Point", "coordinates": [-86.296334,39.267793]}},
{ "type": "Feature", "properties": {"Name":"Heltonville CDP","State":"Indiana","State_Abbrev":"IN"},
"geometry":{ "type": "Point", "coordinates": [-86.373715,38.930162]}},
{ "type": "Feature", "properties": {"Name":"Hemlock CDP","State":"Indiana","State_Abbrev":"IN"},
"geometry":{ "type": "Point", "coordinates": [-86.041934,40.419233]}},
{ "type": "Feature", "properties": {"Name":"Henryville CDP","State":"Indiana","State_Abbrev":"IN"},
"geometry":{ "type": "Point", "coordinates": [-85.766283,38.538634]}},
{ "type": "Feature", "properties": {"Name":"Herbst CDP","State":"Indiana","State_Abbrev":"IN"},
"geometry":{ "type": "Point", "coordinates": [-85.787411,40.513774]}},
{ "type": "Feature", "properties": {"Name":"Heritage Lake CDP","State":"Indiana","State_Abbrev":"IN"},
"geometry":{ "type": "Point", "coordinates": [-86.70723,39.737093]}},
{ "type": "Feature", "properties": {"Name":"Hessen Cassel CDP","State":"Indiana","State_Abbrev":"IN"},
"geometry":{ "type": "Point", "coordinates": [-85.072275,40.977048]}},
{ "type": "Feature", "properties": {"Name":"Hidden Valley CDP","State":"Indiana","State_Abbrev":"IN"},
"geometry":{ "type": "Point", "coordinates": [-84.844952,39.168288]}},
{ "type": "Feature", "properties": {"Name":"Highland town","State":"Indiana","State_Abbrev":"IN"},
"geometry":{ "type": "Point", "coordinates": [-87.457616,41.546622]}},
{ "type": "Feature", "properties": {"Name":"Highland CDP","State":"Indiana","State_Abbrev":"IN"},
"geometry":{ "type": "Point", "coordinates": [-87.561715,38.046149]}},
{ "type": "Feature", "properties": {"Name":"Hillisburg CDP","State":"Indiana","State_Abbrev":"IN"},
"geometry":{ "type": "Point", "coordinates": [-86.339856,40.286195]}},
{ "type": "Feature", "properties": {"Name":"Hillsboro town","State":"Indiana","State_Abbrev":"IN"},
"geometry":{ "type": "Point", "coordinates": [-87.157607,40.108825]}},
{ "type": "Feature", "properties": {"Name":"Hillsdale CDP","State":"Indiana","State_Abbrev":"IN"},
"geometry":{ "type": "Point", "coordinates": [-87.391752,39.784557]}},
{ "type": "Feature", "properties": {"Name":"Hoagland CDP","State":"Indiana","State_Abbrev":"IN"},
"geometry":{ "type": "Point", "coordinates": [-84.995472,40.951963]}},
{ "type": "Feature", "properties": {"Name":"Hobart city","State":"Indiana","State_Abbrev":"IN"},
"geometry":{ "type": "Point", "coordinates": [-87.276399,41.51353]}},
{ "type": "Feature", "properties": {"Name":"Hobbs CDP","State":"Indiana","State_Abbrev":"IN"},
"geometry":{ "type": "Point", "coordinates": [-85.952728,40.284952]}},
{ "type": "Feature", "properties": {"Name":"Hoffman Lake CDP","State":"Indiana","State_Abbrev":"IN"},
"geometry":{ "type": "Point", "coordinates": [-85.990634,41.274869]}},
{ "type": "Feature", "properties": {"Name":"Holiday Woods CDP","State":"Indiana","State_Abbrev":"IN"},
"geometry":{ "type": "Point", "coordinates": [-85.071536,41.623248]}},
{ "type": "Feature", "properties": {"Name":"Holland town","State":"Indiana","State_Abbrev":"IN"},
"geometry":{ "type": "Point", "coordinates": [-87.038284,38.246024]}},
{ "type": "Feature", "properties": {"Name":"Holton town","State":"Indiana","State_Abbrev":"IN"},
"geometry":{ "type": "Point", "coordinates": [-85.384652,39.07525]}},
{ "type": "Feature", "properties": {"Name":"Homecroft town","State":"Indiana","State_Abbrev":"IN"},
"geometry":{ "type": "Point", "coordinates": [-86.131174,39.669584]}},
{ "type": "Feature", "properties": {"Name":"Homer CDP","State":"Indiana","State_Abbrev":"IN"},
"geometry":{ "type": "Point", "coordinates": [-85.5774,39.578441]}},
{ "type": "Feature", "properties": {"Name":"Hope town","State":"Indiana","State_Abbrev":"IN"},
"geometry":{ "type": "Point", "coordinates": [-85.765976,39.299263]}},
{ "type": "Feature", "properties": {"Name":"Hortonville CDP","State":"Indiana","State_Abbrev":"IN"},
"geometry":{ "type": "Point", "coordinates": [-86.156409,40.088907]}},
{ "type": "Feature", "properties": {"Name":"Howe CDP","State":"Indiana","State_Abbrev":"IN"},
"geometry":{ "type": "Point", "coordinates": [-85.425486,41.722822]}},
{ "type": "Feature", "properties": {"Name":"Hudson town","State":"Indiana","State_Abbrev":"IN"},
"geometry":{ "type": "Point", "coordinates": [-85.084035,41.531821]}},
{ "type": "Feature", "properties": {"Name":"Hudson Lake CDP","State":"Indiana","State_Abbrev":"IN"},
"geometry":{ "type": "Point", "coordinates": [-86.550747,41.711491]}},
{ "type": "Feature", "properties": {"Name":"Huntertown town","State":"Indiana","State_Abbrev":"IN"},
"geometry":{ "type": "Point", "coordinates": [-85.170255,41.221557]}},
{ "type": "Feature", "properties": {"Name":"Huntingburg city","State":"Indiana","State_Abbrev":"IN"},
"geometry":{ "type": "Point", "coordinates": [-86.961909,38.300925]}},
{ "type": "Feature", "properties": {"Name":"Huntington city","State":"Indiana","State_Abbrev":"IN"},
"geometry":{ "type": "Point", "coordinates": [-85.505497,40.880825]}},
{ "type": "Feature", "properties": {"Name":"Huron CDP","State":"Indiana","State_Abbrev":"IN"},
"geometry":{ "type": "Point", "coordinates": [-86.67087,38.72102]}},
{ "type": "Feature", "properties": {"Name":"Hymera town","State":"Indiana","State_Abbrev":"IN"},
"geometry":{ "type": "Point", "coordinates": [-87.298928,39.185877]}},
{ "type": "Feature", "properties": {"Name":"Idaville CDP","State":"Indiana","State_Abbrev":"IN"},
"geometry":{ "type": "Point", "coordinates": [-86.650563,40.758765]}},
{ "type": "Feature", "properties": {"Name":"Independence CDP","State":"Indiana","State_Abbrev":"IN"},
"geometry":{ "type": "Point", "coordinates": [-87.171645,40.337949]}},
{ "type": "Feature", "properties": {"Name":"Indianapolis city (balance)","State":"Indiana","State_Abbrev":"IN"},
"geometry":{ "type": "Point", "coordinates": [-86.145935,39.776664]}},
{ "type": "Feature", "properties": {"Name":"Indian Village town","State":"Indiana","State_Abbrev":"IN"},
"geometry":{ "type": "Point", "coordinates": [-86.232189,41.714238]}},
{ "type": "Feature", "properties": {"Name":"Ingalls town","State":"Indiana","State_Abbrev":"IN"},
"geometry":{ "type": "Point", "coordinates": [-85.805753,39.95895]}},
{ "type": "Feature", "properties": {"Name":"Ireland CDP","State":"Indiana","State_Abbrev":"IN"},
"geometry":{ "type": "Point", "coordinates": [-86.998844,38.414399]}},
{ "type": "Feature", "properties": {"Name":"Jalapa CDP","State":"Indiana","State_Abbrev":"IN"},
"geometry":{ "type": "Point", "coordinates": [-85.741206,40.624826]}},
{ "type": "Feature", "properties": {"Name":"Jamestown town","State":"Indiana","State_Abbrev":"IN"},
"geometry":{ "type": "Point", "coordinates": [-86.626033,39.928634]}},
{ "type": "Feature", "properties": {"Name":"Jasonville city","State":"Indiana","State_Abbrev":"IN"},
"geometry":{ "type": "Point", "coordinates": [-87.199616,39.161476]}},
{ "type": "Feature", "properties": {"Name":"Jasper city","State":"Indiana","State_Abbrev":"IN"},
"geometry":{ "type": "Point", "coordinates": [-86.940575,38.393152]}},
{ "type": "Feature", "properties": {"Name":"Jefferson CDP","State":"Indiana","State_Abbrev":"IN"},
"geometry":{ "type": "Point", "coordinates": [-86.591069,40.279292]}},
{ "type": "Feature", "properties": {"Name":"Jeffersonville city","State":"Indiana","State_Abbrev":"IN"},
"geometry":{ "type": "Point", "coordinates": [-85.696087,38.332415]}},
{ "type": "Feature", "properties": {"Name":"Jerome CDP","State":"Indiana","State_Abbrev":"IN"},
"geometry":{ "type": "Point", "coordinates": [-85.932874,40.456596]}},
{ "type": "Feature", "properties": {"Name":"Jimmerson Lake CDP","State":"Indiana","State_Abbrev":"IN"},
"geometry":{ "type": "Point", "coordinates": [-85.060468,41.702213]}},
{ "type": "Feature", "properties": {"Name":"Johnson CDP","State":"Indiana","State_Abbrev":"IN"},
"geometry":{ "type": "Point", "coordinates": [-87.748101,38.274042]}},
{ "type": "Feature", "properties": {"Name":"Jonesboro city","State":"Indiana","State_Abbrev":"IN"},
"geometry":{ "type": "Point", "coordinates": [-85.630385,40.479731]}},
{ "type": "Feature", "properties": {"Name":"Jonesville town","State":"Indiana","State_Abbrev":"IN"},
"geometry":{ "type": "Point", "coordinates": [-85.88785,39.05972]}},
{ "type": "Feature", "properties": {"Name":"Judah CDP","State":"Indiana","State_Abbrev":"IN"},
"geometry":{ "type": "Point", "coordinates": [-86.54239,38.959599]}},
{ "type": "Feature", "properties": {"Name":"Judson CDP","State":"Indiana","State_Abbrev":"IN"},
"geometry":{ "type": "Point", "coordinates": [-87.135947,39.813527]}},
{ "type": "Feature", "properties": {"Name":"Judyville CDP","State":"Indiana","State_Abbrev":"IN"},
"geometry":{ "type": "Point", "coordinates": [-87.396812,40.358407]}},
{ "type": "Feature", "properties": {"Name":"Kempton town","State":"Indiana","State_Abbrev":"IN"},
"geometry":{ "type": "Point", "coordinates": [-86.229634,40.287826]}},
{ "type": "Feature", "properties": {"Name":"Kendallville city","State":"Indiana","State_Abbrev":"IN"},
"geometry":{ "type": "Point", "coordinates": [-85.258154,41.443361]}},
{ "type": "Feature", "properties": {"Name":"Kennard town","State":"Indiana","State_Abbrev":"IN"},
"geometry":{ "type": "Point", "coordinates": [-85.522131,39.906345]}},
{ "type": "Feature", "properties": {"Name":"Kent CDP","State":"Indiana","State_Abbrev":"IN"},
"geometry":{ "type": "Point", "coordinates": [-85.539199,38.737369]}},
{ "type": "Feature", "properties": {"Name":"Kentland town","State":"Indiana","State_Abbrev":"IN"},
"geometry":{ "type": "Point", "coordinates": [-87.446454,40.773951]}},
{ "type": "Feature", "properties": {"Name":"Kewanna town","State":"Indiana","State_Abbrev":"IN"},
"geometry":{ "type": "Point", "coordinates": [-86.412545,41.019332]}},
{ "type": "Feature", "properties": {"Name":"Keystone CDP","State":"Indiana","State_Abbrev":"IN"},
"geometry":{ "type": "Point", "coordinates": [-85.262463,40.592152]}},
{ "type": "Feature", "properties": {"Name":"Kimmell CDP","State":"Indiana","State_Abbrev":"IN"},
"geometry":{ "type": "Point", "coordinates": [-85.548967,41.393993]}},
{ "type": "Feature", "properties": {"Name":"Kingman town","State":"Indiana","State_Abbrev":"IN"},
"geometry":{ "type": "Point", "coordinates": [-87.278181,39.96635]}},
{ "type": "Feature", "properties": {"Name":"Kingsbury town","State":"Indiana","State_Abbrev":"IN"},
"geometry":{ "type": "Point", "coordinates": [-86.697191,41.530212]}},
{ "type": "Feature", "properties": {"Name":"Kingsford Heights town","State":"Indiana","State_Abbrev":"IN"},
"geometry":{ "type": "Point", "coordinates": [-86.693015,41.478395]}},
{ "type": "Feature", "properties": {"Name":"Kirklin town","State":"Indiana","State_Abbrev":"IN"},
"geometry":{ "type": "Point", "coordinates": [-86.359192,40.192783]}},
{ "type": "Feature", "properties": {"Name":"Knightstown town","State":"Indiana","State_Abbrev":"IN"},
"geometry":{ "type": "Point", "coordinates": [-85.530811,39.795537]}},
{ "type": "Feature", "properties": {"Name":"Knightsville town","State":"Indiana","State_Abbrev":"IN"},
"geometry":{ "type": "Point", "coordinates": [-87.089134,39.525352]}},
{ "type": "Feature", "properties": {"Name":"Knox city","State":"Indiana","State_Abbrev":"IN"},
"geometry":{ "type": "Point", "coordinates": [-86.621247,41.291003]}},
{ "type": "Feature", "properties": {"Name":"Kokomo city","State":"Indiana","State_Abbrev":"IN"},
"geometry":{ "type": "Point", "coordinates": [-86.127349,40.464011]}},
{ "type": "Feature", "properties": {"Name":"Koontz Lake CDP","State":"Indiana","State_Abbrev":"IN"},
"geometry":{ "type": "Point", "coordinates": [-86.47809,41.412205]}},
{ "type": "Feature", "properties": {"Name":"Kouts town","State":"Indiana","State_Abbrev":"IN"},
"geometry":{ "type": "Point", "coordinates": [-87.026581,41.317175]}},
{ "type": "Feature", "properties": {"Name":"Kramer CDP","State":"Indiana","State_Abbrev":"IN"},
"geometry":{ "type": "Point", "coordinates": [-87.285081,40.338958]}},
{ "type": "Feature", "properties": {"Name":"Laconia town","State":"Indiana","State_Abbrev":"IN"},
"geometry":{ "type": "Point", "coordinates": [-86.085523,38.031806]}},
{ "type": "Feature", "properties": {"Name":"La Crosse town","State":"Indiana","State_Abbrev":"IN"},
"geometry":{ "type": "Point", "coordinates": [-86.889786,41.31777]}},
{ "type": "Feature", "properties": {"Name":"Ladoga town","State":"Indiana","State_Abbrev":"IN"},
"geometry":{ "type": "Point", "coordinates": [-86.799029,39.916642]}},
{ "type": "Feature", "properties": {"Name":"Lafayette city","State":"Indiana","State_Abbrev":"IN"},
"geometry":{ "type": "Point", "coordinates": [-86.862806,40.39941]}},
{ "type": "Feature", "properties": {"Name":"La Fontaine town","State":"Indiana","State_Abbrev":"IN"},
"geometry":{ "type": "Point", "coordinates": [-85.722023,40.673893]}},
{ "type": "Feature", "properties": {"Name":"Lagrange town","State":"Indiana","State_Abbrev":"IN"},
"geometry":{ "type": "Point", "coordinates": [-85.418071,41.648151]}},
{ "type": "Feature", "properties": {"Name":"Lagro town","State":"Indiana","State_Abbrev":"IN"},
"geometry":{ "type": "Point", "coordinates": [-85.727893,40.841715]}},
{ "type": "Feature", "properties": {"Name":"Lake Bruce CDP","State":"Indiana","State_Abbrev":"IN"},
"geometry":{ "type": "Point", "coordinates": [-86.465203,41.073456]}},
{ "type": "Feature", "properties": {"Name":"Lake Cicott CDP","State":"Indiana","State_Abbrev":"IN"},
"geometry":{ "type": "Point", "coordinates": [-86.536901,40.765872]}},
{ "type": "Feature", "properties": {"Name":"Lake Dalecarlia CDP","State":"Indiana","State_Abbrev":"IN"},
"geometry":{ "type": "Point", "coordinates": [-87.402809,41.337556]}},
{ "type": "Feature", "properties": {"Name":"Lake Eliza CDP","State":"Indiana","State_Abbrev":"IN"},
"geometry":{ "type": "Point", "coordinates": [-87.181697,41.429123]}},
{ "type": "Feature", "properties": {"Name":"Lake Everett CDP","State":"Indiana","State_Abbrev":"IN"},
"geometry":{ "type": "Point", "coordinates": [-85.315589,41.157461]}},
{ "type": "Feature", "properties": {"Name":"Lake Holiday CDP","State":"Indiana","State_Abbrev":"IN"},
"geometry":{ "type": "Point", "coordinates": [-86.959925,39.963522]}},
{ "type": "Feature", "properties": {"Name":"Lake Holiday Hideaway CDP","State":"Indiana","State_Abbrev":"IN"},
"geometry":{ "type": "Point", "coordinates": [-87.309098,39.993372]}},
{ "type": "Feature", "properties": {"Name":"Lake of the Woods CDP","State":"Indiana","State_Abbrev":"IN"},
"geometry":{ "type": "Point", "coordinates": [-86.223227,41.42226]}},
{ "type": "Feature", "properties": {"Name":"Lake Santee CDP","State":"Indiana","State_Abbrev":"IN"},
"geometry":{ "type": "Point", "coordinates": [-85.307703,39.410327]}},
{ "type": "Feature", "properties": {"Name":"Lakeshore Resort CDP","State":"Indiana","State_Abbrev":"IN"},
"geometry":{ "type": "Point", "coordinates": [-85.021009,39.513186]}},
{ "type": "Feature", "properties": {"Name":"Lakes of the Four Seasons CDP","State":"Indiana","State_Abbrev":"IN"},
"geometry":{ "type": "Point", "coordinates": [-87.221375,41.403672]}},
{ "type": "Feature", "properties": {"Name":"Lake Station city","State":"Indiana","State_Abbrev":"IN"},
"geometry":{ "type": "Point", "coordinates": [-87.252878,41.576735]}},
{ "type": "Feature", "properties": {"Name":"Laketon CDP","State":"Indiana","State_Abbrev":"IN"},
"geometry":{ "type": "Point", "coordinates": [-85.839996,40.981213]}},
{ "type": "Feature", "properties": {"Name":"Lake View CDP","State":"Indiana","State_Abbrev":"IN"},
"geometry":{ "type": "Point", "coordinates": [-85.248328,39.481411]}},
{ "type": "Feature", "properties": {"Name":"Lake Village CDP","State":"Indiana","State_Abbrev":"IN"},
"geometry":{ "type": "Point", "coordinates": [-87.439024,41.13083]}},
{ "type": "Feature", "properties": {"Name":"Lakeville town","State":"Indiana","State_Abbrev":"IN"},
"geometry":{ "type": "Point", "coordinates": [-86.275381,41.528472]}},
{ "type": "Feature", "properties": {"Name":"Lakewood CDP","State":"Indiana","State_Abbrev":"IN"},
"geometry":{ "type": "Point", "coordinates": [-87.302043,39.396513]}},
{ "type": "Feature", "properties": {"Name":"Lamb CDP","State":"Indiana","State_Abbrev":"IN"},
"geometry":{ "type": "Point", "coordinates": [-85.197442,38.692716]}},
{ "type": "Feature", "properties": {"Name":"Landess CDP","State":"Indiana","State_Abbrev":"IN"},
"geometry":{ "type": "Point", "coordinates": [-85.559291,40.612611]}},
{ "type": "Feature", "properties": {"Name":"Lanesville town","State":"Indiana","State_Abbrev":"IN"},
"geometry":{ "type": "Point", "coordinates": [-85.982101,38.239405]}},
{ "type": "Feature", "properties": {"Name":"Laotto CDP","State":"Indiana","State_Abbrev":"IN"},
"geometry":{ "type": "Point", "coordinates": [-85.198985,41.291032]}},
{ "type": "Feature", "properties": {"Name":"La Paz town","State":"Indiana","State_Abbrev":"IN"},
"geometry":{ "type": "Point", "coordinates": [-86.308131,41.456159]}},
{ "type": "Feature", "properties": {"Name":"Lapel town","State":"Indiana","State_Abbrev":"IN"},
"geometry":{ "type": "Point", "coordinates": [-85.84056,40.033364]}},
{ "type": "Feature", "properties": {"Name":"La Porte city","State":"Indiana","State_Abbrev":"IN"},
"geometry":{ "type": "Point", "coordinates": [-86.713639,41.606978]}},
{ "type": "Feature", "properties": {"Name":"Larwill town","State":"Indiana","State_Abbrev":"IN"},
"geometry":{ "type": "Point", "coordinates": [-85.623856,41.179332]}},
{ "type": "Feature", "properties": {"Name":"Laud CDP","State":"Indiana","State_Abbrev":"IN"},
"geometry":{ "type": "Point", "coordinates": [-85.450054,41.048284]}},
{ "type": "Feature", "properties": {"Name":"Laurel town","State":"Indiana","State_Abbrev":"IN"},
"geometry":{ "type": "Point", "coordinates": [-85.187882,39.502037]}},
{ "type": "Feature", "properties": {"Name":"Lawrence city","State":"Indiana","State_Abbrev":"IN"},
"geometry":{ "type": "Point", "coordinates": [-85.989646,39.865956]}},
{ "type": "Feature", "properties": {"Name":"Lawrenceburg city","State":"Indiana","State_Abbrev":"IN"},
"geometry":{ "type": "Point", "coordinates": [-84.87577,39.107385]}},
{ "type": "Feature", "properties": {"Name":"Lawrenceport CDP","State":"Indiana","State_Abbrev":"IN"},
"geometry":{ "type": "Point", "coordinates": [-86.390128,38.747134]}},
{ "type": "Feature", "properties": {"Name":"Leavenworth town","State":"Indiana","State_Abbrev":"IN"},
"geometry":{ "type": "Point", "coordinates": [-86.350105,38.200084]}},
{ "type": "Feature", "properties": {"Name":"Lebanon city","State":"Indiana","State_Abbrev":"IN"},
"geometry":{ "type": "Point", "coordinates": [-86.448155,40.033106]}},
{ "type": "Feature", "properties": {"Name":"Leesburg town","State":"Indiana","State_Abbrev":"IN"},
"geometry":{ "type": "Point", "coordinates": [-85.848989,41.330692]}},
{ "type": "Feature", "properties": {"Name":"Leiters Ford CDP","State":"Indiana","State_Abbrev":"IN"},
"geometry":{ "type": "Point", "coordinates": [-86.379886,41.117585]}},
{ "type": "Feature", "properties": {"Name":"Leo-Cedarville town","State":"Indiana","State_Abbrev":"IN"},
"geometry":{ "type": "Point", "coordinates": [-85.021856,41.220642]}},
{ "type": "Feature", "properties": {"Name":"Leopold CDP","State":"Indiana","State_Abbrev":"IN"},
"geometry":{ "type": "Point", "coordinates": [-86.582829,38.103669]}},
{ "type": "Feature", "properties": {"Name":"Letts CDP","State":"Indiana","State_Abbrev":"IN"},
"geometry":{ "type": "Point", "coordinates": [-85.568531,39.233996]}},
{ "type": "Feature", "properties": {"Name":"Lewis CDP","State":"Indiana","State_Abbrev":"IN"},
"geometry":{ "type": "Point", "coordinates": [-87.255305,39.260111]}},
{ "type": "Feature", "properties": {"Name":"Lewisville town","State":"Indiana","State_Abbrev":"IN"},
"geometry":{ "type": "Point", "coordinates": [-85.353095,39.806604]}},
{ "type": "Feature", "properties": {"Name":"Liberty town","State":"Indiana","State_Abbrev":"IN"},
"geometry":{ "type": "Point", "coordinates": [-84.927304,39.634857]}},
{ "type": "Feature", "properties": {"Name":"Liberty Center CDP","State":"Indiana","State_Abbrev":"IN"},
"geometry":{ "type": "Point", "coordinates": [-85.273829,40.703669]}},
{ "type": "Feature", "properties": {"Name":"Liberty Mills CDP","State":"Indiana","State_Abbrev":"IN"},
"geometry":{ "type": "Point", "coordinates": [-85.738283,41.042064]}},
{ "type": "Feature", "properties": {"Name":"Libertyville CDP","State":"Indiana","State_Abbrev":"IN"},
"geometry":{ "type": "Point", "coordinates": [-87.5182,39.604992]}},
{ "type": "Feature", "properties": {"Name":"Ligonier city","State":"Indiana","State_Abbrev":"IN"},
"geometry":{ "type": "Point", "coordinates": [-85.595922,41.461938]}},
{ "type": "Feature", "properties": {"Name":"Lincoln CDP","State":"Indiana","State_Abbrev":"IN"},
"geometry":{ "type": "Point", "coordinates": [-86.210292,40.616431]}},
{ "type": "Feature", "properties": {"Name":"Linden town","State":"Indiana","State_Abbrev":"IN"},
"geometry":{ "type": "Point", "coordinates": [-86.902291,40.189009]}},
{ "type": "Feature", "properties": {"Name":"Linn Grove CDP","State":"Indiana","State_Abbrev":"IN"},
"geometry":{ "type": "Point", "coordinates": [-85.034704,40.644952]}},
{ "type": "Feature", "properties": {"Name":"Linnsburg CDP","State":"Indiana","State_Abbrev":"IN"},
"geometry":{ "type": "Point", "coordinates": [-86.798351,40.000507]}},
{ "type": "Feature", "properties": {"Name":"Linton city","State":"Indiana","State_Abbrev":"IN"},
"geometry":{ "type": "Point", "coordinates": [-87.157128,39.035534]}},
{ "type": "Feature", "properties": {"Name":"Little York town","State":"Indiana","State_Abbrev":"IN"},
"geometry":{ "type": "Point", "coordinates": [-85.904558,38.699306]}},
{ "type": "Feature", "properties": {"Name":"Livonia town","State":"Indiana","State_Abbrev":"IN"},
"geometry":{ "type": "Point", "coordinates": [-86.276315,38.550552]}},
{ "type": "Feature", "properties": {"Name":"Lizton town","State":"Indiana","State_Abbrev":"IN"},
"geometry":{ "type": "Point", "coordinates": [-86.541554,39.883762]}},
{ "type": "Feature", "properties": {"Name":"Logansport city","State":"Indiana","State_Abbrev":"IN"},
"geometry":{ "type": "Point", "coordinates": [-86.354722,40.748067]}},
{ "type": "Feature", "properties": {"Name":"London CDP","State":"Indiana","State_Abbrev":"IN"},
"geometry":{ "type": "Point", "coordinates": [-85.916714,39.627394]}},
{ "type": "Feature", "properties": {"Name":"Long Beach town","State":"Indiana","State_Abbrev":"IN"},
"geometry":{ "type": "Point", "coordinates": [-86.848519,41.743122]}},
{ "type": "Feature", "properties": {"Name":"Loogootee city","State":"Indiana","State_Abbrev":"IN"},
"geometry":{ "type": "Point", "coordinates": [-86.914124,38.675652]}},
{ "type": "Feature", "properties": {"Name":"Losantville town","State":"Indiana","State_Abbrev":"IN"},
"geometry":{ "type": "Point", "coordinates": [-85.183459,40.023528]}},
{ "type": "Feature", "properties": {"Name":"Lowell town","State":"Indiana","State_Abbrev":"IN"},
"geometry":{ "type": "Point", "coordinates": [-87.419927,41.290508]}},
{ "type": "Feature", "properties": {"Name":"Lucerne CDP","State":"Indiana","State_Abbrev":"IN"},
"geometry":{ "type": "Point", "coordinates": [-86.403817,40.865937]}},
{ "type": "Feature", "properties": {"Name":"Lyford CDP","State":"Indiana","State_Abbrev":"IN"},
"geometry":{ "type": "Point", "coordinates": [-87.369026,39.646788]}},
{ "type": "Feature", "properties": {"Name":"Lynn town","State":"Indiana","State_Abbrev":"IN"},
"geometry":{ "type": "Point", "coordinates": [-84.942455,40.048718]}},
{ "type": "Feature", "properties": {"Name":"Lynnville town","State":"Indiana","State_Abbrev":"IN"},
"geometry":{ "type": "Point", "coordinates": [-87.317486,38.19907]}},
{ "type": "Feature", "properties": {"Name":"Lyons town","State":"Indiana","State_Abbrev":"IN"},
"geometry":{ "type": "Point", "coordinates": [-87.081166,38.988368]}},
{ "type": "Feature", "properties": {"Name":"McCordsville town","State":"Indiana","State_Abbrev":"IN"},
"geometry":{ "type": "Point", "coordinates": [-85.921864,39.897184]}},
{ "type": "Feature", "properties": {"Name":"Mace CDP","State":"Indiana","State_Abbrev":"IN"},
"geometry":{ "type": "Point", "coordinates": [-86.797814,40.008957]}},
{ "type": "Feature", "properties": {"Name":"Mackey town","State":"Indiana","State_Abbrev":"IN"},
"geometry":{ "type": "Point", "coordinates": [-87.391015,38.252045]}},
{ "type": "Feature", "properties": {"Name":"Macy town","State":"Indiana","State_Abbrev":"IN"},
"geometry":{ "type": "Point", "coordinates": [-86.128839,40.958146]}},
{ "type": "Feature", "properties": {"Name":"Madison city","State":"Indiana","State_Abbrev":"IN"},
"geometry":{ "type": "Point", "coordinates": [-85.397135,38.758829]}},
{ "type": "Feature", "properties": {"Name":"Malden CDP","State":"Indiana","State_Abbrev":"IN"},
"geometry":{ "type": "Point", "coordinates": [-87.028025,41.376725]}},
{ "type": "Feature", "properties": {"Name":"Manilla CDP","State":"Indiana","State_Abbrev":"IN"},
"geometry":{ "type": "Point", "coordinates": [-85.622005,39.572711]}},
{ "type": "Feature", "properties": {"Name":"Maples CDP","State":"Indiana","State_Abbrev":"IN"},
"geometry":{ "type": "Point", "coordinates": [-84.96802,41.010905]}},
{ "type": "Feature", "properties": {"Name":"Marengo town","State":"Indiana","State_Abbrev":"IN"},
"geometry":{ "type": "Point", "coordinates": [-86.344353,38.371346]}},
{ "type": "Feature", "properties": {"Name":"Mariah Hill CDP","State":"Indiana","State_Abbrev":"IN"},
"geometry":{ "type": "Point", "coordinates": [-86.926903,38.165468]}},
{ "type": "Feature", "properties": {"Name":"Marietta CDP","State":"Indiana","State_Abbrev":"IN"},
"geometry":{ "type": "Point", "coordinates": [-85.881077,39.440623]}},
{ "type": "Feature", "properties": {"Name":"Marion city","State":"Indiana","State_Abbrev":"IN"},
"geometry":{ "type": "Point", "coordinates": [-85.66042,40.549986]}},
{ "type": "Feature", "properties": {"Name":"Marion CDP","State":"Indiana","State_Abbrev":"IN"},
"geometry":{ "type": "Point", "coordinates": [-85.755854,39.589618]}},
{ "type": "Feature", "properties": {"Name":"Markle town","State":"Indiana","State_Abbrev":"IN"},
"geometry":{ "type": "Point", "coordinates": [-85.342014,40.829549]}},
{ "type": "Feature", "properties": {"Name":"Markleville town","State":"Indiana","State_Abbrev":"IN"},
"geometry":{ "type": "Point", "coordinates": [-85.616677,39.976338]}},
{ "type": "Feature", "properties": {"Name":"Marshall town","State":"Indiana","State_Abbrev":"IN"},
"geometry":{ "type": "Point", "coordinates": [-87.186785,39.84768]}},
{ "type": "Feature", "properties": {"Name":"Marshfield CDP","State":"Indiana","State_Abbrev":"IN"},
"geometry":{ "type": "Point", "coordinates": [-87.452381,40.251245]}},
{ "type": "Feature", "properties": {"Name":"Martinsburg CDP","State":"Indiana","State_Abbrev":"IN"},
"geometry":{ "type": "Point", "coordinates": [-86.024918,38.442762]}},
{ "type": "Feature", "properties": {"Name":"Martinsville city","State":"Indiana","State_Abbrev":"IN"},
"geometry":{ "type": "Point", "coordinates": [-86.431699,39.414711]}},
{ "type": "Feature", "properties": {"Name":"Matthews town","State":"Indiana","State_Abbrev":"IN"},
"geometry":{ "type": "Point", "coordinates": [-85.497778,40.387457]}},
{ "type": "Feature", "properties": {"Name":"Mauckport town","State":"Indiana","State_Abbrev":"IN"},
"geometry":{ "type": "Point", "coordinates": [-86.199342,38.024962]}},
{ "type": "Feature", "properties": {"Name":"Maxwell CDP","State":"Indiana","State_Abbrev":"IN"},
"geometry":{ "type": "Point", "coordinates": [-85.768279,39.855749]}},
{ "type": "Feature", "properties": {"Name":"Mays CDP","State":"Indiana","State_Abbrev":"IN"},
"geometry":{ "type": "Point", "coordinates": [-85.42885,39.743743]}},
{ "type": "Feature", "properties": {"Name":"Mecca town","State":"Indiana","State_Abbrev":"IN"},
"geometry":{ "type": "Point", "coordinates": [-87.331653,39.727098]}},
{ "type": "Feature", "properties": {"Name":"Medaryville town","State":"Indiana","State_Abbrev":"IN"},
"geometry":{ "type": "Point", "coordinates": [-86.890549,41.080356]}},
{ "type": "Feature", "properties": {"Name":"Medora town","State":"Indiana","State_Abbrev":"IN"},
"geometry":{ "type": "Point", "coordinates": [-86.171126,38.824615]}},
{ "type": "Feature", "properties": {"Name":"Mellott town","State":"Indiana","State_Abbrev":"IN"},
"geometry":{ "type": "Point", "coordinates": [-87.148832,40.164093]}},
{ "type": "Feature", "properties": {"Name":"Melody Hill CDP","State":"Indiana","State_Abbrev":"IN"},
"geometry":{ "type": "Point", "coordinates": [-87.513488,38.024506]}},
{ "type": "Feature", "properties": {"Name":"Memphis CDP","State":"Indiana","State_Abbrev":"IN"},
"geometry":{ "type": "Point", "coordinates": [-85.767036,38.494822]}},
{ "type": "Feature", "properties": {"Name":"Mentone town","State":"Indiana","State_Abbrev":"IN"},
"geometry":{ "type": "Point", "coordinates": [-86.038439,41.173818]}},
{ "type": "Feature", "properties": {"Name":"Meridian Hills town","State":"Indiana","State_Abbrev":"IN"},
"geometry":{ "type": "Point", "coordinates": [-86.15671,39.887392]}},
{ "type": "Feature", "properties": {"Name":"Merom town","State":"Indiana","State_Abbrev":"IN"},
"geometry":{ "type": "Point", "coordinates": [-87.56722,39.055964]}},
{ "type": "Feature", "properties": {"Name":"Merriam CDP","State":"Indiana","State_Abbrev":"IN"},
"geometry":{ "type": "Point", "coordinates": [-85.433208,41.286887]}},
{ "type": "Feature", "properties": {"Name":"Merrillville town","State":"Indiana","State_Abbrev":"IN"},
"geometry":{ "type": "Point", "coordinates": [-87.31807,41.472687]}},
{ "type": "Feature", "properties": {"Name":"Metamora CDP","State":"Indiana","State_Abbrev":"IN"},
"geometry":{ "type": "Point", "coordinates": [-85.137221,39.448461]}},
{ "type": "Feature", "properties": {"Name":"Metz CDP","State":"Indiana","State_Abbrev":"IN"},
"geometry":{ "type": "Point", "coordinates": [-84.837466,41.61644]}},
{ "type": "Feature", "properties": {"Name":"Mexico CDP","State":"Indiana","State_Abbrev":"IN"},
"geometry":{ "type": "Point", "coordinates": [-86.110406,40.814166]}},
{ "type": "Feature", "properties": {"Name":"Miami CDP","State":"Indiana","State_Abbrev":"IN"},
"geometry":{ "type": "Point", "coordinates": [-86.106648,40.614298]}},
{ "type": "Feature", "properties": {"Name":"Michiana Shores town","State":"Indiana","State_Abbrev":"IN"},
"geometry":{ "type": "Point", "coordinates": [-86.818159,41.756357]}},
{ "type": "Feature", "properties": {"Name":"Michigan City city","State":"Indiana","State_Abbrev":"IN"},
"geometry":{ "type": "Point", "coordinates": [-86.866875,41.708776]}},
{ "type": "Feature", "properties": {"Name":"Michigantown town","State":"Indiana","State_Abbrev":"IN"},
"geometry":{ "type": "Point", "coordinates": [-86.39165,40.327992]}},
{ "type": "Feature", "properties": {"Name":"Middlebury CDP","State":"Indiana","State_Abbrev":"IN"},
"geometry":{ "type": "Point", "coordinates": [-87.119306,39.264887]}},
{ "type": "Feature", "properties": {"Name":"Middlebury town","State":"Indiana","State_Abbrev":"IN"},
"geometry":{ "type": "Point", "coordinates": [-85.708679,41.670559]}},
{ "type": "Feature", "properties": {"Name":"Middletown town","State":"Indiana","State_Abbrev":"IN"},
"geometry":{ "type": "Point", "coordinates": [-85.542782,40.05945]}},
{ "type": "Feature", "properties": {"Name":"Midland CDP","State":"Indiana","State_Abbrev":"IN"},
"geometry":{ "type": "Point", "coordinates": [-87.189998,39.118047]}},
{ "type": "Feature", "properties": {"Name":"Mier CDP","State":"Indiana","State_Abbrev":"IN"},
"geometry":{ "type": "Point", "coordinates": [-85.82323,40.574806]}},
{ "type": "Feature", "properties": {"Name":"Milan town","State":"Indiana","State_Abbrev":"IN"},
"geometry":{ "type": "Point", "coordinates": [-85.120131,39.125174]}},
{ "type": "Feature", "properties": {"Name":"Milford CDP","State":"Indiana","State_Abbrev":"IN"},
"geometry":{ "type": "Point", "coordinates": [-85.619728,39.350389]}},
{ "type": "Feature", "properties": {"Name":"Milford town","State":"Indiana","State_Abbrev":"IN"},
"geometry":{ "type": "Point", "coordinates": [-85.843551,41.417465]}},
{ "type": "Feature", "properties": {"Name":"Millersburg town","State":"Indiana","State_Abbrev":"IN"},
"geometry":{ "type": "Point", "coordinates": [-85.696391,41.527711]}},
{ "type": "Feature", "properties": {"Name":"Millgrove CDP","State":"Indiana","State_Abbrev":"IN"},
"geometry":{ "type": "Point", "coordinates": [-85.277242,40.404891]}},
{ "type": "Feature", "properties": {"Name":"Millhousen town","State":"Indiana","State_Abbrev":"IN"},
"geometry":{ "type": "Point", "coordinates": [-85.434165,39.211988]}},
{ "type": "Feature", "properties": {"Name":"Milltown town","State":"Indiana","State_Abbrev":"IN"},
"geometry":{ "type": "Point", "coordinates": [-86.275448,38.342133]}},
{ "type": "Feature", "properties": {"Name":"Millville CDP","State":"Indiana","State_Abbrev":"IN"},
"geometry":{ "type": "Point", "coordinates": [-85.252759,39.927183]}},
{ "type": "Feature", "properties": {"Name":"Milroy CDP","State":"Indiana","State_Abbrev":"IN"},
"geometry":{ "type": "Point", "coordinates": [-85.467614,39.498077]}},
{ "type": "Feature", "properties": {"Name":"Milton town","State":"Indiana","State_Abbrev":"IN"},
"geometry":{ "type": "Point", "coordinates": [-85.156199,39.786503]}},
{ "type": "Feature", "properties": {"Name":"Mineral Springs CDP","State":"Indiana","State_Abbrev":"IN"},
"geometry":{ "type": "Point", "coordinates": [-85.860875,39.132182]}},
{ "type": "Feature", "properties": {"Name":"Mishawaka city","State":"Indiana","State_Abbrev":"IN"},
"geometry":{ "type": "Point", "coordinates": [-86.165356,41.676606]}},
{ "type": "Feature", "properties": {"Name":"Mitchell city","State":"Indiana","State_Abbrev":"IN"},
"geometry":{ "type": "Point", "coordinates": [-86.47522,38.737092]}},
{ "type": "Feature", "properties": {"Name":"Modoc town","State":"Indiana","State_Abbrev":"IN"},
"geometry":{ "type": "Point", "coordinates": [-85.126237,40.045471]}},
{ "type": "Feature", "properties": {"Name":"Mongo CDP","State":"Indiana","State_Abbrev":"IN"},
"geometry":{ "type": "Point", "coordinates": [-85.27708,41.680912]}},
{ "type": "Feature", "properties": {"Name":"Monon town","State":"Indiana","State_Abbrev":"IN"},
"geometry":{ "type": "Point", "coordinates": [-86.878624,40.864228]}},
{ "type": "Feature", "properties": {"Name":"Monroe town","State":"Indiana","State_Abbrev":"IN"},
"geometry":{ "type": "Point", "coordinates": [-84.940859,40.745109]}},
{ "type": "Feature", "properties": {"Name":"Monroe City town","State":"Indiana","State_Abbrev":"IN"},
"geometry":{ "type": "Point", "coordinates": [-87.353007,38.614538]}},
{ "type": "Feature", "properties": {"Name":"Monroeville town","State":"Indiana","State_Abbrev":"IN"},
"geometry":{ "type": "Point", "coordinates": [-84.867506,40.97352]}},
{ "type": "Feature", "properties": {"Name":"Monrovia town","State":"Indiana","State_Abbrev":"IN"},
"geometry":{ "type": "Point", "coordinates": [-86.475356,39.587186]}},
{ "type": "Feature", "properties": {"Name":"Monterey town","State":"Indiana","State_Abbrev":"IN"},
"geometry":{ "type": "Point", "coordinates": [-86.482069,41.156199]}},
{ "type": "Feature", "properties": {"Name":"Montezuma town","State":"Indiana","State_Abbrev":"IN"},
"geometry":{ "type": "Point", "coordinates": [-87.369423,39.791049]}},
{ "type": "Feature", "properties": {"Name":"Montgomery town","State":"Indiana","State_Abbrev":"IN"},
"geometry":{ "type": "Point", "coordinates": [-87.049356,38.664775]}},
{ "type": "Feature", "properties": {"Name":"Monticello city","State":"Indiana","State_Abbrev":"IN"},
"geometry":{ "type": "Point", "coordinates": [-86.767256,40.745231]}},
{ "type": "Feature", "properties": {"Name":"Montmorenci CDP","State":"Indiana","State_Abbrev":"IN"},
"geometry":{ "type": "Point", "coordinates": [-87.042803,40.472078]}},
{ "type": "Feature", "properties": {"Name":"Montpelier city","State":"Indiana","State_Abbrev":"IN"},
"geometry":{ "type": "Point", "coordinates": [-85.287012,40.549766]}},
{ "type": "Feature", "properties": {"Name":"Mooreland town","State":"Indiana","State_Abbrev":"IN"},
"geometry":{ "type": "Point", "coordinates": [-85.251348,39.997414]}},
{ "type": "Feature", "properties": {"Name":"Moores Hill town","State":"Indiana","State_Abbrev":"IN"},
"geometry":{ "type": "Point", "coordinates": [-85.089058,39.112937]}},
{ "type": "Feature", "properties": {"Name":"Mooresville town","State":"Indiana","State_Abbrev":"IN"},
"geometry":{ "type": "Point", "coordinates": [-86.368715,39.602494]}},
{ "type": "Feature", "properties": {"Name":"Morgantown town","State":"Indiana","State_Abbrev":"IN"},
"geometry":{ "type": "Point", "coordinates": [-86.258605,39.372891]}},
{ "type": "Feature", "properties": {"Name":"Morocco town","State":"Indiana","State_Abbrev":"IN"},
"geometry":{ "type": "Point", "coordinates": [-87.450279,40.944536]}},
{ "type": "Feature", "properties": {"Name":"Morris CDP","State":"Indiana","State_Abbrev":"IN"},
"geometry":{ "type": "Point", "coordinates": [-85.168976,39.2843]}},
{ "type": "Feature", "properties": {"Name":"Morristown town","State":"Indiana","State_Abbrev":"IN"},
"geometry":{ "type": "Point", "coordinates": [-85.705311,39.674282]}},
{ "type": "Feature", "properties": {"Name":"Mount Auburn town","State":"Indiana","State_Abbrev":"IN"},
"geometry":{ "type": "Point", "coordinates": [-85.188457,39.811331]}},
{ "type": "Feature", "properties": {"Name":"Mount Ayr town","State":"Indiana","State_Abbrev":"IN"},
"geometry":{ "type": "Point", "coordinates": [-87.298956,40.952289]}},
{ "type": "Feature", "properties": {"Name":"Mount Carmel town","State":"Indiana","State_Abbrev":"IN"},
"geometry":{ "type": "Point", "coordinates": [-84.875503,39.407424]}},
{ "type": "Feature", "properties": {"Name":"Mount Etna town","State":"Indiana","State_Abbrev":"IN"},
"geometry":{ "type": "Point", "coordinates": [-85.561901,40.741123]}},
{ "type": "Feature", "properties": {"Name":"Mount Summit town","State":"Indiana","State_Abbrev":"IN"},
"geometry":{ "type": "Point", "coordinates": [-85.386086,40.00347]}},
{ "type": "Feature", "properties": {"Name":"Mount Vernon city","State":"Indiana","State_Abbrev":"IN"},
"geometry":{ "type": "Point", "coordinates": [-87.895861,37.936988]}},
{ "type": "Feature", "properties": {"Name":"Mulberry town","State":"Indiana","State_Abbrev":"IN"},
"geometry":{ "type": "Point", "coordinates": [-86.667298,40.345774]}},
{ "type": "Feature", "properties": {"Name":"Muncie city","State":"Indiana","State_Abbrev":"IN"},
"geometry":{ "type": "Point", "coordinates": [-85.395059,40.198826]}},
{ "type": "Feature", "properties": {"Name":"Munster town","State":"Indiana","State_Abbrev":"IN"},
"geometry":{ "type": "Point", "coordinates": [-87.504589,41.54691]}},
{ "type": "Feature", "properties": {"Name":"Napoleon town","State":"Indiana","State_Abbrev":"IN"},
"geometry":{ "type": "Point", "coordinates": [-85.327854,39.204336]}},
{ "type": "Feature", "properties": {"Name":"Nappanee city","State":"Indiana","State_Abbrev":"IN"},
"geometry":{ "type": "Point", "coordinates": [-85.996701,41.445784]}},
{ "type": "Feature", "properties": {"Name":"Nashville town","State":"Indiana","State_Abbrev":"IN"},
"geometry":{ "type": "Point", "coordinates": [-86.236172,39.207733]}},
{ "type": "Feature", "properties": {"Name":"Needham CDP","State":"Indiana","State_Abbrev":"IN"},
"geometry":{ "type": "Point", "coordinates": [-85.9716,39.531165]}},
{ "type": "Feature", "properties": {"Name":"Needmore CDP","State":"Indiana","State_Abbrev":"IN"},
"geometry":{ "type": "Point", "coordinates": [-86.526266,38.926703]}},
{ "type": "Feature", "properties": {"Name":"New Albany city","State":"Indiana","State_Abbrev":"IN"},
"geometry":{ "type": "Point", "coordinates": [-85.823987,38.312179]}},
{ "type": "Feature", "properties": {"Name":"New Amsterdam town","State":"Indiana","State_Abbrev":"IN"},
"geometry":{ "type": "Point", "coordinates": [-86.276617,38.102001]}},
{ "type": "Feature", "properties": {"Name":"Newbern CDP","State":"Indiana","State_Abbrev":"IN"},
"geometry":{ "type": "Point", "coordinates": [-85.745195,39.236535]}},
{ "type": "Feature", "properties": {"Name":"Newberry town","State":"Indiana","State_Abbrev":"IN"},
"geometry":{ "type": "Point", "coordinates": [-87.019383,38.923856]}},
{ "type": "Feature", "properties": {"Name":"Newburgh town","State":"Indiana","State_Abbrev":"IN"},
"geometry":{ "type": "Point", "coordinates": [-87.405494,37.949254]}},
{ "type": "Feature", "properties": {"Name":"New Carlisle town","State":"Indiana","State_Abbrev":"IN"},
"geometry":{ "type": "Point", "coordinates": [-86.507154,41.706572]}},
{ "type": "Feature", "properties": {"Name":"New Castle city","State":"Indiana","State_Abbrev":"IN"},
"geometry":{ "type": "Point", "coordinates": [-85.370064,39.919835]}},
{ "type": "Feature", "properties": {"Name":"New Chicago town","State":"Indiana","State_Abbrev":"IN"},
"geometry":{ "type": "Point", "coordinates": [-87.271795,41.558657]}},
{ "type": "Feature", "properties": {"Name":"New Goshen CDP","State":"Indiana","State_Abbrev":"IN"},
"geometry":{ "type": "Point", "coordinates": [-87.460852,39.580874]}},
{ "type": "Feature", "properties": {"Name":"New Harmony town","State":"Indiana","State_Abbrev":"IN"},
"geometry":{ "type": "Point", "coordinates": [-87.930867,38.128615]}},
{ "type": "Feature", "properties": {"Name":"New Haven city","State":"Indiana","State_Abbrev":"IN"},
"geometry":{ "type": "Point", "coordinates": [-85.016282,41.067905]}},
{ "type": "Feature", "properties": {"Name":"New Lebanon CDP","State":"Indiana","State_Abbrev":"IN"},
"geometry":{ "type": "Point", "coordinates": [-87.471302,39.040898]}},
{ "type": "Feature", "properties": {"Name":"New Lisbon CDP","State":"Indiana","State_Abbrev":"IN"},
"geometry":{ "type": "Point", "coordinates": [-85.262669,39.862315]}},
{ "type": "Feature", "properties": {"Name":"New London CDP","State":"Indiana","State_Abbrev":"IN"},
"geometry":{ "type": "Point", "coordinates": [-86.273847,40.443072]}},
{ "type": "Feature", "properties": {"Name":"New Marion CDP","State":"Indiana","State_Abbrev":"IN"},
"geometry":{ "type": "Point", "coordinates": [-85.358405,39.008088]}},
{ "type": "Feature", "properties": {"Name":"New Market town","State":"Indiana","State_Abbrev":"IN"},
"geometry":{ "type": "Point", "coordinates": [-86.921495,39.95265]}},
{ "type": "Feature", "properties": {"Name":"New Middletown town","State":"Indiana","State_Abbrev":"IN"},
"geometry":{ "type": "Point", "coordinates": [-86.050656,38.164399]}},
{ "type": "Feature", "properties": {"Name":"New Palestine town","State":"Indiana","State_Abbrev":"IN"},
"geometry":{ "type": "Point", "coordinates": [-85.894254,39.729395]}},
{ "type": "Feature", "properties": {"Name":"New Paris CDP","State":"Indiana","State_Abbrev":"IN"},
"geometry":{ "type": "Point", "coordinates": [-85.825507,41.501906]}},
{ "type": "Feature", "properties": {"Name":"New Pekin town","State":"Indiana","State_Abbrev":"IN"},
"geometry":{ "type": "Point", "coordinates": [-86.014366,38.502077]}},
{ "type": "Feature", "properties": {"Name":"New Point town","State":"Indiana","State_Abbrev":"IN"},
"geometry":{ "type": "Point", "coordinates": [-85.326876,39.30958]}},
{ "type": "Feature", "properties": {"Name":"Newport town","State":"Indiana","State_Abbrev":"IN"},
"geometry":{ "type": "Point", "coordinates": [-87.407135,39.884058]}},
{ "type": "Feature", "properties": {"Name":"New Richmond town","State":"Indiana","State_Abbrev":"IN"},
"geometry":{ "type": "Point", "coordinates": [-86.977903,40.194213]}},
{ "type": "Feature", "properties": {"Name":"New Ross town","State":"Indiana","State_Abbrev":"IN"},
"geometry":{ "type": "Point", "coordinates": [-86.714193,39.964622]}},
{ "type": "Feature", "properties": {"Name":"New Salisbury CDP","State":"Indiana","State_Abbrev":"IN"},
"geometry":{ "type": "Point", "coordinates": [-86.100055,38.313966]}},
{ "type": "Feature", "properties": {"Name":"Newtonville CDP","State":"Indiana","State_Abbrev":"IN"},
"geometry":{ "type": "Point", "coordinates": [-86.939725,37.998892]}},
{ "type": "Feature", "properties": {"Name":"Newtown town","State":"Indiana","State_Abbrev":"IN"},
"geometry":{ "type": "Point", "coordinates": [-87.148312,40.204504]}},
{ "type": "Feature", "properties": {"Name":"New Trenton CDP","State":"Indiana","State_Abbrev":"IN"},
"geometry":{ "type": "Point", "coordinates": [-84.897005,39.308954]}},
{ "type": "Feature", "properties": {"Name":"New Washington CDP","State":"Indiana","State_Abbrev":"IN"},
"geometry":{ "type": "Point", "coordinates": [-85.560134,38.569628]}},
{ "type": "Feature", "properties": {"Name":"New Whiteland town","State":"Indiana","State_Abbrev":"IN"},
"geometry":{ "type": "Point", "coordinates": [-86.099436,39.561738]}},
{ "type": "Feature", "properties": {"Name":"Nineveh CDP","State":"Indiana","State_Abbrev":"IN"},
"geometry":{ "type": "Point", "coordinates": [-86.092678,39.361204]}},
{ "type": "Feature", "properties": {"Name":"Noblesville city","State":"Indiana","State_Abbrev":"IN"},
"geometry":{ "type": "Point", "coordinates": [-86.000163,40.035299]}},
{ "type": "Feature", "properties": {"Name":"North Crows Nest town","State":"Indiana","State_Abbrev":"IN"},
"geometry":{ "type": "Point", "coordinates": [-86.162466,39.866079]}},
{ "type": "Feature", "properties": {"Name":"North Grove CDP","State":"Indiana","State_Abbrev":"IN"},
"geometry":{ "type": "Point", "coordinates": [-85.965215,40.612997]}},
{ "type": "Feature", "properties": {"Name":"North Judson town","State":"Indiana","State_Abbrev":"IN"},
"geometry":{ "type": "Point", "coordinates": [-86.776973,41.216095]}},
{ "type": "Feature", "properties": {"Name":"North Liberty town","State":"Indiana","State_Abbrev":"IN"},
"geometry":{ "type": "Point", "coordinates": [-86.428041,41.532403]}},
{ "type": "Feature", "properties": {"Name":"North Manchester town","State":"Indiana","State_Abbrev":"IN"},
"geometry":{ "type": "Point", "coordinates": [-85.775621,41.004301]}},
{ "type": "Feature", "properties": {"Name":"North Salem town","State":"Indiana","State_Abbrev":"IN"},
"geometry":{ "type": "Point", "coordinates": [-86.643719,39.859956]}},
{ "type": "Feature", "properties": {"Name":"North Terre Haute CDP","State":"Indiana","State_Abbrev":"IN"},
"geometry":{ "type": "Point", "coordinates": [-87.365279,39.536998]}},
{ "type": "Feature", "properties": {"Name":"North Vernon city","State":"Indiana","State_Abbrev":"IN"},
"geometry":{ "type": "Point", "coordinates": [-85.630055,39.014854]}},
{ "type": "Feature", "properties": {"Name":"North Webster town","State":"Indiana","State_Abbrev":"IN"},
"geometry":{ "type": "Point", "coordinates": [-85.698573,41.323814]}},
{ "type": "Feature", "properties": {"Name":"Norway CDP","State":"Indiana","State_Abbrev":"IN"},
"geometry":{ "type": "Point", "coordinates": [-86.77238,40.775012]}},
{ "type": "Feature", "properties": {"Name":"Notre Dame CDP","State":"Indiana","State_Abbrev":"IN"},
"geometry":{ "type": "Point", "coordinates": [-86.238678,41.700282]}},
{ "type": "Feature", "properties": {"Name":"Nyona Lake CDP","State":"Indiana","State_Abbrev":"IN"},
"geometry":{ "type": "Point", "coordinates": [-86.186749,40.965432]}},
{ "type": "Feature", "properties": {"Name":"Oakland City city","State":"Indiana","State_Abbrev":"IN"},
"geometry":{ "type": "Point", "coordinates": [-87.349082,38.337987]}},
{ "type": "Feature", "properties": {"Name":"Oaktown town","State":"Indiana","State_Abbrev":"IN"},
"geometry":{ "type": "Point", "coordinates": [-87.441158,38.871682]}},
{ "type": "Feature", "properties": {"Name":"Oakville CDP","State":"Indiana","State_Abbrev":"IN"},
"geometry":{ "type": "Point", "coordinates": [-85.389287,40.079692]}},
{ "type": "Feature", "properties": {"Name":"Odon town","State":"Indiana","State_Abbrev":"IN"},
"geometry":{ "type": "Point", "coordinates": [-86.988506,38.842336]}},
{ "type": "Feature", "properties": {"Name":"Ogden Dunes town","State":"Indiana","State_Abbrev":"IN"},
"geometry":{ "type": "Point", "coordinates": [-87.192504,41.628661]}},
{ "type": "Feature", "properties": {"Name":"Oldenburg town","State":"Indiana","State_Abbrev":"IN"},
"geometry":{ "type": "Point", "coordinates": [-85.204772,39.33883]}},
{ "type": "Feature", "properties": {"Name":"Ontario CDP","State":"Indiana","State_Abbrev":"IN"},
"geometry":{ "type": "Point", "coordinates": [-85.384724,41.699187]}},
{ "type": "Feature", "properties": {"Name":"Onward town","State":"Indiana","State_Abbrev":"IN"},
"geometry":{ "type": "Point", "coordinates": [-86.194789,40.694735]}},
{ "type": "Feature", "properties": {"Name":"Oolitic town","State":"Indiana","State_Abbrev":"IN"},
"geometry":{ "type": "Point", "coordinates": [-86.525352,38.893551]}},
{ "type": "Feature", "properties": {"Name":"Ora CDP","State":"Indiana","State_Abbrev":"IN"},
"geometry":{ "type": "Point", "coordinates": [-86.55518,41.176638]}},
{ "type": "Feature", "properties": {"Name":"Orestes town","State":"Indiana","State_Abbrev":"IN"},
"geometry":{ "type": "Point", "coordinates": [-85.72496,40.271556]}},
{ "type": "Feature", "properties": {"Name":"Orland town","State":"Indiana","State_Abbrev":"IN"},
"geometry":{ "type": "Point", "coordinates": [-85.172226,41.730543]}},
{ "type": "Feature", "properties": {"Name":"Orleans town","State":"Indiana","State_Abbrev":"IN"},
"geometry":{ "type": "Point", "coordinates": [-86.4517,38.661088]}},
{ "type": "Feature", "properties": {"Name":"Osceola town","State":"Indiana","State_Abbrev":"IN"},
"geometry":{ "type": "Point", "coordinates": [-86.078672,41.663999]}},
{ "type": "Feature", "properties": {"Name":"Osgood town","State":"Indiana","State_Abbrev":"IN"},
"geometry":{ "type": "Point", "coordinates": [-85.292646,39.128625]}},
{ "type": "Feature", "properties": {"Name":"Ossian town","State":"Indiana","State_Abbrev":"IN"},
"geometry":{ "type": "Point", "coordinates": [-85.168733,40.87687]}},
{ "type": "Feature", "properties": {"Name":"Oswego CDP","State":"Indiana","State_Abbrev":"IN"},
"geometry":{ "type": "Point", "coordinates": [-85.787137,41.32238]}},
{ "type": "Feature", "properties": {"Name":"Otisco CDP","State":"Indiana","State_Abbrev":"IN"},
"geometry":{ "type": "Point", "coordinates": [-85.665803,38.542563]}},
{ "type": "Feature", "properties": {"Name":"Otterbein town","State":"Indiana","State_Abbrev":"IN"},
"geometry":{ "type": "Point", "coordinates": [-87.0878,40.488159]}},
{ "type": "Feature", "properties": {"Name":"Otter Lake CDP","State":"Indiana","State_Abbrev":"IN"},
"geometry":{ "type": "Point", "coordinates": [-85.171534,41.638103]}},
{ "type": "Feature", "properties": {"Name":"Otwell CDP","State":"Indiana","State_Abbrev":"IN"},
"geometry":{ "type": "Point", "coordinates": [-87.096029,38.456211]}},
{ "type": "Feature", "properties": {"Name":"Owensburg CDP","State":"Indiana","State_Abbrev":"IN"},
"geometry":{ "type": "Point", "coordinates": [-86.743381,38.924118]}},
{ "type": "Feature", "properties": {"Name":"Owensville town","State":"Indiana","State_Abbrev":"IN"},
"geometry":{ "type": "Point", "coordinates": [-87.691775,38.2719]}},
{ "type": "Feature", "properties": {"Name":"Oxford town","State":"Indiana","State_Abbrev":"IN"},
"geometry":{ "type": "Point", "coordinates": [-87.248178,40.521461]}},
{ "type": "Feature", "properties": {"Name":"Painted Hills CDP","State":"Indiana","State_Abbrev":"IN"},
"geometry":{ "type": "Point", "coordinates": [-86.349245,39.398179]}},
{ "type": "Feature", "properties": {"Name":"Palestine CDP","State":"Indiana","State_Abbrev":"IN"},
"geometry":{ "type": "Point", "coordinates": [-85.945637,41.174834]}},
{ "type": "Feature", "properties": {"Name":"Palmyra town","State":"Indiana","State_Abbrev":"IN"},
"geometry":{ "type": "Point", "coordinates": [-86.109105,38.408396]}},
{ "type": "Feature", "properties": {"Name":"Paoli town","State":"Indiana","State_Abbrev":"IN"},
"geometry":{ "type": "Point", "coordinates": [-86.470437,38.556675]}},
{ "type": "Feature", "properties": {"Name":"Paragon town","State":"Indiana","State_Abbrev":"IN"},
"geometry":{ "type": "Point", "coordinates": [-86.56277,39.395002]}},
{ "type": "Feature", "properties": {"Name":"Paris Crossing CDP","State":"Indiana","State_Abbrev":"IN"},
"geometry":{ "type": "Point", "coordinates": [-85.646651,38.831111]}},
{ "type": "Feature", "properties": {"Name":"Parker City town","State":"Indiana","State_Abbrev":"IN"},
"geometry":{ "type": "Point", "coordinates": [-85.203741,40.189786]}},
{ "type": "Feature", "properties": {"Name":"Parkers Settlement CDP","State":"Indiana","State_Abbrev":"IN"},
"geometry":{ "type": "Point", "coordinates": [-87.714725,38.044017]}},
{ "type": "Feature", "properties": {"Name":"Patoka town","State":"Indiana","State_Abbrev":"IN"},
"geometry":{ "type": "Point", "coordinates": [-87.594196,38.396342]}},
{ "type": "Feature", "properties": {"Name":"Patricksburg CDP","State":"Indiana","State_Abbrev":"IN"},
"geometry":{ "type": "Point", "coordinates": [-86.954264,39.312051]}},
{ "type": "Feature", "properties": {"Name":"Patriot town","State":"Indiana","State_Abbrev":"IN"},
"geometry":{ "type": "Point", "coordinates": [-84.830252,38.835164]}},
{ "type": "Feature", "properties": {"Name":"Paxton CDP","State":"Indiana","State_Abbrev":"IN"},
"geometry":{ "type": "Point", "coordinates": [-87.388489,39.021673]}},
{ "type": "Feature", "properties": {"Name":"Pence CDP","State":"Indiana","State_Abbrev":"IN"},
"geometry":{ "type": "Point", "coordinates": [-87.51276,40.363738]}},
{ "type": "Feature", "properties": {"Name":"Pendleton town","State":"Indiana","State_Abbrev":"IN"},
"geometry":{ "type": "Point", "coordinates": [-85.77142,40.005799]}},
{ "type": "Feature", "properties": {"Name":"Penntown CDP","State":"Indiana","State_Abbrev":"IN"},
"geometry":{ "type": "Point", "coordinates": [-85.091007,39.270291]}},
{ "type": "Feature", "properties": {"Name":"Pennville town","State":"Indiana","State_Abbrev":"IN"},
"geometry":{ "type": "Point", "coordinates": [-85.14694,40.491917]}},
{ "type": "Feature", "properties": {"Name":"Peppertown CDP","State":"Indiana","State_Abbrev":"IN"},
"geometry":{ "type": "Point", "coordinates": [-85.178092,39.39733]}},
{ "type": "Feature", "properties": {"Name":"Perkinsville CDP","State":"Indiana","State_Abbrev":"IN"},
"geometry":{ "type": "Point", "coordinates": [-85.858611,40.144258]}},
{ "type": "Feature", "properties": {"Name":"Perrysville town","State":"Indiana","State_Abbrev":"IN"},
"geometry":{ "type": "Point", "coordinates": [-87.435928,40.05321]}},
{ "type": "Feature", "properties": {"Name":"Peru city","State":"Indiana","State_Abbrev":"IN"},
"geometry":{ "type": "Point", "coordinates": [-86.070561,40.758651]}},
{ "type": "Feature", "properties": {"Name":"Petersburg city","State":"Indiana","State_Abbrev":"IN"},
"geometry":{ "type": "Point", "coordinates": [-87.280977,38.492236]}},
{ "type": "Feature", "properties": {"Name":"Petersville CDP","State":"Indiana","State_Abbrev":"IN"},
"geometry":{ "type": "Point", "coordinates": [-85.81918,39.226305]}},
{ "type": "Feature", "properties": {"Name":"Petroleum CDP","State":"Indiana","State_Abbrev":"IN"},
"geometry":{ "type": "Point", "coordinates": [-85.152703,40.612633]}},
{ "type": "Feature", "properties": {"Name":"Philadelphia CDP","State":"Indiana","State_Abbrev":"IN"},
"geometry":{ "type": "Point", "coordinates": [-85.844038,39.782295]}},
{ "type": "Feature", "properties": {"Name":"Pierceton town","State":"Indiana","State_Abbrev":"IN"},
"geometry":{ "type": "Point", "coordinates": [-85.703116,41.199266]}},
{ "type": "Feature", "properties": {"Name":"Pierceville CDP","State":"Indiana","State_Abbrev":"IN"},
"geometry":{ "type": "Point", "coordinates": [-85.17862,39.133077]}},
{ "type": "Feature", "properties": {"Name":"Pine Village town","State":"Indiana","State_Abbrev":"IN"},
"geometry":{ "type": "Point", "coordinates": [-87.253451,40.449499]}},
{ "type": "Feature", "properties": {"Name":"Pittsboro town","State":"Indiana","State_Abbrev":"IN"},
"geometry":{ "type": "Point", "coordinates": [-86.46388,39.869804]}},
{ "type": "Feature", "properties": {"Name":"Pittsburg CDP","State":"Indiana","State_Abbrev":"IN"},
"geometry":{ "type": "Point", "coordinates": [-86.702858,40.596021]}},
{ "type": "Feature", "properties": {"Name":"Plainfield town","State":"Indiana","State_Abbrev":"IN"},
"geometry":{ "type": "Point", "coordinates": [-86.371985,39.693193]}},
{ "type": "Feature", "properties": {"Name":"Plainville town","State":"Indiana","State_Abbrev":"IN"},
"geometry":{ "type": "Point", "coordinates": [-87.151481,38.804832]}},
{ "type": "Feature", "properties": {"Name":"Pleasant Lake CDP","State":"Indiana","State_Abbrev":"IN"},
"geometry":{ "type": "Point", "coordinates": [-85.01245,41.574334]}},
{ "type": "Feature", "properties": {"Name":"Pleasant Mills CDP","State":"Indiana","State_Abbrev":"IN"},
"geometry":{ "type": "Point", "coordinates": [-84.841758,40.776613]}},
{ "type": "Feature", "properties": {"Name":"Pleasant View CDP","State":"Indiana","State_Abbrev":"IN"},
"geometry":{ "type": "Point", "coordinates": [-85.938631,39.664378]}},
{ "type": "Feature", "properties": {"Name":"Pleasant View Village CDP","State":"Indiana","State_Abbrev":"IN"},
"geometry":{ "type": "Point", "coordinates": [-85.976147,39.336165]}},
{ "type": "Feature", "properties": {"Name":"Pleasantville CDP","State":"Indiana","State_Abbrev":"IN"},
"geometry":{ "type": "Point", "coordinates": [-87.247513,38.964379]}},
{ "type": "Feature", "properties": {"Name":"Plymouth city","State":"Indiana","State_Abbrev":"IN"},
"geometry":{ "type": "Point", "coordinates": [-86.319434,41.349424]}},
{ "type": "Feature", "properties": {"Name":"Point Isabel CDP","State":"Indiana","State_Abbrev":"IN"},
"geometry":{ "type": "Point", "coordinates": [-85.822639,40.421918]}},
{ "type": "Feature", "properties": {"Name":"Poland CDP","State":"Indiana","State_Abbrev":"IN"},
"geometry":{ "type": "Point", "coordinates": [-86.954319,39.444594]}},
{ "type": "Feature", "properties": {"Name":"Poneto town","State":"Indiana","State_Abbrev":"IN"},
"geometry":{ "type": "Point", "coordinates": [-85.222171,40.657117]}},
{ "type": "Feature", "properties": {"Name":"Portage city","State":"Indiana","State_Abbrev":"IN"},
"geometry":{ "type": "Point", "coordinates": [-87.178939,41.591612]}},
{ "type": "Feature", "properties": {"Name":"Porter town","State":"Indiana","State_Abbrev":"IN"},
"geometry":{ "type": "Point", "coordinates": [-87.082744,41.627544]}},
{ "type": "Feature", "properties": {"Name":"Portland city","State":"Indiana","State_Abbrev":"IN"},
"geometry":{ "type": "Point", "coordinates": [-84.983485,40.437662]}},
{ "type": "Feature", "properties": {"Name":"Poseyville town","State":"Indiana","State_Abbrev":"IN"},
"geometry":{ "type": "Point", "coordinates": [-87.783319,38.169752]}},
{ "type": "Feature", "properties": {"Name":"Pottawattamie Park town","State":"Indiana","State_Abbrev":"IN"},
"geometry":{ "type": "Point", "coordinates": [-86.867138,41.72329]}},
{ "type": "Feature", "properties": {"Name":"Prairie Creek CDP","State":"Indiana","State_Abbrev":"IN"},
"geometry":{ "type": "Point", "coordinates": [-87.498114,39.273193]}},
{ "type": "Feature", "properties": {"Name":"Prairieton CDP","State":"Indiana","State_Abbrev":"IN"},
"geometry":{ "type": "Point", "coordinates": [-87.471998,39.372287]}},
{ "type": "Feature", "properties": {"Name":"Preble CDP","State":"Indiana","State_Abbrev":"IN"},
"geometry":{ "type": "Point", "coordinates": [-85.00989,40.832606]}},
{ "type": "Feature", "properties": {"Name":"Prince's Lakes town","State":"Indiana","State_Abbrev":"IN"},
"geometry":{ "type": "Point", "coordinates": [-86.108422,39.351101]}},
{ "type": "Feature", "properties": {"Name":"Princeton city","State":"Indiana","State_Abbrev":"IN"},
"geometry":{ "type": "Point", "coordinates": [-87.579508,38.354473]}},
{ "type": "Feature", "properties": {"Name":"Prospect CDP","State":"Indiana","State_Abbrev":"IN"},
"geometry":{ "type": "Point", "coordinates": [-86.616422,38.586749]}},
{ "type": "Feature", "properties": {"Name":"Pulaski CDP","State":"Indiana","State_Abbrev":"IN"},
"geometry":{ "type": "Point", "coordinates": [-86.652117,40.98001]}},
{ "type": "Feature", "properties": {"Name":"Putnamville CDP","State":"Indiana","State_Abbrev":"IN"},
"geometry":{ "type": "Point", "coordinates": [-86.883015,39.571656]}},
{ "type": "Feature", "properties": {"Name":"Raglesville CDP","State":"Indiana","State_Abbrev":"IN"},
"geometry":{ "type": "Point", "coordinates": [-86.963009,38.802277]}},
{ "type": "Feature", "properties": {"Name":"Ragsdale CDP","State":"Indiana","State_Abbrev":"IN"},
"geometry":{ "type": "Point", "coordinates": [-87.322345,38.74527]}},
{ "type": "Feature", "properties": {"Name":"Rainsville CDP","State":"Indiana","State_Abbrev":"IN"},
"geometry":{ "type": "Point", "coordinates": [-87.315735,40.414048]}},
{ "type": "Feature", "properties": {"Name":"Ramsey CDP","State":"Indiana","State_Abbrev":"IN"},
"geometry":{ "type": "Point", "coordinates": [-86.155688,38.321668]}},
{ "type": "Feature", "properties": {"Name":"Raub CDP","State":"Indiana","State_Abbrev":"IN"},
"geometry":{ "type": "Point", "coordinates": [-87.489774,40.729287]}},
{ "type": "Feature", "properties": {"Name":"Reddington CDP","State":"Indiana","State_Abbrev":"IN"},
"geometry":{ "type": "Point", "coordinates": [-85.837252,39.038019]}},
{ "type": "Feature", "properties": {"Name":"Redkey town","State":"Indiana","State_Abbrev":"IN"},
"geometry":{ "type": "Point", "coordinates": [-85.153934,40.348304]}},
{ "type": "Feature", "properties": {"Name":"Remington town","State":"Indiana","State_Abbrev":"IN"},
"geometry":{ "type": "Point", "coordinates": [-87.129724,40.769405]}},
{ "type": "Feature", "properties": {"Name":"Rensselaer city","State":"Indiana","State_Abbrev":"IN"},
"geometry":{ "type": "Point", "coordinates": [-87.168659,40.939598]}},
{ "type": "Feature", "properties": {"Name":"Reo CDP","State":"Indiana","State_Abbrev":"IN"},
"geometry":{ "type": "Point", "coordinates": [-87.113353,37.909166]}},
{ "type": "Feature", "properties": {"Name":"Reynolds town","State":"Indiana","State_Abbrev":"IN"},
"geometry":{ "type": "Point", "coordinates": [-86.87428,40.749196]}},
{ "type": "Feature", "properties": {"Name":"Richland town","State":"Indiana","State_Abbrev":"IN"},
"geometry":{ "type": "Point", "coordinates": [-87.169672,37.946582]}},
{ "type": "Feature", "properties": {"Name":"Richmond city","State":"Indiana","State_Abbrev":"IN"},
"geometry":{ "type": "Point", "coordinates": [-84.890917,39.832086]}},
{ "type": "Feature", "properties": {"Name":"Ridgeville town","State":"Indiana","State_Abbrev":"IN"},
"geometry":{ "type": "Point", "coordinates": [-85.028613,40.291554]}},
{ "type": "Feature", "properties": {"Name":"Riley town","State":"Indiana","State_Abbrev":"IN"},
"geometry":{ "type": "Point", "coordinates": [-87.300212,39.389765]}},
{ "type": "Feature", "properties": {"Name":"Rising Sun city","State":"Indiana","State_Abbrev":"IN"},
"geometry":{ "type": "Point", "coordinates": [-84.853294,38.953742]}},
{ "type": "Feature", "properties": {"Name":"River Forest town","State":"Indiana","State_Abbrev":"IN"},
"geometry":{ "type": "Point", "coordinates": [-85.729214,40.110567]}},
{ "type": "Feature", "properties": {"Name":"Riverwood CDP","State":"Indiana","State_Abbrev":"IN"},
"geometry":{ "type": "Point", "coordinates": [-85.966749,40.1013]}},
{ "type": "Feature", "properties": {"Name":"Roachdale town","State":"Indiana","State_Abbrev":"IN"},
"geometry":{ "type": "Point", "coordinates": [-86.80047,39.849168]}},
{ "type": "Feature", "properties": {"Name":"Roann town","State":"Indiana","State_Abbrev":"IN"},
"geometry":{ "type": "Point", "coordinates": [-85.924577,40.911033]}},
{ "type": "Feature", "properties": {"Name":"Roanoke town","State":"Indiana","State_Abbrev":"IN"},
"geometry":{ "type": "Point", "coordinates": [-85.380757,40.964461]}},
{ "type": "Feature", "properties": {"Name":"Rob Roy CDP","State":"Indiana","State_Abbrev":"IN"},
"geometry":{ "type": "Point", "coordinates": [-87.247996,40.241353]}},
{ "type": "Feature", "properties": {"Name":"Rochester city","State":"Indiana","State_Abbrev":"IN"},
"geometry":{ "type": "Point", "coordinates": [-86.198313,41.060392]}},
{ "type": "Feature", "properties": {"Name":"Rockfield CDP","State":"Indiana","State_Abbrev":"IN"},
"geometry":{ "type": "Point", "coordinates": [-86.573143,40.641551]}},
{ "type": "Feature", "properties": {"Name":"Rockford CDP","State":"Indiana","State_Abbrev":"IN"},
"geometry":{ "type": "Point", "coordinates": [-85.88279,38.985608]}},
{ "type": "Feature", "properties": {"Name":"Rockport city","State":"Indiana","State_Abbrev":"IN"},
"geometry":{ "type": "Point", "coordinates": [-87.054244,37.889918]}},
{ "type": "Feature", "properties": {"Name":"Rockville town","State":"Indiana","State_Abbrev":"IN"},
"geometry":{ "type": "Point", "coordinates": [-87.229465,39.766458]}},
{ "type": "Feature", "properties": {"Name":"Rocky Ripple town","State":"Indiana","State_Abbrev":"IN"},
"geometry":{ "type": "Point", "coordinates": [-86.173128,39.848403]}},
{ "type": "Feature", "properties": {"Name":"Roll CDP","State":"Indiana","State_Abbrev":"IN"},
"geometry":{ "type": "Point", "coordinates": [-85.393366,40.553029]}},
{ "type": "Feature", "properties": {"Name":"Rolling Prairie CDP","State":"Indiana","State_Abbrev":"IN"},
"geometry":{ "type": "Point", "coordinates": [-86.619898,41.674467]}},
{ "type": "Feature", "properties": {"Name":"Rome City town","State":"Indiana","State_Abbrev":"IN"},
"geometry":{ "type": "Point", "coordinates": [-85.358787,41.489413]}},
{ "type": "Feature", "properties": {"Name":"Romney CDP","State":"Indiana","State_Abbrev":"IN"},
"geometry":{ "type": "Point", "coordinates": [-86.901194,40.253919]}},
{ "type": "Feature", "properties": {"Name":"Rosedale town","State":"Indiana","State_Abbrev":"IN"},
"geometry":{ "type": "Point", "coordinates": [-87.281589,39.622461]}},
{ "type": "Feature", "properties": {"Name":"Roseland town","State":"Indiana","State_Abbrev":"IN"},
"geometry":{ "type": "Point", "coordinates": [-86.250592,41.717607]}},
{ "type": "Feature", "properties": {"Name":"Roselawn CDP","State":"Indiana","State_Abbrev":"IN"},
"geometry":{ "type": "Point", "coordinates": [-87.292819,41.15687]}},
{ "type": "Feature", "properties": {"Name":"Rossville town","State":"Indiana","State_Abbrev":"IN"},
"geometry":{ "type": "Point", "coordinates": [-86.595787,40.419617]}},
{ "type": "Feature", "properties": {"Name":"Royal Center town","State":"Indiana","State_Abbrev":"IN"},
"geometry":{ "type": "Point", "coordinates": [-86.500049,40.864319]}},
{ "type": "Feature", "properties": {"Name":"Royerton CDP","State":"Indiana","State_Abbrev":"IN"},
"geometry":{ "type": "Point", "coordinates": [-85.373304,40.264993]}},
{ "type": "Feature", "properties": {"Name":"Rushville city","State":"Indiana","State_Abbrev":"IN"},
"geometry":{ "type": "Point", "coordinates": [-85.446128,39.61782]}},
{ "type": "Feature", "properties": {"Name":"Russellville town","State":"Indiana","State_Abbrev":"IN"},
"geometry":{ "type": "Point", "coordinates": [-86.983231,39.856954]}},
{ "type": "Feature", "properties": {"Name":"Russiaville town","State":"Indiana","State_Abbrev":"IN"},
"geometry":{ "type": "Point", "coordinates": [-86.2728,40.418891]}},
{ "type": "Feature", "properties": {"Name":"St. Anthony CDP","State":"Indiana","State_Abbrev":"IN"},
"geometry":{ "type": "Point", "coordinates": [-86.823061,38.318687]}},
{ "type": "Feature", "properties": {"Name":"St. Bernice CDP","State":"Indiana","State_Abbrev":"IN"},
"geometry":{ "type": "Point", "coordinates": [-87.519943,39.709554]}},
{ "type": "Feature", "properties": {"Name":"St. Joe town","State":"Indiana","State_Abbrev":"IN"},
"geometry":{ "type": "Point", "coordinates": [-84.901115,41.314664]}},
{ "type": "Feature", "properties": {"Name":"St. John town","State":"Indiana","State_Abbrev":"IN"},
"geometry":{ "type": "Point", "coordinates": [-87.467779,41.441816]}},
{ "type": "Feature", "properties": {"Name":"St. Leon town","State":"Indiana","State_Abbrev":"IN"},
"geometry":{ "type": "Point", "coordinates": [-84.966512,39.29947]}},
{ "type": "Feature", "properties": {"Name":"St. Mary of the Woods CDP","State":"Indiana","State_Abbrev":"IN"},
"geometry":{ "type": "Point", "coordinates": [-87.464544,39.512227]}},
{ "type": "Feature", "properties": {"Name":"St. Meinrad CDP","State":"Indiana","State_Abbrev":"IN"},
"geometry":{ "type": "Point", "coordinates": [-86.832128,38.168142]}},
{ "type": "Feature", "properties": {"Name":"St. Omer CDP","State":"Indiana","State_Abbrev":"IN"},
"geometry":{ "type": "Point", "coordinates": [-85.593369,39.434314]}},
{ "type": "Feature", "properties": {"Name":"St. Paul town","State":"Indiana","State_Abbrev":"IN"},
"geometry":{ "type": "Point", "coordinates": [-85.628713,39.428152]}},
{ "type": "Feature", "properties": {"Name":"St. Wendel CDP","State":"Indiana","State_Abbrev":"IN"},
"geometry":{ "type": "Point", "coordinates": [-87.699952,38.105043]}},
{ "type": "Feature", "properties": {"Name":"Salamonia town","State":"Indiana","State_Abbrev":"IN"},
"geometry":{ "type": "Point", "coordinates": [-84.864935,40.385961]}},
{ "type": "Feature", "properties": {"Name":"Salem city","State":"Indiana","State_Abbrev":"IN"},
"geometry":{ "type": "Point", "coordinates": [-86.097459,38.604584]}},
{ "type": "Feature", "properties": {"Name":"Saline City CDP","State":"Indiana","State_Abbrev":"IN"},
"geometry":{ "type": "Point", "coordinates": [-87.132277,39.366557]}},
{ "type": "Feature", "properties": {"Name":"Salt Creek Commons CDP","State":"Indiana","State_Abbrev":"IN"},
"geometry":{ "type": "Point", "coordinates": [-87.141068,41.511128]}},
{ "type": "Feature", "properties": {"Name":"Saltillo town","State":"Indiana","State_Abbrev":"IN"},
"geometry":{ "type": "Point", "coordinates": [-86.297484,38.665225]}},
{ "type": "Feature", "properties": {"Name":"Sandborn town","State":"Indiana","State_Abbrev":"IN"},
"geometry":{ "type": "Point", "coordinates": [-87.184632,38.896767]}},
{ "type": "Feature", "properties": {"Name":"Sandusky CDP","State":"Indiana","State_Abbrev":"IN"},
"geometry":{ "type": "Point", "coordinates": [-85.480081,39.420921]}},
{ "type": "Feature", "properties": {"Name":"San Pierre CDP","State":"Indiana","State_Abbrev":"IN"},
"geometry":{ "type": "Point", "coordinates": [-86.890696,41.199265]}},
{ "type": "Feature", "properties": {"Name":"Santa Claus town","State":"Indiana","State_Abbrev":"IN"},
"geometry":{ "type": "Point", "coordinates": [-86.927244,38.116065]}},
{ "type": "Feature", "properties": {"Name":"Saratoga town","State":"Indiana","State_Abbrev":"IN"},
"geometry":{ "type": "Point", "coordinates": [-84.915838,40.236818]}},
{ "type": "Feature", "properties": {"Name":"Sardinia CDP","State":"Indiana","State_Abbrev":"IN"},
"geometry":{ "type": "Point", "coordinates": [-85.631034,39.153071]}},
{ "type": "Feature", "properties": {"Name":"Saugany Lake CDP","State":"Indiana","State_Abbrev":"IN"},
"geometry":{ "type": "Point", "coordinates": [-86.591885,41.7217]}},
{ "type": "Feature", "properties": {"Name":"Schaefer Lake CDP","State":"Indiana","State_Abbrev":"IN"},
"geometry":{ "type": "Point", "coordinates": [-85.749786,39.28172]}},
{ "type": "Feature", "properties": {"Name":"Schererville town","State":"Indiana","State_Abbrev":"IN"},
"geometry":{ "type": "Point", "coordinates": [-87.443395,41.485177]}},
{ "type": "Feature", "properties": {"Name":"Schneider town","State":"Indiana","State_Abbrev":"IN"},
"geometry":{ "type": "Point", "coordinates": [-87.445333,41.192149]}},
{ "type": "Feature", "properties": {"Name":"Schnellville CDP","State":"Indiana","State_Abbrev":"IN"},
"geometry":{ "type": "Point", "coordinates": [-86.756251,38.345227]}},
{ "type": "Feature", "properties": {"Name":"Scipio CDP","State":"Indiana","State_Abbrev":"IN"},
"geometry":{ "type": "Point", "coordinates": [-85.715006,39.074343]}},
{ "type": "Feature", "properties": {"Name":"Scircleville CDP","State":"Indiana","State_Abbrev":"IN"},
"geometry":{ "type": "Point", "coordinates": [-86.301556,40.288064]}},
{ "type": "Feature", "properties": {"Name":"Scotland CDP","State":"Indiana","State_Abbrev":"IN"},
"geometry":{ "type": "Point", "coordinates": [-86.90475,38.909139]}},
{ "type": "Feature", "properties": {"Name":"Scott CDP","State":"Indiana","State_Abbrev":"IN"},
"geometry":{ "type": "Point", "coordinates": [-85.557668,41.742779]}},
{ "type": "Feature", "properties": {"Name":"Scottsburg city","State":"Indiana","State_Abbrev":"IN"},
"geometry":{ "type": "Point", "coordinates": [-85.782217,38.684468]}},
{ "type": "Feature", "properties": {"Name":"Seelyville town","State":"Indiana","State_Abbrev":"IN"},
"geometry":{ "type": "Point", "coordinates": [-87.266916,39.493352]}},
{ "type": "Feature", "properties": {"Name":"Sellersburg town","State":"Indiana","State_Abbrev":"IN"},
"geometry":{ "type": "Point", "coordinates": [-85.774266,38.399505]}},
{ "type": "Feature", "properties": {"Name":"Selma town","State":"Indiana","State_Abbrev":"IN"},
"geometry":{ "type": "Point", "coordinates": [-85.273838,40.18662]}},
{ "type": "Feature", "properties": {"Name":"Servia CDP","State":"Indiana","State_Abbrev":"IN"},
"geometry":{ "type": "Point", "coordinates": [-85.737052,40.955167]}},
{ "type": "Feature", "properties": {"Name":"Seymour city","State":"Indiana","State_Abbrev":"IN"},
"geometry":{ "type": "Point", "coordinates": [-85.891285,38.947516]}},
{ "type": "Feature", "properties": {"Name":"Shadeland town","State":"Indiana","State_Abbrev":"IN"},
"geometry":{ "type": "Point", "coordinates": [-86.963689,40.344818]}},
{ "type": "Feature", "properties": {"Name":"Shamrock Lakes town","State":"Indiana","State_Abbrev":"IN"},
"geometry":{ "type": "Point", "coordinates": [-85.427434,40.411439]}},
{ "type": "Feature", "properties": {"Name":"Sharpsville town","State":"Indiana","State_Abbrev":"IN"},
"geometry":{ "type": "Point", "coordinates": [-86.086897,40.379683]}},
{ "type": "Feature", "properties": {"Name":"Shelburn town","State":"Indiana","State_Abbrev":"IN"},
"geometry":{ "type": "Point", "coordinates": [-87.397142,39.179144]}},
{ "type": "Feature", "properties": {"Name":"Shelby CDP","State":"Indiana","State_Abbrev":"IN"},
"geometry":{ "type": "Point", "coordinates": [-87.342684,41.193433]}},
{ "type": "Feature", "properties": {"Name":"Shelbyville city","State":"Indiana","State_Abbrev":"IN"},
"geometry":{ "type": "Point", "coordinates": [-85.779499,39.545277]}},
{ "type": "Feature", "properties": {"Name":"Shepardsville CDP","State":"Indiana","State_Abbrev":"IN"},
"geometry":{ "type": "Point", "coordinates": [-87.422937,39.604695]}},
{ "type": "Feature", "properties": {"Name":"Sheridan town","State":"Indiana","State_Abbrev":"IN"},
"geometry":{ "type": "Point", "coordinates": [-86.220032,40.132295]}},
{ "type": "Feature", "properties": {"Name":"Shipshewana town","State":"Indiana","State_Abbrev":"IN"},
"geometry":{ "type": "Point", "coordinates": [-85.576477,41.674282]}},
{ "type": "Feature", "properties": {"Name":"Shipshewana Lake CDP","State":"Indiana","State_Abbrev":"IN"},
"geometry":{ "type": "Point", "coordinates": [-85.609706,41.683582]}},
{ "type": "Feature", "properties": {"Name":"Shirley town","State":"Indiana","State_Abbrev":"IN"},
"geometry":{ "type": "Point", "coordinates": [-85.579939,39.890906]}},
{ "type": "Feature", "properties": {"Name":"Shoals town","State":"Indiana","State_Abbrev":"IN"},
"geometry":{ "type": "Point", "coordinates": [-86.793733,38.665465]}},
{ "type": "Feature", "properties": {"Name":"Shorewood Forest CDP","State":"Indiana","State_Abbrev":"IN"},
"geometry":{ "type": "Point", "coordinates": [-87.148194,41.460038]}},
{ "type": "Feature", "properties": {"Name":"Sidney town","State":"Indiana","State_Abbrev":"IN"},
"geometry":{ "type": "Point", "coordinates": [-85.742936,41.105045]}},
{ "type": "Feature", "properties": {"Name":"Silver Lake town","State":"Indiana","State_Abbrev":"IN"},
"geometry":{ "type": "Point", "coordinates": [-85.89287,41.074317]}},
{ "type": "Feature", "properties": {"Name":"Simonton Lake CDP","State":"Indiana","State_Abbrev":"IN"},
"geometry":{ "type": "Point", "coordinates": [-85.97054,41.754215]}},
{ "type": "Feature", "properties": {"Name":"Sims CDP","State":"Indiana","State_Abbrev":"IN"},
"geometry":{ "type": "Point", "coordinates": [-85.857236,40.500242]}},
{ "type": "Feature", "properties": {"Name":"Smithville-Sanders CDP","State":"Indiana","State_Abbrev":"IN"},
"geometry":{ "type": "Point", "coordinates": [-86.510773,39.059695]}},
{ "type": "Feature", "properties": {"Name":"Snow Lake CDP","State":"Indiana","State_Abbrev":"IN"},
"geometry":{ "type": "Point", "coordinates": [-85.029473,41.730071]}},
{ "type": "Feature", "properties": {"Name":"Solsberry CDP","State":"Indiana","State_Abbrev":"IN"},
"geometry":{ "type": "Point", "coordinates": [-86.763545,39.082599]}},
{ "type": "Feature", "properties": {"Name":"Somerset CDP","State":"Indiana","State_Abbrev":"IN"},
"geometry":{ "type": "Point", "coordinates": [-85.831173,40.670293]}},
{ "type": "Feature", "properties": {"Name":"Somerville town","State":"Indiana","State_Abbrev":"IN"},
"geometry":{ "type": "Point", "coordinates": [-87.375748,38.279673]}},
{ "type": "Feature", "properties": {"Name":"South Bend city","State":"Indiana","State_Abbrev":"IN"},
"geometry":{ "type": "Point", "coordinates": [-86.268809,41.676643]}},
{ "type": "Feature", "properties": {"Name":"South Center CDP","State":"Indiana","State_Abbrev":"IN"},
"geometry":{ "type": "Point", "coordinates": [-86.64767,41.475126]}},
{ "type": "Feature", "properties": {"Name":"South Haven CDP","State":"Indiana","State_Abbrev":"IN"},
"geometry":{ "type": "Point", "coordinates": [-87.140439,41.538727]}},
{ "type": "Feature", "properties": {"Name":"South Milford CDP","State":"Indiana","State_Abbrev":"IN"},
"geometry":{ "type": "Point", "coordinates": [-85.266322,41.532047]}},
{ "type": "Feature", "properties": {"Name":"Southport city","State":"Indiana","State_Abbrev":"IN"},
"geometry":{ "type": "Point", "coordinates": [-86.117116,39.65998]}},
{ "type": "Feature", "properties": {"Name":"South Whitley town","State":"Indiana","State_Abbrev":"IN"},
"geometry":{ "type": "Point", "coordinates": [-85.624534,41.084048]}},
{ "type": "Feature", "properties": {"Name":"Spartanburg CDP","State":"Indiana","State_Abbrev":"IN"},
"geometry":{ "type": "Point", "coordinates": [-84.852307,40.067308]}},
{ "type": "Feature", "properties": {"Name":"Speedway town","State":"Indiana","State_Abbrev":"IN"},
"geometry":{ "type": "Point", "coordinates": [-86.247542,39.793698]}},
{ "type": "Feature", "properties": {"Name":"Spencer town","State":"Indiana","State_Abbrev":"IN"},
"geometry":{ "type": "Point", "coordinates": [-86.772462,39.286215]}},
{ "type": "Feature", "properties": {"Name":"Spencerville CDP","State":"Indiana","State_Abbrev":"IN"},
"geometry":{ "type": "Point", "coordinates": [-84.929071,41.279594]}},
{ "type": "Feature", "properties": {"Name":"Spiceland town","State":"Indiana","State_Abbrev":"IN"},
"geometry":{ "type": "Point", "coordinates": [-85.426053,39.843142]}},
{ "type": "Feature", "properties": {"Name":"Spring Grove town","State":"Indiana","State_Abbrev":"IN"},
"geometry":{ "type": "Point", "coordinates": [-84.891222,39.847216]}},
{ "type": "Feature", "properties": {"Name":"Spring Hill town","State":"Indiana","State_Abbrev":"IN"},
"geometry":{ "type": "Point", "coordinates": [-86.192551,39.834603]}},
{ "type": "Feature", "properties": {"Name":"Spring Lake town","State":"Indiana","State_Abbrev":"IN"},
"geometry":{ "type": "Point", "coordinates": [-85.855852,39.777236]}},
{ "type": "Feature", "properties": {"Name":"Springport town","State":"Indiana","State_Abbrev":"IN"},
"geometry":{ "type": "Point", "coordinates": [-85.392555,40.047194]}},
{ "type": "Feature", "properties": {"Name":"Spurgeon town","State":"Indiana","State_Abbrev":"IN"},
"geometry":{ "type": "Point", "coordinates": [-87.259526,38.255502]}},
{ "type": "Feature", "properties": {"Name":"Stanford CDP","State":"Indiana","State_Abbrev":"IN"},
"geometry":{ "type": "Point", "coordinates": [-86.664573,39.092056]}},
{ "type": "Feature", "properties": {"Name":"Star City CDP","State":"Indiana","State_Abbrev":"IN"},
"geometry":{ "type": "Point", "coordinates": [-86.554166,40.972497]}},
{ "type": "Feature", "properties": {"Name":"State Line City town","State":"Indiana","State_Abbrev":"IN"},
"geometry":{ "type": "Point", "coordinates": [-87.527069,40.197348]}},
{ "type": "Feature", "properties": {"Name":"Staunton town","State":"Indiana","State_Abbrev":"IN"},
"geometry":{ "type": "Point", "coordinates": [-87.188882,39.48645]}},
{ "type": "Feature", "properties": {"Name":"Stendal CDP","State":"Indiana","State_Abbrev":"IN"},
"geometry":{ "type": "Point", "coordinates": [-87.146264,38.267157]}},
{ "type": "Feature", "properties": {"Name":"Stewartsville CDP","State":"Indiana","State_Abbrev":"IN"},
"geometry":{ "type": "Point", "coordinates": [-87.836699,38.181073]}},
{ "type": "Feature", "properties": {"Name":"Stilesville town","State":"Indiana","State_Abbrev":"IN"},
"geometry":{ "type": "Point", "coordinates": [-86.633012,39.636635]}},
{ "type": "Feature", "properties": {"Name":"Stillwell CDP","State":"Indiana","State_Abbrev":"IN"},
"geometry":{ "type": "Point", "coordinates": [-86.602279,41.554936]}},
{ "type": "Feature", "properties": {"Name":"Stinesville town","State":"Indiana","State_Abbrev":"IN"},
"geometry":{ "type": "Point", "coordinates": [-86.649867,39.299944]}},
{ "type": "Feature", "properties": {"Name":"Stockwell CDP","State":"Indiana","State_Abbrev":"IN"},
"geometry":{ "type": "Point", "coordinates": [-86.768871,40.281847]}},
{ "type": "Feature", "properties": {"Name":"Stone Bluff CDP","State":"Indiana","State_Abbrev":"IN"},
"geometry":{ "type": "Point", "coordinates": [-87.255785,40.168759]}},
{ "type": "Feature", "properties": {"Name":"Straughn town","State":"Indiana","State_Abbrev":"IN"},
"geometry":{ "type": "Point", "coordinates": [-85.290842,39.808384]}},
{ "type": "Feature", "properties": {"Name":"Stroh CDP","State":"Indiana","State_Abbrev":"IN"},
"geometry":{ "type": "Point", "coordinates": [-85.198852,41.583062]}},
{ "type": "Feature", "properties": {"Name":"Sullivan city","State":"Indiana","State_Abbrev":"IN"},
"geometry":{ "type": "Point", "coordinates": [-87.407329,39.097292]}},
{ "type": "Feature", "properties": {"Name":"Sulphur Springs town","State":"Indiana","State_Abbrev":"IN"},
"geometry":{ "type": "Point", "coordinates": [-85.439942,39.996632]}},
{ "type": "Feature", "properties": {"Name":"Sumava Resorts CDP","State":"Indiana","State_Abbrev":"IN"},
"geometry":{ "type": "Point", "coordinates": [-87.43805,41.165472]}},
{ "type": "Feature", "properties": {"Name":"Summitville town","State":"Indiana","State_Abbrev":"IN"},
"geometry":{ "type": "Point", "coordinates": [-85.643496,40.335979]}},
{ "type": "Feature", "properties": {"Name":"Sunman town","State":"Indiana","State_Abbrev":"IN"},
"geometry":{ "type": "Point", "coordinates": [-85.093112,39.237281]}},
{ "type": "Feature", "properties": {"Name":"Swayzee town","State":"Indiana","State_Abbrev":"IN"},
"geometry":{ "type": "Point", "coordinates": [-85.824307,40.506642]}},
{ "type": "Feature", "properties": {"Name":"Sweetser town","State":"Indiana","State_Abbrev":"IN"},
"geometry":{ "type": "Point", "coordinates": [-85.765358,40.568813]}},
{ "type": "Feature", "properties": {"Name":"Switz City town","State":"Indiana","State_Abbrev":"IN"},
"geometry":{ "type": "Point", "coordinates": [-87.05399,39.034854]}},
{ "type": "Feature", "properties": {"Name":"Syracuse town","State":"Indiana","State_Abbrev":"IN"},
"geometry":{ "type": "Point", "coordinates": [-85.749886,41.422617]}},
{ "type": "Feature", "properties": {"Name":"Tab CDP","State":"Indiana","State_Abbrev":"IN"},
"geometry":{ "type": "Point", "coordinates": [-87.477229,40.414928]}},
{ "type": "Feature", "properties": {"Name":"Talma CDP","State":"Indiana","State_Abbrev":"IN"},
"geometry":{ "type": "Point", "coordinates": [-86.137931,41.152446]}},
{ "type": "Feature", "properties": {"Name":"Taswell CDP","State":"Indiana","State_Abbrev":"IN"},
"geometry":{ "type": "Point", "coordinates": [-86.559743,38.335564]}},
{ "type": "Feature", "properties": {"Name":"Taylorsville CDP","State":"Indiana","State_Abbrev":"IN"},
"geometry":{ "type": "Point", "coordinates": [-85.950274,39.296476]}},
{ "type": "Feature", "properties": {"Name":"Tecumseh CDP","State":"Indiana","State_Abbrev":"IN"},
"geometry":{ "type": "Point", "coordinates": [-87.425801,39.569899]}},
{ "type": "Feature", "properties": {"Name":"Teegarden CDP","State":"Indiana","State_Abbrev":"IN"},
"geometry":{ "type": "Point", "coordinates": [-86.378327,41.464827]}},
{ "type": "Feature", "properties": {"Name":"Tell City city","State":"Indiana","State_Abbrev":"IN"},
"geometry":{ "type": "Point", "coordinates": [-86.759257,37.953015]}},
{ "type": "Feature", "properties": {"Name":"Templeton CDP","State":"Indiana","State_Abbrev":"IN"},
"geometry":{ "type": "Point", "coordinates": [-87.207388,40.513291]}},
{ "type": "Feature", "properties": {"Name":"Tennyson town","State":"Indiana","State_Abbrev":"IN"},
"geometry":{ "type": "Point", "coordinates": [-87.118799,38.081704]}},
{ "type": "Feature", "properties": {"Name":"Terre Haute city","State":"Indiana","State_Abbrev":"IN"},
"geometry":{ "type": "Point", "coordinates": [-87.376036,39.464152]}},
{ "type": "Feature", "properties": {"Name":"Thayer CDP","State":"Indiana","State_Abbrev":"IN"},
"geometry":{ "type": "Point", "coordinates": [-87.329505,41.173958]}},
{ "type": "Feature", "properties": {"Name":"Thorntown town","State":"Indiana","State_Abbrev":"IN"},
"geometry":{ "type": "Point", "coordinates": [-86.610007,40.129201]}},
{ "type": "Feature", "properties": {"Name":"Tippecanoe CDP","State":"Indiana","State_Abbrev":"IN"},
"geometry":{ "type": "Point", "coordinates": [-86.114939,41.210962]}},
{ "type": "Feature", "properties": {"Name":"Tipton city","State":"Indiana","State_Abbrev":"IN"},
"geometry":{ "type": "Point", "coordinates": [-86.042326,40.282033]}},
{ "type": "Feature", "properties": {"Name":"Toad Hop CDP","State":"Indiana","State_Abbrev":"IN"},
"geometry":{ "type": "Point", "coordinates": [-87.464341,39.457988]}},
{ "type": "Feature", "properties": {"Name":"Tocsin CDP","State":"Indiana","State_Abbrev":"IN"},
"geometry":{ "type": "Point", "coordinates": [-85.107193,40.831113]}},
{ "type": "Feature", "properties": {"Name":"Topeka town","State":"Indiana","State_Abbrev":"IN"},
"geometry":{ "type": "Point", "coordinates": [-85.547455,41.539434]}},
{ "type": "Feature", "properties": {"Name":"Town of Pines town","State":"Indiana","State_Abbrev":"IN"},
"geometry":{ "type": "Point", "coordinates": [-86.951764,41.688194]}},
{ "type": "Feature", "properties": {"Name":"Trafalgar town","State":"Indiana","State_Abbrev":"IN"},
"geometry":{ "type": "Point", "coordinates": [-86.149917,39.412422]}},
{ "type": "Feature", "properties": {"Name":"Trail Creek town","State":"Indiana","State_Abbrev":"IN"},
"geometry":{ "type": "Point", "coordinates": [-86.855517,41.696256]}},
{ "type": "Feature", "properties": {"Name":"Tri-Lakes CDP","State":"Indiana","State_Abbrev":"IN"},
"geometry":{ "type": "Point", "coordinates": [-85.453407,41.251123]}},
{ "type": "Feature", "properties": {"Name":"Troy town","State":"Indiana","State_Abbrev":"IN"},
"geometry":{ "type": "Point", "coordinates": [-86.798992,38.001969]}},
{ "type": "Feature", "properties": {"Name":"Tunnelton CDP","State":"Indiana","State_Abbrev":"IN"},
"geometry":{ "type": "Point", "coordinates": [-86.341153,38.773154]}},
{ "type": "Feature", "properties": {"Name":"Twelve Mile CDP","State":"Indiana","State_Abbrev":"IN"},
"geometry":{ "type": "Point", "coordinates": [-86.215986,40.864088]}},
{ "type": "Feature", "properties": {"Name":"Tyner CDP","State":"Indiana","State_Abbrev":"IN"},
"geometry":{ "type": "Point", "coordinates": [-86.399209,41.408183]}},
{ "type": "Feature", "properties": {"Name":"Ulen town","State":"Indiana","State_Abbrev":"IN"},
"geometry":{ "type": "Point", "coordinates": [-86.465224,40.066119]}},
{ "type": "Feature", "properties": {"Name":"Underwood CDP","State":"Indiana","State_Abbrev":"IN"},
"geometry":{ "type": "Point", "coordinates": [-85.766074,38.589063]}},
{ "type": "Feature", "properties": {"Name":"Union City city","State":"Indiana","State_Abbrev":"IN"},
"geometry":{ "type": "Point", "coordinates": [-84.820643,40.199321]}},
{ "type": "Feature", "properties": {"Name":"Uniondale town","State":"Indiana","State_Abbrev":"IN"},
"geometry":{ "type": "Point", "coordinates": [-85.238851,40.830072]}},
{ "type": "Feature", "properties": {"Name":"Union Mills CDP","State":"Indiana","State_Abbrev":"IN"},
"geometry":{ "type": "Point", "coordinates": [-86.783919,41.495254]}},
{ "type": "Feature", "properties": {"Name":"Universal town","State":"Indiana","State_Abbrev":"IN"},
"geometry":{ "type": "Point", "coordinates": [-87.455307,39.622521]}},
{ "type": "Feature", "properties": {"Name":"Upland town","State":"Indiana","State_Abbrev":"IN"},
"geometry":{ "type": "Point", "coordinates": [-85.500987,40.462848]}},
{ "type": "Feature", "properties": {"Name":"Urbana CDP","State":"Indiana","State_Abbrev":"IN"},
"geometry":{ "type": "Point", "coordinates": [-85.79212,40.897429]}},
{ "type": "Feature", "properties": {"Name":"Utica town","State":"Indiana","State_Abbrev":"IN"},
"geometry":{ "type": "Point", "coordinates": [-85.65576,38.339357]}},
{ "type": "Feature", "properties": {"Name":"Vallonia CDP","State":"Indiana","State_Abbrev":"IN"},
"geometry":{ "type": "Point", "coordinates": [-86.100727,38.84851]}},
{ "type": "Feature", "properties": {"Name":"Valparaiso city","State":"Indiana","State_Abbrev":"IN"},
"geometry":{ "type": "Point", "coordinates": [-87.052273,41.479812]}},
{ "type": "Feature", "properties": {"Name":"Van Bibber Lake CDP","State":"Indiana","State_Abbrev":"IN"},
"geometry":{ "type": "Point", "coordinates": [-86.929778,39.729211]}},
{ "type": "Feature", "properties": {"Name":"Van Buren town","State":"Indiana","State_Abbrev":"IN"},
"geometry":{ "type": "Point", "coordinates": [-85.503921,40.615756]}},
{ "type": "Feature", "properties": {"Name":"Veedersburg town","State":"Indiana","State_Abbrev":"IN"},
"geometry":{ "type": "Point", "coordinates": [-87.257231,40.115307]}},
{ "type": "Feature", "properties": {"Name":"Velpen CDP","State":"Indiana","State_Abbrev":"IN"},
"geometry":{ "type": "Point", "coordinates": [-87.105504,38.355288]}},
{ "type": "Feature", "properties": {"Name":"Vera Cruz town","State":"Indiana","State_Abbrev":"IN"},
"geometry":{ "type": "Point", "coordinates": [-85.079747,40.701418]}},
{ "type": "Feature", "properties": {"Name":"Vernon town","State":"Indiana","State_Abbrev":"IN"},
"geometry":{ "type": "Point", "coordinates": [-85.610034,38.985368]}},
{ "type": "Feature", "properties": {"Name":"Versailles town","State":"Indiana","State_Abbrev":"IN"},
"geometry":{ "type": "Point", "coordinates": [-85.256611,39.06346]}},
{ "type": "Feature", "properties": {"Name":"Vevay town","State":"Indiana","State_Abbrev":"IN"},
"geometry":{ "type": "Point", "coordinates": [-85.082151,38.740556]}},
{ "type": "Feature", "properties": {"Name":"Vicksburg CDP","State":"Indiana","State_Abbrev":"IN"},
"geometry":{ "type": "Point", "coordinates": [-87.197999,39.08845]}},
{ "type": "Feature", "properties": {"Name":"Vincennes city","State":"Indiana","State_Abbrev":"IN"},
"geometry":{ "type": "Point", "coordinates": [-87.511119,38.676102]}},
{ "type": "Feature", "properties": {"Name":"Vistula CDP","State":"Indiana","State_Abbrev":"IN"},
"geometry":{ "type": "Point", "coordinates": [-85.71234,41.748829]}},
{ "type": "Feature", "properties": {"Name":"Wabash city","State":"Indiana","State_Abbrev":"IN"},
"geometry":{ "type": "Point", "coordinates": [-85.829174,40.802752]}},
{ "type": "Feature", "properties": {"Name":"Wadesville CDP","State":"Indiana","State_Abbrev":"IN"},
"geometry":{ "type": "Point", "coordinates": [-87.790231,38.103842]}},
{ "type": "Feature", "properties": {"Name":"Wakarusa town","State":"Indiana","State_Abbrev":"IN"},
"geometry":{ "type": "Point", "coordinates": [-86.013334,41.531156]}},
{ "type": "Feature", "properties": {"Name":"Waldron CDP","State":"Indiana","State_Abbrev":"IN"},
"geometry":{ "type": "Point", "coordinates": [-85.662934,39.453554]}},
{ "type": "Feature", "properties": {"Name":"Walesboro CDP","State":"Indiana","State_Abbrev":"IN"},
"geometry":{ "type": "Point", "coordinates": [-85.911877,39.142497]}},
{ "type": "Feature", "properties": {"Name":"Walkerton town","State":"Indiana","State_Abbrev":"IN"},
"geometry":{ "type": "Point", "coordinates": [-86.48253,41.465702]}},
{ "type": "Feature", "properties": {"Name":"Wallace town","State":"Indiana","State_Abbrev":"IN"},
"geometry":{ "type": "Point", "coordinates": [-87.147115,39.987109]}},
{ "type": "Feature", "properties": {"Name":"Wall Lake CDP","State":"Indiana","State_Abbrev":"IN"},
"geometry":{ "type": "Point", "coordinates": [-85.200894,41.731487]}},
{ "type": "Feature", "properties": {"Name":"Walton town","State":"Indiana","State_Abbrev":"IN"},
"geometry":{ "type": "Point", "coordinates": [-86.244122,40.662293]}},
{ "type": "Feature", "properties": {"Name":"Wanatah town","State":"Indiana","State_Abbrev":"IN"},
"geometry":{ "type": "Point", "coordinates": [-86.892347,41.430561]}},
{ "type": "Feature", "properties": {"Name":"Warren town","State":"Indiana","State_Abbrev":"IN"},
"geometry":{ "type": "Point", "coordinates": [-85.42465,40.687688]}},
{ "type": "Feature", "properties": {"Name":"Warren Park town","State":"Indiana","State_Abbrev":"IN"},
"geometry":{ "type": "Point", "coordinates": [-86.051685,39.783228]}},
{ "type": "Feature", "properties": {"Name":"Warrington CDP","State":"Indiana","State_Abbrev":"IN"},
"geometry":{ "type": "Point", "coordinates": [-85.635281,39.908746]}},
{ "type": "Feature", "properties": {"Name":"Warsaw city","State":"Indiana","State_Abbrev":"IN"},
"geometry":{ "type": "Point", "coordinates": [-85.848476,41.246053]}},
{ "type": "Feature", "properties": {"Name":"Washington city","State":"Indiana","State_Abbrev":"IN"},
"geometry":{ "type": "Point", "coordinates": [-87.160361,38.658226]}},
{ "type": "Feature", "properties": {"Name":"Waterloo town","State":"Indiana","State_Abbrev":"IN"},
"geometry":{ "type": "Point", "coordinates": [-85.051661,41.437398]}},
{ "type": "Feature", "properties": {"Name":"Waveland town","State":"Indiana","State_Abbrev":"IN"},
"geometry":{ "type": "Point", "coordinates": [-87.045453,39.877624]}},
{ "type": "Feature", "properties": {"Name":"Waverly CDP","State":"Indiana","State_Abbrev":"IN"},
"geometry":{ "type": "Point", "coordinates": [-86.262687,39.551997]}},
{ "type": "Feature", "properties": {"Name":"Wawaka CDP","State":"Indiana","State_Abbrev":"IN"},
"geometry":{ "type": "Point", "coordinates": [-85.483468,41.459914]}},
{ "type": "Feature", "properties": {"Name":"Waynesville CDP","State":"Indiana","State_Abbrev":"IN"},
"geometry":{ "type": "Point", "coordinates": [-85.890993,39.112935]}},
{ "type": "Feature", "properties": {"Name":"Waynetown town","State":"Indiana","State_Abbrev":"IN"},
"geometry":{ "type": "Point", "coordinates": [-87.065512,40.087992]}},
{ "type": "Feature", "properties": {"Name":"Webster CDP","State":"Indiana","State_Abbrev":"IN"},
"geometry":{ "type": "Point", "coordinates": [-84.942805,39.90128]}},
{ "type": "Feature", "properties": {"Name":"Wellsboro CDP","State":"Indiana","State_Abbrev":"IN"},
"geometry":{ "type": "Point", "coordinates": [-86.764514,41.494786]}},
{ "type": "Feature", "properties": {"Name":"West Baden Springs town","State":"Indiana","State_Abbrev":"IN"},
"geometry":{ "type": "Point", "coordinates": [-86.612285,38.568162]}},
{ "type": "Feature", "properties": {"Name":"West College Corner town","State":"Indiana","State_Abbrev":"IN"},
"geometry":{ "type": "Point", "coordinates": [-84.818973,39.569415]}},
{ "type": "Feature", "properties": {"Name":"Westfield city","State":"Indiana","State_Abbrev":"IN"},
"geometry":{ "type": "Point", "coordinates": [-86.152263,40.035057]}},
{ "type": "Feature", "properties": {"Name":"West Harrison town","State":"Indiana","State_Abbrev":"IN"},
"geometry":{ "type": "Point", "coordinates": [-84.822336,39.257846]}},
{ "type": "Feature", "properties": {"Name":"West Lafayette city","State":"Indiana","State_Abbrev":"IN"},
"geometry":{ "type": "Point", "coordinates": [-86.923616,40.443707]}},
{ "type": "Feature", "properties": {"Name":"West Lebanon town","State":"Indiana","State_Abbrev":"IN"},
"geometry":{ "type": "Point", "coordinates": [-87.386167,40.272365]}},
{ "type": "Feature", "properties": {"Name":"West Middleton CDP","State":"Indiana","State_Abbrev":"IN"},
"geometry":{ "type": "Point", "coordinates": [-86.214945,40.441175]}},
{ "type": "Feature", "properties": {"Name":"Westphalia CDP","State":"Indiana","State_Abbrev":"IN"},
"geometry":{ "type": "Point", "coordinates": [-87.221851,38.863317]}},
{ "type": "Feature", "properties": {"Name":"West Point CDP","State":"Indiana","State_Abbrev":"IN"},
"geometry":{ "type": "Point", "coordinates": [-87.037837,40.347758]}},
{ "type": "Feature", "properties": {"Name":"Westport town","State":"Indiana","State_Abbrev":"IN"},
"geometry":{ "type": "Point", "coordinates": [-85.575029,39.176306]}},
{ "type": "Feature", "properties": {"Name":"West Terre Haute town","State":"Indiana","State_Abbrev":"IN"},
"geometry":{ "type": "Point", "coordinates": [-87.4506,39.463763]}},
{ "type": "Feature", "properties": {"Name":"Westville town","State":"Indiana","State_Abbrev":"IN"},
"geometry":{ "type": "Point", "coordinates": [-86.904942,41.537547]}},
{ "type": "Feature", "properties": {"Name":"Westwood CDP","State":"Indiana","State_Abbrev":"IN"},
"geometry":{ "type": "Point", "coordinates": [-85.41629,39.917971]}},
{ "type": "Feature", "properties": {"Name":"Wheatfield town","State":"Indiana","State_Abbrev":"IN"},
"geometry":{ "type": "Point", "coordinates": [-87.053094,41.1911]}},
{ "type": "Feature", "properties": {"Name":"Wheatland town","State":"Indiana","State_Abbrev":"IN"},
"geometry":{ "type": "Point", "coordinates": [-87.306253,38.663223]}},
{ "type": "Feature", "properties": {"Name":"Wheeler CDP","State":"Indiana","State_Abbrev":"IN"},
"geometry":{ "type": "Point", "coordinates": [-87.171223,41.51047]}},
{ "type": "Feature", "properties": {"Name":"Whiteland town","State":"Indiana","State_Abbrev":"IN"},
"geometry":{ "type": "Point", "coordinates": [-86.074352,39.555138]}},
{ "type": "Feature", "properties": {"Name":"Whitestown town","State":"Indiana","State_Abbrev":"IN"},
"geometry":{ "type": "Point", "coordinates": [-86.361195,39.970518]}},
{ "type": "Feature", "properties": {"Name":"Whitewater town","State":"Indiana","State_Abbrev":"IN"},
"geometry":{ "type": "Point", "coordinates": [-84.831098,39.944804]}},
{ "type": "Feature", "properties": {"Name":"Whiting city","State":"Indiana","State_Abbrev":"IN"},
"geometry":{ "type": "Point", "coordinates": [-87.484049,41.672955]}},
{ "type": "Feature", "properties": {"Name":"Wildwood CDP","State":"Indiana","State_Abbrev":"IN"},
"geometry":{ "type": "Point", "coordinates": [-85.18955,41.59294]}},
{ "type": "Feature", "properties": {"Name":"Wilkinson town","State":"Indiana","State_Abbrev":"IN"},
"geometry":{ "type": "Point", "coordinates": [-85.608122,39.885506]}},
{ "type": "Feature", "properties": {"Name":"Williams CDP","State":"Indiana","State_Abbrev":"IN"},
"geometry":{ "type": "Point", "coordinates": [-86.651316,38.813343]}},
{ "type": "Feature", "properties": {"Name":"Williamsburg CDP","State":"Indiana","State_Abbrev":"IN"},
"geometry":{ "type": "Point", "coordinates": [-84.997196,39.95106]}},
{ "type": "Feature", "properties": {"Name":"Williams Creek town","State":"Indiana","State_Abbrev":"IN"},
"geometry":{ "type": "Point", "coordinates": [-86.150243,39.900153]}},
{ "type": "Feature", "properties": {"Name":"Williamsport town","State":"Indiana","State_Abbrev":"IN"},
"geometry":{ "type": "Point", "coordinates": [-87.292274,40.288398]}},
{ "type": "Feature", "properties": {"Name":"Willow Branch CDP","State":"Indiana","State_Abbrev":"IN"},
"geometry":{ "type": "Point", "coordinates": [-85.684882,39.876827]}},
{ "type": "Feature", "properties": {"Name":"Winamac town","State":"Indiana","State_Abbrev":"IN"},
"geometry":{ "type": "Point", "coordinates": [-86.603678,41.053501]}},
{ "type": "Feature", "properties": {"Name":"Winchester city","State":"Indiana","State_Abbrev":"IN"},
"geometry":{ "type": "Point", "coordinates": [-84.977051,40.172099]}},
{ "type": "Feature", "properties": {"Name":"Windfall City town","State":"Indiana","State_Abbrev":"IN"},
"geometry":{ "type": "Point", "coordinates": [-85.958321,40.361821]}},
{ "type": "Feature", "properties": {"Name":"Windsor CDP","State":"Indiana","State_Abbrev":"IN"},
"geometry":{ "type": "Point", "coordinates": [-85.214592,40.155988]}},
{ "type": "Feature", "properties": {"Name":"Winfield town","State":"Indiana","State_Abbrev":"IN"},
"geometry":{ "type": "Point", "coordinates": [-87.262352,41.412112]}},
{ "type": "Feature", "properties": {"Name":"Wingate town","State":"Indiana","State_Abbrev":"IN"},
"geometry":{ "type": "Point", "coordinates": [-87.072421,40.172223]}},
{ "type": "Feature", "properties": {"Name":"Winona Lake town","State":"Indiana","State_Abbrev":"IN"},
"geometry":{ "type": "Point", "coordinates": [-85.813135,41.217143]}},
{ "type": "Feature", "properties": {"Name":"Winslow town","State":"Indiana","State_Abbrev":"IN"},
"geometry":{ "type": "Point", "coordinates": [-87.212153,38.382675]}},
{ "type": "Feature", "properties": {"Name":"Wolcott town","State":"Indiana","State_Abbrev":"IN"},
"geometry":{ "type": "Point", "coordinates": [-87.042098,40.759034]}},
{ "type": "Feature", "properties": {"Name":"Wolcottville town","State":"Indiana","State_Abbrev":"IN"},
"geometry":{ "type": "Point", "coordinates": [-85.366525,41.525484]}},
{ "type": "Feature", "properties": {"Name":"Wolflake CDP","State":"Indiana","State_Abbrev":"IN"},
"geometry":{ "type": "Point", "coordinates": [-85.490121,41.327874]}},
{ "type": "Feature", "properties": {"Name":"Woodburn city","State":"Indiana","State_Abbrev":"IN"},
"geometry":{ "type": "Point", "coordinates": [-84.859915,41.125477]}},
{ "type": "Feature", "properties": {"Name":"Woodlawn Heights town","State":"Indiana","State_Abbrev":"IN"},
"geometry":{ "type": "Point", "coordinates": [-85.696832,40.118434]}},
{ "type": "Feature", "properties": {"Name":"Wooster CDP","State":"Indiana","State_Abbrev":"IN"},
"geometry":{ "type": "Point", "coordinates": [-85.737601,41.206678]}},
{ "type": "Feature", "properties": {"Name":"Worthington town","State":"Indiana","State_Abbrev":"IN"},
"geometry":{ "type": "Point", "coordinates": [-86.979796,39.118379]}},
{ "type": "Feature", "properties": {"Name":"Wyatt CDP","State":"Indiana","State_Abbrev":"IN"},
"geometry":{ "type": "Point", "coordinates": [-86.166597,41.528306]}},
{ "type": "Feature", "properties": {"Name":"Wynnedale town","State":"Indiana","State_Abbrev":"IN"},
"geometry":{ "type": "Point", "coordinates": [-86.200237,39.832484]}},
{ "type": "Feature", "properties": {"Name":"Yeoman town","State":"Indiana","State_Abbrev":"IN"},
"geometry":{ "type": "Point", "coordinates": [-86.723792,40.667691]}},
{ "type": "Feature", "properties": {"Name":"Yorktown town","State":"Indiana","State_Abbrev":"IN"},
"geometry":{ "type": "Point", "coordinates": [-85.508155,40.181891]}},
{ "type": "Feature", "properties": {"Name":"Young America CDP","State":"Indiana","State_Abbrev":"IN"},
"geometry":{ "type": "Point", "coordinates": [-86.34874,40.568237]}},
{ "type": "Feature", "properties": {"Name":"Zanesville town","State":"Indiana","State_Abbrev":"IN"},
"geometry":{ "type": "Point", "coordinates": [-85.279884,40.915406]}},
{ "type": "Feature", "properties": {"Name":"Zionsville town","State":"Indiana","State_Abbrev":"IN"},
"geometry":{ "type": "Point", "coordinates": [-86.32175,39.99153]}}]}
