{"type":"FeatureCollection","features":[
{ "type": "Feature", "properties": {"Name":"Ackley city","State":"Iowa","State_Abbrev":"IA"},
"geometry":{ "type": "Point", "coordinates": [-93.052272,42.551695]}},
{ "type": "Feature", "properties": {"Name":"Ackworth city","State":"Iowa","State_Abbrev":"IA"},
"geometry":{ "type": "Point", "coordinates": [-93.472304,41.364227]}},
{ "type": "Feature", "properties": {"Name":"Adair city","State":"Iowa","State_Abbrev":"IA"},
"geometry":{ "type": "Point", "coordinates": [-94.644052,41.500225]}},
{ "type": "Feature", "properties": {"Name":"Adel city","State":"Iowa","State_Abbrev":"IA"},
"geometry":{ "type": "Point", "coordinates": [-94.012663,41.609388]}},
{ "type": "Feature", "properties": {"Name":"Afton city","State":"Iowa","State_Abbrev":"IA"},
"geometry":{ "type": "Point", "coordinates": [-94.195296,41.027589]}},
{ "type": "Feature", "properties": {"Name":"Agency city","State":"Iowa","State_Abbrev":"IA"},
"geometry":{ "type": "Point", "coordinates": [-92.307285,40.996979]}},
{ "type": "Feature", "properties": {"Name":"Ainsworth city","State":"Iowa","State_Abbrev":"IA"},
"geometry":{ "type": "Point", "coordinates": [-91.554266,41.29005]}},
{ "type": "Feature", "properties": {"Name":"Akron city","State":"Iowa","State_Abbrev":"IA"},
"geometry":{ "type": "Point", "coordinates": [-96.557027,42.826768]}},
{ "type": "Feature", "properties": {"Name":"Albert City city","State":"Iowa","State_Abbrev":"IA"},
"geometry":{ "type": "Point", "coordinates": [-94.949139,42.781602]}},
{ "type": "Feature", "properties": {"Name":"Albia city","State":"Iowa","State_Abbrev":"IA"},
"geometry":{ "type": "Point", "coordinates": [-92.803778,41.026511]}},
{ "type": "Feature", "properties": {"Name":"Albion city","State":"Iowa","State_Abbrev":"IA"},
"geometry":{ "type": "Point", "coordinates": [-92.988569,42.112536]}},
{ "type": "Feature", "properties": {"Name":"Alburnett city","State":"Iowa","State_Abbrev":"IA"},
"geometry":{ "type": "Point", "coordinates": [-91.620108,42.148939]}},
{ "type": "Feature", "properties": {"Name":"Alden city","State":"Iowa","State_Abbrev":"IA"},
"geometry":{ "type": "Point", "coordinates": [-93.380309,42.511576]}},
{ "type": "Feature", "properties": {"Name":"Alexander city","State":"Iowa","State_Abbrev":"IA"},
"geometry":{ "type": "Point", "coordinates": [-93.478647,42.804419]}},
{ "type": "Feature", "properties": {"Name":"Algona city","State":"Iowa","State_Abbrev":"IA"},
"geometry":{ "type": "Point", "coordinates": [-94.229937,43.074673]}},
{ "type": "Feature", "properties": {"Name":"Alleman city","State":"Iowa","State_Abbrev":"IA"},
"geometry":{ "type": "Point", "coordinates": [-93.612637,41.815182]}},
{ "type": "Feature", "properties": {"Name":"Allerton city","State":"Iowa","State_Abbrev":"IA"},
"geometry":{ "type": "Point", "coordinates": [-93.368638,40.70827]}},
{ "type": "Feature", "properties": {"Name":"Allison city","State":"Iowa","State_Abbrev":"IA"},
"geometry":{ "type": "Point", "coordinates": [-92.795719,42.751986]}},
{ "type": "Feature", "properties": {"Name":"Alta city","State":"Iowa","State_Abbrev":"IA"},
"geometry":{ "type": "Point", "coordinates": [-95.304513,42.671677]}},
{ "type": "Feature", "properties": {"Name":"Alta Vista city","State":"Iowa","State_Abbrev":"IA"},
"geometry":{ "type": "Point", "coordinates": [-92.416938,43.196679]}},
{ "type": "Feature", "properties": {"Name":"Alton city","State":"Iowa","State_Abbrev":"IA"},
"geometry":{ "type": "Point", "coordinates": [-96.009429,42.987658]}},
{ "type": "Feature", "properties": {"Name":"Altoona city","State":"Iowa","State_Abbrev":"IA"},
"geometry":{ "type": "Point", "coordinates": [-93.478611,41.646353]}},
{ "type": "Feature", "properties": {"Name":"Alvord city","State":"Iowa","State_Abbrev":"IA"},
"geometry":{ "type": "Point", "coordinates": [-96.303675,43.341745]}},
{ "type": "Feature", "properties": {"Name":"Amana CDP","State":"Iowa","State_Abbrev":"IA"},
"geometry":{ "type": "Point", "coordinates": [-91.875235,41.80363]}},
{ "type": "Feature", "properties": {"Name":"Ames city","State":"Iowa","State_Abbrev":"IA"},
"geometry":{ "type": "Point", "coordinates": [-93.621076,42.025563]}},
{ "type": "Feature", "properties": {"Name":"Anamosa city","State":"Iowa","State_Abbrev":"IA"},
"geometry":{ "type": "Point", "coordinates": [-91.275205,42.108825]}},
{ "type": "Feature", "properties": {"Name":"Anderson CDP","State":"Iowa","State_Abbrev":"IA"},
"geometry":{ "type": "Point", "coordinates": [-95.60849,40.798309]}},
{ "type": "Feature", "properties": {"Name":"Andover city","State":"Iowa","State_Abbrev":"IA"},
"geometry":{ "type": "Point", "coordinates": [-90.252835,41.980058]}},
{ "type": "Feature", "properties": {"Name":"Andrew city","State":"Iowa","State_Abbrev":"IA"},
"geometry":{ "type": "Point", "coordinates": [-90.592277,42.153194]}},
{ "type": "Feature", "properties": {"Name":"Anita city","State":"Iowa","State_Abbrev":"IA"},
"geometry":{ "type": "Point", "coordinates": [-94.765961,41.443717]}},
{ "type": "Feature", "properties": {"Name":"Ankeny city","State":"Iowa","State_Abbrev":"IA"},
"geometry":{ "type": "Point", "coordinates": [-93.602521,41.728724]}},
{ "type": "Feature", "properties": {"Name":"Anthon city","State":"Iowa","State_Abbrev":"IA"},
"geometry":{ "type": "Point", "coordinates": [-95.865549,42.388094]}},
{ "type": "Feature", "properties": {"Name":"Aplington city","State":"Iowa","State_Abbrev":"IA"},
"geometry":{ "type": "Point", "coordinates": [-92.883524,42.581925]}},
{ "type": "Feature", "properties": {"Name":"Arcadia city","State":"Iowa","State_Abbrev":"IA"},
"geometry":{ "type": "Point", "coordinates": [-95.043226,42.086193]}},
{ "type": "Feature", "properties": {"Name":"Archer city","State":"Iowa","State_Abbrev":"IA"},
"geometry":{ "type": "Point", "coordinates": [-95.74422,43.115019]}},
{ "type": "Feature", "properties": {"Name":"Aredale city","State":"Iowa","State_Abbrev":"IA"},
"geometry":{ "type": "Point", "coordinates": [-93.005442,42.833236]}},
{ "type": "Feature", "properties": {"Name":"Argo CDP","State":"Iowa","State_Abbrev":"IA"},
"geometry":{ "type": "Point", "coordinates": [-90.434092,41.625766]}},
{ "type": "Feature", "properties": {"Name":"Argyle CDP","State":"Iowa","State_Abbrev":"IA"},
"geometry":{ "type": "Point", "coordinates": [-91.567696,40.535848]}},
{ "type": "Feature", "properties": {"Name":"Arion city","State":"Iowa","State_Abbrev":"IA"},
"geometry":{ "type": "Point", "coordinates": [-95.462354,41.947755]}},
{ "type": "Feature", "properties": {"Name":"Arispe city","State":"Iowa","State_Abbrev":"IA"},
"geometry":{ "type": "Point", "coordinates": [-94.218997,40.948971]}},
{ "type": "Feature", "properties": {"Name":"Arlington city","State":"Iowa","State_Abbrev":"IA"},
"geometry":{ "type": "Point", "coordinates": [-91.67101,42.748751]}},
{ "type": "Feature", "properties": {"Name":"Armstrong city","State":"Iowa","State_Abbrev":"IA"},
"geometry":{ "type": "Point", "coordinates": [-94.483411,43.394387]}},
{ "type": "Feature", "properties": {"Name":"Arnolds Park city","State":"Iowa","State_Abbrev":"IA"},
"geometry":{ "type": "Point", "coordinates": [-95.129177,43.360366]}},
{ "type": "Feature", "properties": {"Name":"Arthur city","State":"Iowa","State_Abbrev":"IA"},
"geometry":{ "type": "Point", "coordinates": [-95.346906,42.335353]}},
{ "type": "Feature", "properties": {"Name":"Asbury city","State":"Iowa","State_Abbrev":"IA"},
"geometry":{ "type": "Point", "coordinates": [-90.779942,42.511954]}},
{ "type": "Feature", "properties": {"Name":"Ashton city","State":"Iowa","State_Abbrev":"IA"},
"geometry":{ "type": "Point", "coordinates": [-95.790832,43.309432]}},
{ "type": "Feature", "properties": {"Name":"Aspinwall city","State":"Iowa","State_Abbrev":"IA"},
"geometry":{ "type": "Point", "coordinates": [-95.134972,41.91052]}},
{ "type": "Feature", "properties": {"Name":"Atalissa city","State":"Iowa","State_Abbrev":"IA"},
"geometry":{ "type": "Point", "coordinates": [-91.166454,41.571687]}},
{ "type": "Feature", "properties": {"Name":"Athelstan CDP","State":"Iowa","State_Abbrev":"IA"},
"geometry":{ "type": "Point", "coordinates": [-94.542631,40.572702]}},
{ "type": "Feature", "properties": {"Name":"Atkins city","State":"Iowa","State_Abbrev":"IA"},
"geometry":{ "type": "Point", "coordinates": [-91.858651,41.994228]}},
{ "type": "Feature", "properties": {"Name":"Atlantic city","State":"Iowa","State_Abbrev":"IA"},
"geometry":{ "type": "Point", "coordinates": [-95.021882,41.392994]}},
{ "type": "Feature", "properties": {"Name":"Auburn city","State":"Iowa","State_Abbrev":"IA"},
"geometry":{ "type": "Point", "coordinates": [-94.877727,42.249549]}},
{ "type": "Feature", "properties": {"Name":"Audubon city","State":"Iowa","State_Abbrev":"IA"},
"geometry":{ "type": "Point", "coordinates": [-94.928372,41.718019]}},
{ "type": "Feature", "properties": {"Name":"Augusta CDP","State":"Iowa","State_Abbrev":"IA"},
"geometry":{ "type": "Point", "coordinates": [-91.277226,40.761765]}},
{ "type": "Feature", "properties": {"Name":"Aurelia city","State":"Iowa","State_Abbrev":"IA"},
"geometry":{ "type": "Point", "coordinates": [-95.436848,42.713066]}},
{ "type": "Feature", "properties": {"Name":"Aurora city","State":"Iowa","State_Abbrev":"IA"},
"geometry":{ "type": "Point", "coordinates": [-91.729491,42.619445]}},
{ "type": "Feature", "properties": {"Name":"Avoca city","State":"Iowa","State_Abbrev":"IA"},
"geometry":{ "type": "Point", "coordinates": [-95.337261,41.482816]}},
{ "type": "Feature", "properties": {"Name":"Ayrshire city","State":"Iowa","State_Abbrev":"IA"},
"geometry":{ "type": "Point", "coordinates": [-94.83397,43.039612]}},
{ "type": "Feature", "properties": {"Name":"Badger city","State":"Iowa","State_Abbrev":"IA"},
"geometry":{ "type": "Point", "coordinates": [-94.144602,42.614131]}},
{ "type": "Feature", "properties": {"Name":"Bagley city","State":"Iowa","State_Abbrev":"IA"},
"geometry":{ "type": "Point", "coordinates": [-94.430316,41.846437]}},
{ "type": "Feature", "properties": {"Name":"Baldwin city","State":"Iowa","State_Abbrev":"IA"},
"geometry":{ "type": "Point", "coordinates": [-90.838584,42.073134]}},
{ "type": "Feature", "properties": {"Name":"Balltown city","State":"Iowa","State_Abbrev":"IA"},
"geometry":{ "type": "Point", "coordinates": [-90.869797,42.637228]}},
{ "type": "Feature", "properties": {"Name":"Bancroft city","State":"Iowa","State_Abbrev":"IA"},
"geometry":{ "type": "Point", "coordinates": [-94.217599,43.292826]}},
{ "type": "Feature", "properties": {"Name":"Bankston city","State":"Iowa","State_Abbrev":"IA"},
"geometry":{ "type": "Point", "coordinates": [-90.961303,42.507589]}},
{ "type": "Feature", "properties": {"Name":"Barnes City city","State":"Iowa","State_Abbrev":"IA"},
"geometry":{ "type": "Point", "coordinates": [-92.469541,41.507033]}},
{ "type": "Feature", "properties": {"Name":"Barnum city","State":"Iowa","State_Abbrev":"IA"},
"geometry":{ "type": "Point", "coordinates": [-94.365683,42.506183]}},
{ "type": "Feature", "properties": {"Name":"Bartlett CDP","State":"Iowa","State_Abbrev":"IA"},
"geometry":{ "type": "Point", "coordinates": [-95.794666,40.885338]}},
{ "type": "Feature", "properties": {"Name":"Bassett city","State":"Iowa","State_Abbrev":"IA"},
"geometry":{ "type": "Point", "coordinates": [-92.515256,43.061593]}},
{ "type": "Feature", "properties": {"Name":"Batavia city","State":"Iowa","State_Abbrev":"IA"},
"geometry":{ "type": "Point", "coordinates": [-92.167346,40.994954]}},
{ "type": "Feature", "properties": {"Name":"Battle Creek city","State":"Iowa","State_Abbrev":"IA"},
"geometry":{ "type": "Point", "coordinates": [-95.600013,42.31702]}},
{ "type": "Feature", "properties": {"Name":"Baxter city","State":"Iowa","State_Abbrev":"IA"},
"geometry":{ "type": "Point", "coordinates": [-93.152455,41.8252]}},
{ "type": "Feature", "properties": {"Name":"Bayard city","State":"Iowa","State_Abbrev":"IA"},
"geometry":{ "type": "Point", "coordinates": [-94.558609,41.852138]}},
{ "type": "Feature", "properties": {"Name":"Beacon city","State":"Iowa","State_Abbrev":"IA"},
"geometry":{ "type": "Point", "coordinates": [-92.680999,41.2761]}},
{ "type": "Feature", "properties": {"Name":"Beaconsfield city","State":"Iowa","State_Abbrev":"IA"},
"geometry":{ "type": "Point", "coordinates": [-94.050825,40.807223]}},
{ "type": "Feature", "properties": {"Name":"Beaman city","State":"Iowa","State_Abbrev":"IA"},
"geometry":{ "type": "Point", "coordinates": [-92.821567,42.220109]}},
{ "type": "Feature", "properties": {"Name":"Beaver city","State":"Iowa","State_Abbrev":"IA"},
"geometry":{ "type": "Point", "coordinates": [-94.13998,42.03826]}},
{ "type": "Feature", "properties": {"Name":"Beaverdale CDP","State":"Iowa","State_Abbrev":"IA"},
"geometry":{ "type": "Point", "coordinates": [-91.20225,40.84857]}},
{ "type": "Feature", "properties": {"Name":"Bedford city","State":"Iowa","State_Abbrev":"IA"},
"geometry":{ "type": "Point", "coordinates": [-94.724292,40.671152]}},
{ "type": "Feature", "properties": {"Name":"Belle Plaine city","State":"Iowa","State_Abbrev":"IA"},
"geometry":{ "type": "Point", "coordinates": [-92.275716,41.895587]}},
{ "type": "Feature", "properties": {"Name":"Bellevue city","State":"Iowa","State_Abbrev":"IA"},
"geometry":{ "type": "Point", "coordinates": [-90.431458,42.262695]}},
{ "type": "Feature", "properties": {"Name":"Belmond city","State":"Iowa","State_Abbrev":"IA"},
"geometry":{ "type": "Point", "coordinates": [-93.608449,42.846432]}},
{ "type": "Feature", "properties": {"Name":"Bennett city","State":"Iowa","State_Abbrev":"IA"},
"geometry":{ "type": "Point", "coordinates": [-90.973587,41.739777]}},
{ "type": "Feature", "properties": {"Name":"Bentley CDP","State":"Iowa","State_Abbrev":"IA"},
"geometry":{ "type": "Point", "coordinates": [-95.622501,41.375546]}},
{ "type": "Feature", "properties": {"Name":"Benton city","State":"Iowa","State_Abbrev":"IA"},
"geometry":{ "type": "Point", "coordinates": [-94.359867,40.70427]}},
{ "type": "Feature", "properties": {"Name":"Berkley city","State":"Iowa","State_Abbrev":"IA"},
"geometry":{ "type": "Point", "coordinates": [-94.113621,41.946481]}},
{ "type": "Feature", "properties": {"Name":"Bernard city","State":"Iowa","State_Abbrev":"IA"},
"geometry":{ "type": "Point", "coordinates": [-90.831734,42.313244]}},
{ "type": "Feature", "properties": {"Name":"Bertram city","State":"Iowa","State_Abbrev":"IA"},
"geometry":{ "type": "Point", "coordinates": [-91.537836,41.951683]}},
{ "type": "Feature", "properties": {"Name":"Bettendorf city","State":"Iowa","State_Abbrev":"IA"},
"geometry":{ "type": "Point", "coordinates": [-90.476879,41.566836]}},
{ "type": "Feature", "properties": {"Name":"Bevington city","State":"Iowa","State_Abbrev":"IA"},
"geometry":{ "type": "Point", "coordinates": [-93.784239,41.359945]}},
{ "type": "Feature", "properties": {"Name":"Big Rock CDP","State":"Iowa","State_Abbrev":"IA"},
"geometry":{ "type": "Point", "coordinates": [-90.826528,41.769079]}},
{ "type": "Feature", "properties": {"Name":"Birmingham city","State":"Iowa","State_Abbrev":"IA"},
"geometry":{ "type": "Point", "coordinates": [-91.947895,40.878494]}},
{ "type": "Feature", "properties": {"Name":"Blairsburg city","State":"Iowa","State_Abbrev":"IA"},
"geometry":{ "type": "Point", "coordinates": [-93.642798,42.478373]}},
{ "type": "Feature", "properties": {"Name":"Blairstown city","State":"Iowa","State_Abbrev":"IA"},
"geometry":{ "type": "Point", "coordinates": [-92.082229,41.905984]}},
{ "type": "Feature", "properties": {"Name":"Blakesburg city","State":"Iowa","State_Abbrev":"IA"},
"geometry":{ "type": "Point", "coordinates": [-92.634712,40.961951]}},
{ "type": "Feature", "properties": {"Name":"Blanchard city","State":"Iowa","State_Abbrev":"IA"},
"geometry":{ "type": "Point", "coordinates": [-95.221238,40.580314]}},
{ "type": "Feature", "properties": {"Name":"Blencoe city","State":"Iowa","State_Abbrev":"IA"},
"geometry":{ "type": "Point", "coordinates": [-96.082057,41.930322]}},
{ "type": "Feature", "properties": {"Name":"Blockton city","State":"Iowa","State_Abbrev":"IA"},
"geometry":{ "type": "Point", "coordinates": [-94.477841,40.616881]}},
{ "type": "Feature", "properties": {"Name":"Bloomfield city","State":"Iowa","State_Abbrev":"IA"},
"geometry":{ "type": "Point", "coordinates": [-92.417031,40.749108]}},
{ "type": "Feature", "properties": {"Name":"Blue Grass city","State":"Iowa","State_Abbrev":"IA"},
"geometry":{ "type": "Point", "coordinates": [-90.76694,41.510192]}},
{ "type": "Feature", "properties": {"Name":"Bode city","State":"Iowa","State_Abbrev":"IA"},
"geometry":{ "type": "Point", "coordinates": [-94.286241,42.867984]}},
{ "type": "Feature", "properties": {"Name":"Bolan CDP","State":"Iowa","State_Abbrev":"IA"},
"geometry":{ "type": "Point", "coordinates": [-93.108502,43.37348]}},
{ "type": "Feature", "properties": {"Name":"Bonaparte city","State":"Iowa","State_Abbrev":"IA"},
"geometry":{ "type": "Point", "coordinates": [-91.800697,40.701244]}},
{ "type": "Feature", "properties": {"Name":"Bondurant city","State":"Iowa","State_Abbrev":"IA"},
"geometry":{ "type": "Point", "coordinates": [-93.457741,41.698]}},
{ "type": "Feature", "properties": {"Name":"Boone city","State":"Iowa","State_Abbrev":"IA"},
"geometry":{ "type": "Point", "coordinates": [-93.872526,42.049257]}},
{ "type": "Feature", "properties": {"Name":"Bouton city","State":"Iowa","State_Abbrev":"IA"},
"geometry":{ "type": "Point", "coordinates": [-94.010564,41.85115]}},
{ "type": "Feature", "properties": {"Name":"Boxholm city","State":"Iowa","State_Abbrev":"IA"},
"geometry":{ "type": "Point", "coordinates": [-94.106085,42.173633]}},
{ "type": "Feature", "properties": {"Name":"Boyden city","State":"Iowa","State_Abbrev":"IA"},
"geometry":{ "type": "Point", "coordinates": [-96.003151,43.189116]}},
{ "type": "Feature", "properties": {"Name":"Braddyville city","State":"Iowa","State_Abbrev":"IA"},
"geometry":{ "type": "Point", "coordinates": [-95.031244,40.580603]}},
{ "type": "Feature", "properties": {"Name":"Bradford CDP","State":"Iowa","State_Abbrev":"IA"},
"geometry":{ "type": "Point", "coordinates": [-93.252388,42.636716]}},
{ "type": "Feature", "properties": {"Name":"Bradgate city","State":"Iowa","State_Abbrev":"IA"},
"geometry":{ "type": "Point", "coordinates": [-94.420562,42.802997]}},
{ "type": "Feature", "properties": {"Name":"Brandon city","State":"Iowa","State_Abbrev":"IA"},
"geometry":{ "type": "Point", "coordinates": [-92.003138,42.315047]}},
{ "type": "Feature", "properties": {"Name":"Brayton city","State":"Iowa","State_Abbrev":"IA"},
"geometry":{ "type": "Point", "coordinates": [-94.930256,41.544663]}},
{ "type": "Feature", "properties": {"Name":"Breda city","State":"Iowa","State_Abbrev":"IA"},
"geometry":{ "type": "Point", "coordinates": [-94.97501,42.183967]}},
{ "type": "Feature", "properties": {"Name":"Bridgewater city","State":"Iowa","State_Abbrev":"IA"},
"geometry":{ "type": "Point", "coordinates": [-94.668949,41.247107]}},
{ "type": "Feature", "properties": {"Name":"Brighton city","State":"Iowa","State_Abbrev":"IA"},
"geometry":{ "type": "Point", "coordinates": [-91.821185,41.174692]}},
{ "type": "Feature", "properties": {"Name":"Bristow city","State":"Iowa","State_Abbrev":"IA"},
"geometry":{ "type": "Point", "coordinates": [-92.907947,42.773771]}},
{ "type": "Feature", "properties": {"Name":"Britt city","State":"Iowa","State_Abbrev":"IA"},
"geometry":{ "type": "Point", "coordinates": [-93.803057,43.098438]}},
{ "type": "Feature", "properties": {"Name":"Bronson city","State":"Iowa","State_Abbrev":"IA"},
"geometry":{ "type": "Point", "coordinates": [-96.210531,42.409025]}},
{ "type": "Feature", "properties": {"Name":"Brooklyn city","State":"Iowa","State_Abbrev":"IA"},
"geometry":{ "type": "Point", "coordinates": [-92.444981,41.732052]}},
{ "type": "Feature", "properties": {"Name":"Brunsville city","State":"Iowa","State_Abbrev":"IA"},
"geometry":{ "type": "Point", "coordinates": [-96.266363,42.810976]}},
{ "type": "Feature", "properties": {"Name":"Buckeye city","State":"Iowa","State_Abbrev":"IA"},
"geometry":{ "type": "Point", "coordinates": [-93.375825,42.419533]}},
{ "type": "Feature", "properties": {"Name":"Buck Grove city","State":"Iowa","State_Abbrev":"IA"},
"geometry":{ "type": "Point", "coordinates": [-95.395193,41.917703]}},
{ "type": "Feature", "properties": {"Name":"Buffalo city","State":"Iowa","State_Abbrev":"IA"},
"geometry":{ "type": "Point", "coordinates": [-90.76888,41.461288]}},
{ "type": "Feature", "properties": {"Name":"Buffalo Center city","State":"Iowa","State_Abbrev":"IA"},
"geometry":{ "type": "Point", "coordinates": [-93.942821,43.389371]}},
{ "type": "Feature", "properties": {"Name":"Burchinal CDP","State":"Iowa","State_Abbrev":"IA"},
"geometry":{ "type": "Point", "coordinates": [-93.278516,43.064797]}},
{ "type": "Feature", "properties": {"Name":"Burlington city","State":"Iowa","State_Abbrev":"IA"},
"geometry":{ "type": "Point", "coordinates": [-91.123676,40.807102]}},
{ "type": "Feature", "properties": {"Name":"Burr Oak CDP","State":"Iowa","State_Abbrev":"IA"},
"geometry":{ "type": "Point", "coordinates": [-91.861927,43.457984]}},
{ "type": "Feature", "properties": {"Name":"Burt city","State":"Iowa","State_Abbrev":"IA"},
"geometry":{ "type": "Point", "coordinates": [-94.221313,43.199109]}},
{ "type": "Feature", "properties": {"Name":"Bussey city","State":"Iowa","State_Abbrev":"IA"},
"geometry":{ "type": "Point", "coordinates": [-92.884286,41.205432]}},
{ "type": "Feature", "properties": {"Name":"Calamus city","State":"Iowa","State_Abbrev":"IA"},
"geometry":{ "type": "Point", "coordinates": [-90.759673,41.826415]}},
{ "type": "Feature", "properties": {"Name":"California Junction CDP","State":"Iowa","State_Abbrev":"IA"},
"geometry":{ "type": "Point", "coordinates": [-95.994752,41.56017]}},
{ "type": "Feature", "properties": {"Name":"Callender city","State":"Iowa","State_Abbrev":"IA"},
"geometry":{ "type": "Point", "coordinates": [-94.295473,42.361634]}},
{ "type": "Feature", "properties": {"Name":"Calmar city","State":"Iowa","State_Abbrev":"IA"},
"geometry":{ "type": "Point", "coordinates": [-91.867849,43.18105]}},
{ "type": "Feature", "properties": {"Name":"Calumet city","State":"Iowa","State_Abbrev":"IA"},
"geometry":{ "type": "Point", "coordinates": [-95.551435,42.945024]}},
{ "type": "Feature", "properties": {"Name":"Camanche city","State":"Iowa","State_Abbrev":"IA"},
"geometry":{ "type": "Point", "coordinates": [-90.276227,41.792708]}},
{ "type": "Feature", "properties": {"Name":"Cambridge city","State":"Iowa","State_Abbrev":"IA"},
"geometry":{ "type": "Point", "coordinates": [-93.53656,41.90168]}},
{ "type": "Feature", "properties": {"Name":"Cantril city","State":"Iowa","State_Abbrev":"IA"},
"geometry":{ "type": "Point", "coordinates": [-92.068372,40.642898]}},
{ "type": "Feature", "properties": {"Name":"Carbon city","State":"Iowa","State_Abbrev":"IA"},
"geometry":{ "type": "Point", "coordinates": [-94.824575,41.04975]}},
{ "type": "Feature", "properties": {"Name":"Carlisle city","State":"Iowa","State_Abbrev":"IA"},
"geometry":{ "type": "Point", "coordinates": [-93.496811,41.513593]}},
{ "type": "Feature", "properties": {"Name":"Carpenter city","State":"Iowa","State_Abbrev":"IA"},
"geometry":{ "type": "Point", "coordinates": [-93.017244,43.415119]}},
{ "type": "Feature", "properties": {"Name":"Carroll city","State":"Iowa","State_Abbrev":"IA"},
"geometry":{ "type": "Point", "coordinates": [-94.864377,42.070289]}},
{ "type": "Feature", "properties": {"Name":"Carson city","State":"Iowa","State_Abbrev":"IA"},
"geometry":{ "type": "Point", "coordinates": [-95.419811,41.235658]}},
{ "type": "Feature", "properties": {"Name":"Carter Lake city","State":"Iowa","State_Abbrev":"IA"},
"geometry":{ "type": "Point", "coordinates": [-95.916872,41.288533]}},
{ "type": "Feature", "properties": {"Name":"Cascade city","State":"Iowa","State_Abbrev":"IA"},
"geometry":{ "type": "Point", "coordinates": [-91.004658,42.3018]}},
{ "type": "Feature", "properties": {"Name":"Casey city","State":"Iowa","State_Abbrev":"IA"},
"geometry":{ "type": "Point", "coordinates": [-94.521366,41.507457]}},
{ "type": "Feature", "properties": {"Name":"Castalia city","State":"Iowa","State_Abbrev":"IA"},
"geometry":{ "type": "Point", "coordinates": [-91.676935,43.112575]}},
{ "type": "Feature", "properties": {"Name":"Castana city","State":"Iowa","State_Abbrev":"IA"},
"geometry":{ "type": "Point", "coordinates": [-95.910388,42.073358]}},
{ "type": "Feature", "properties": {"Name":"Cedar Falls city","State":"Iowa","State_Abbrev":"IA"},
"geometry":{ "type": "Point", "coordinates": [-92.454009,42.51907]}},
{ "type": "Feature", "properties": {"Name":"Cedar Rapids city","State":"Iowa","State_Abbrev":"IA"},
"geometry":{ "type": "Point", "coordinates": [-91.678942,41.965968]}},
{ "type": "Feature", "properties": {"Name":"Center Junction CDP","State":"Iowa","State_Abbrev":"IA"},
"geometry":{ "type": "Point", "coordinates": [-91.09034,42.114127]}},
{ "type": "Feature", "properties": {"Name":"Center Point city","State":"Iowa","State_Abbrev":"IA"},
"geometry":{ "type": "Point", "coordinates": [-91.779847,42.184784]}},
{ "type": "Feature", "properties": {"Name":"Centerville city","State":"Iowa","State_Abbrev":"IA"},
"geometry":{ "type": "Point", "coordinates": [-92.872033,40.729839]}},
{ "type": "Feature", "properties": {"Name":"Central City city","State":"Iowa","State_Abbrev":"IA"},
"geometry":{ "type": "Point", "coordinates": [-91.522977,42.201429]}},
{ "type": "Feature", "properties": {"Name":"Centralia city","State":"Iowa","State_Abbrev":"IA"},
"geometry":{ "type": "Point", "coordinates": [-90.836213,42.4723]}},
{ "type": "Feature", "properties": {"Name":"Chapin CDP","State":"Iowa","State_Abbrev":"IA"},
"geometry":{ "type": "Point", "coordinates": [-93.222042,42.835258]}},
{ "type": "Feature", "properties": {"Name":"Chariton city","State":"Iowa","State_Abbrev":"IA"},
"geometry":{ "type": "Point", "coordinates": [-93.309629,41.017447]}},
{ "type": "Feature", "properties": {"Name":"Charles City city","State":"Iowa","State_Abbrev":"IA"},
"geometry":{ "type": "Point", "coordinates": [-92.674457,43.06476]}},
{ "type": "Feature", "properties": {"Name":"Charlotte city","State":"Iowa","State_Abbrev":"IA"},
"geometry":{ "type": "Point", "coordinates": [-90.468252,41.962169]}},
{ "type": "Feature", "properties": {"Name":"Charter Oak city","State":"Iowa","State_Abbrev":"IA"},
"geometry":{ "type": "Point", "coordinates": [-95.589526,42.067838]}},
{ "type": "Feature", "properties": {"Name":"Chatsworth city","State":"Iowa","State_Abbrev":"IA"},
"geometry":{ "type": "Point", "coordinates": [-96.514499,42.916301]}},
{ "type": "Feature", "properties": {"Name":"Chelsea city","State":"Iowa","State_Abbrev":"IA"},
"geometry":{ "type": "Point", "coordinates": [-92.394447,41.920463]}},
{ "type": "Feature", "properties": {"Name":"Cherokee city","State":"Iowa","State_Abbrev":"IA"},
"geometry":{ "type": "Point", "coordinates": [-95.552159,42.749499]}},
{ "type": "Feature", "properties": {"Name":"Chester city","State":"Iowa","State_Abbrev":"IA"},
"geometry":{ "type": "Point", "coordinates": [-92.363964,43.491579]}},
{ "type": "Feature", "properties": {"Name":"Chillicothe city","State":"Iowa","State_Abbrev":"IA"},
"geometry":{ "type": "Point", "coordinates": [-92.529673,41.085939]}},
{ "type": "Feature", "properties": {"Name":"Churdan city","State":"Iowa","State_Abbrev":"IA"},
"geometry":{ "type": "Point", "coordinates": [-94.477863,42.154065]}},
{ "type": "Feature", "properties": {"Name":"Cincinnati city","State":"Iowa","State_Abbrev":"IA"},
"geometry":{ "type": "Point", "coordinates": [-92.922199,40.63095]}},
{ "type": "Feature", "properties": {"Name":"Clare city","State":"Iowa","State_Abbrev":"IA"},
"geometry":{ "type": "Point", "coordinates": [-94.344414,42.587439]}},
{ "type": "Feature", "properties": {"Name":"Clarence city","State":"Iowa","State_Abbrev":"IA"},
"geometry":{ "type": "Point", "coordinates": [-91.057925,41.885751]}},
{ "type": "Feature", "properties": {"Name":"Clarinda city","State":"Iowa","State_Abbrev":"IA"},
"geometry":{ "type": "Point", "coordinates": [-95.033748,40.737707]}},
{ "type": "Feature", "properties": {"Name":"Clarion city","State":"Iowa","State_Abbrev":"IA"},
"geometry":{ "type": "Point", "coordinates": [-93.729808,42.731971]}},
{ "type": "Feature", "properties": {"Name":"Clarksville city","State":"Iowa","State_Abbrev":"IA"},
"geometry":{ "type": "Point", "coordinates": [-92.668408,42.779238]}},
{ "type": "Feature", "properties": {"Name":"Clayton city","State":"Iowa","State_Abbrev":"IA"},
"geometry":{ "type": "Point", "coordinates": [-91.149305,42.902269]}},
{ "type": "Feature", "properties": {"Name":"Clearfield city","State":"Iowa","State_Abbrev":"IA"},
"geometry":{ "type": "Point", "coordinates": [-94.483018,40.800636]}},
{ "type": "Feature", "properties": {"Name":"Clear Lake city","State":"Iowa","State_Abbrev":"IA"},
"geometry":{ "type": "Point", "coordinates": [-93.373651,43.13509]}},
{ "type": "Feature", "properties": {"Name":"Cleghorn city","State":"Iowa","State_Abbrev":"IA"},
"geometry":{ "type": "Point", "coordinates": [-95.71273,42.812518]}},
{ "type": "Feature", "properties": {"Name":"Clemons city","State":"Iowa","State_Abbrev":"IA"},
"geometry":{ "type": "Point", "coordinates": [-93.158684,42.113915]}},
{ "type": "Feature", "properties": {"Name":"Clermont city","State":"Iowa","State_Abbrev":"IA"},
"geometry":{ "type": "Point", "coordinates": [-91.652252,42.999591]}},
{ "type": "Feature", "properties": {"Name":"Climbing Hill CDP","State":"Iowa","State_Abbrev":"IA"},
"geometry":{ "type": "Point", "coordinates": [-96.081085,42.339375]}},
{ "type": "Feature", "properties": {"Name":"Clinton city","State":"Iowa","State_Abbrev":"IA"},
"geometry":{ "type": "Point", "coordinates": [-90.242816,41.842365]}},
{ "type": "Feature", "properties": {"Name":"Clio city","State":"Iowa","State_Abbrev":"IA"},
"geometry":{ "type": "Point", "coordinates": [-93.451392,40.63603]}},
{ "type": "Feature", "properties": {"Name":"Clive city","State":"Iowa","State_Abbrev":"IA"},
"geometry":{ "type": "Point", "coordinates": [-93.797871,41.613243]}},
{ "type": "Feature", "properties": {"Name":"Clutier city","State":"Iowa","State_Abbrev":"IA"},
"geometry":{ "type": "Point", "coordinates": [-92.403559,42.079326]}},
{ "type": "Feature", "properties": {"Name":"Coalville CDP","State":"Iowa","State_Abbrev":"IA"},
"geometry":{ "type": "Point", "coordinates": [-94.11579,42.440137]}},
{ "type": "Feature", "properties": {"Name":"Coburg city","State":"Iowa","State_Abbrev":"IA"},
"geometry":{ "type": "Point", "coordinates": [-95.26549,40.918635]}},
{ "type": "Feature", "properties": {"Name":"Coggon city","State":"Iowa","State_Abbrev":"IA"},
"geometry":{ "type": "Point", "coordinates": [-91.529849,42.279273]}},
{ "type": "Feature", "properties": {"Name":"Coin city","State":"Iowa","State_Abbrev":"IA"},
"geometry":{ "type": "Point", "coordinates": [-95.234878,40.655828]}},
{ "type": "Feature", "properties": {"Name":"Colesburg city","State":"Iowa","State_Abbrev":"IA"},
"geometry":{ "type": "Point", "coordinates": [-91.201119,42.638761]}},
{ "type": "Feature", "properties": {"Name":"Colfax city","State":"Iowa","State_Abbrev":"IA"},
"geometry":{ "type": "Point", "coordinates": [-93.23628,41.679794]}},
{ "type": "Feature", "properties": {"Name":"College Springs city","State":"Iowa","State_Abbrev":"IA"},
"geometry":{ "type": "Point", "coordinates": [-95.120992,40.621352]}},
{ "type": "Feature", "properties": {"Name":"Collins city","State":"Iowa","State_Abbrev":"IA"},
"geometry":{ "type": "Point", "coordinates": [-93.308069,41.902382]}},
{ "type": "Feature", "properties": {"Name":"Colo city","State":"Iowa","State_Abbrev":"IA"},
"geometry":{ "type": "Point", "coordinates": [-93.318587,42.014531]}},
{ "type": "Feature", "properties": {"Name":"Columbus City city","State":"Iowa","State_Abbrev":"IA"},
"geometry":{ "type": "Point", "coordinates": [-91.374738,41.259178]}},
{ "type": "Feature", "properties": {"Name":"Columbus Junction city","State":"Iowa","State_Abbrev":"IA"},
"geometry":{ "type": "Point", "coordinates": [-91.363933,41.278853]}},
{ "type": "Feature", "properties": {"Name":"Colwell city","State":"Iowa","State_Abbrev":"IA"},
"geometry":{ "type": "Point", "coordinates": [-92.591611,43.157245]}},
{ "type": "Feature", "properties": {"Name":"Conesville city","State":"Iowa","State_Abbrev":"IA"},
"geometry":{ "type": "Point", "coordinates": [-91.348585,41.379644]}},
{ "type": "Feature", "properties": {"Name":"Conrad city","State":"Iowa","State_Abbrev":"IA"},
"geometry":{ "type": "Point", "coordinates": [-92.874083,42.223393]}},
{ "type": "Feature", "properties": {"Name":"Conroy CDP","State":"Iowa","State_Abbrev":"IA"},
"geometry":{ "type": "Point", "coordinates": [-91.998528,41.726613]}},
{ "type": "Feature", "properties": {"Name":"Conway city","State":"Iowa","State_Abbrev":"IA"},
"geometry":{ "type": "Point", "coordinates": [-94.619349,40.749048]}},
{ "type": "Feature", "properties": {"Name":"Coon Rapids city","State":"Iowa","State_Abbrev":"IA"},
"geometry":{ "type": "Point", "coordinates": [-94.678452,41.874705]}},
{ "type": "Feature", "properties": {"Name":"Coppock city","State":"Iowa","State_Abbrev":"IA"},
"geometry":{ "type": "Point", "coordinates": [-91.714827,41.164252]}},
{ "type": "Feature", "properties": {"Name":"Coralville city","State":"Iowa","State_Abbrev":"IA"},
"geometry":{ "type": "Point", "coordinates": [-91.5968,41.698795]}},
{ "type": "Feature", "properties": {"Name":"Corley CDP","State":"Iowa","State_Abbrev":"IA"},
"geometry":{ "type": "Point", "coordinates": [-95.330558,41.577719]}},
{ "type": "Feature", "properties": {"Name":"Corning city","State":"Iowa","State_Abbrev":"IA"},
"geometry":{ "type": "Point", "coordinates": [-94.739722,40.992794]}},
{ "type": "Feature", "properties": {"Name":"Correctionville city","State":"Iowa","State_Abbrev":"IA"},
"geometry":{ "type": "Point", "coordinates": [-95.783158,42.477592]}},
{ "type": "Feature", "properties": {"Name":"Corwith city","State":"Iowa","State_Abbrev":"IA"},
"geometry":{ "type": "Point", "coordinates": [-93.958164,42.988882]}},
{ "type": "Feature", "properties": {"Name":"Corydon city","State":"Iowa","State_Abbrev":"IA"},
"geometry":{ "type": "Point", "coordinates": [-93.317514,40.757767]}},
{ "type": "Feature", "properties": {"Name":"Cotter city","State":"Iowa","State_Abbrev":"IA"},
"geometry":{ "type": "Point", "coordinates": [-91.462028,41.292494]}},
{ "type": "Feature", "properties": {"Name":"Coulter city","State":"Iowa","State_Abbrev":"IA"},
"geometry":{ "type": "Point", "coordinates": [-93.370071,42.733039]}},
{ "type": "Feature", "properties": {"Name":"Council Bluffs city","State":"Iowa","State_Abbrev":"IA"},
"geometry":{ "type": "Point", "coordinates": [-95.853163,41.235987]}},
{ "type": "Feature", "properties": {"Name":"Craig city","State":"Iowa","State_Abbrev":"IA"},
"geometry":{ "type": "Point", "coordinates": [-96.309566,42.895534]}},
{ "type": "Feature", "properties": {"Name":"Crawfordsville city","State":"Iowa","State_Abbrev":"IA"},
"geometry":{ "type": "Point", "coordinates": [-91.536634,41.213914]}},
{ "type": "Feature", "properties": {"Name":"Crescent city","State":"Iowa","State_Abbrev":"IA"},
"geometry":{ "type": "Point", "coordinates": [-95.858937,41.365275]}},
{ "type": "Feature", "properties": {"Name":"Cresco city","State":"Iowa","State_Abbrev":"IA"},
"geometry":{ "type": "Point", "coordinates": [-92.116287,43.371746]}},
{ "type": "Feature", "properties": {"Name":"Creston city","State":"Iowa","State_Abbrev":"IA"},
"geometry":{ "type": "Point", "coordinates": [-94.364727,41.060314]}},
{ "type": "Feature", "properties": {"Name":"Cromwell city","State":"Iowa","State_Abbrev":"IA"},
"geometry":{ "type": "Point", "coordinates": [-94.461779,41.040489]}},
{ "type": "Feature", "properties": {"Name":"Crystal Lake city","State":"Iowa","State_Abbrev":"IA"},
"geometry":{ "type": "Point", "coordinates": [-93.792709,43.223018]}},
{ "type": "Feature", "properties": {"Name":"Cumberland city","State":"Iowa","State_Abbrev":"IA"},
"geometry":{ "type": "Point", "coordinates": [-94.870503,41.273178]}},
{ "type": "Feature", "properties": {"Name":"Cumming city","State":"Iowa","State_Abbrev":"IA"},
"geometry":{ "type": "Point", "coordinates": [-93.756097,41.486719]}},
{ "type": "Feature", "properties": {"Name":"Curlew city","State":"Iowa","State_Abbrev":"IA"},
"geometry":{ "type": "Point", "coordinates": [-94.7378,42.979699]}},
{ "type": "Feature", "properties": {"Name":"Cushing city","State":"Iowa","State_Abbrev":"IA"},
"geometry":{ "type": "Point", "coordinates": [-95.675727,42.465068]}},
{ "type": "Feature", "properties": {"Name":"Cylinder city","State":"Iowa","State_Abbrev":"IA"},
"geometry":{ "type": "Point", "coordinates": [-94.551229,43.09025]}},
{ "type": "Feature", "properties": {"Name":"Dakota City city","State":"Iowa","State_Abbrev":"IA"},
"geometry":{ "type": "Point", "coordinates": [-94.19712,42.72383]}},
{ "type": "Feature", "properties": {"Name":"Dallas Center city","State":"Iowa","State_Abbrev":"IA"},
"geometry":{ "type": "Point", "coordinates": [-93.981649,41.685389]}},
{ "type": "Feature", "properties": {"Name":"Dana city","State":"Iowa","State_Abbrev":"IA"},
"geometry":{ "type": "Point", "coordinates": [-94.23835,42.107242]}},
{ "type": "Feature", "properties": {"Name":"Danbury city","State":"Iowa","State_Abbrev":"IA"},
"geometry":{ "type": "Point", "coordinates": [-95.721581,42.236429]}},
{ "type": "Feature", "properties": {"Name":"Danville city","State":"Iowa","State_Abbrev":"IA"},
"geometry":{ "type": "Point", "coordinates": [-91.314519,40.859951]}},
{ "type": "Feature", "properties": {"Name":"Davenport city","State":"Iowa","State_Abbrev":"IA"},
"geometry":{ "type": "Point", "coordinates": [-90.603948,41.55682]}},
{ "type": "Feature", "properties": {"Name":"Davis City city","State":"Iowa","State_Abbrev":"IA"},
"geometry":{ "type": "Point", "coordinates": [-93.812586,40.640009]}},
{ "type": "Feature", "properties": {"Name":"Dawson city","State":"Iowa","State_Abbrev":"IA"},
"geometry":{ "type": "Point", "coordinates": [-94.220319,41.843089]}},
{ "type": "Feature", "properties": {"Name":"Dayton city","State":"Iowa","State_Abbrev":"IA"},
"geometry":{ "type": "Point", "coordinates": [-94.071108,42.262208]}},
{ "type": "Feature", "properties": {"Name":"Decatur City city","State":"Iowa","State_Abbrev":"IA"},
"geometry":{ "type": "Point", "coordinates": [-93.832801,40.742661]}},
{ "type": "Feature", "properties": {"Name":"Decorah city","State":"Iowa","State_Abbrev":"IA"},
"geometry":{ "type": "Point", "coordinates": [-91.78475,43.301618]}},
{ "type": "Feature", "properties": {"Name":"Dedham city","State":"Iowa","State_Abbrev":"IA"},
"geometry":{ "type": "Point", "coordinates": [-94.823323,41.908421]}},
{ "type": "Feature", "properties": {"Name":"Deep River city","State":"Iowa","State_Abbrev":"IA"},
"geometry":{ "type": "Point", "coordinates": [-92.37293,41.581637]}},
{ "type": "Feature", "properties": {"Name":"Defiance city","State":"Iowa","State_Abbrev":"IA"},
"geometry":{ "type": "Point", "coordinates": [-95.340238,41.825311]}},
{ "type": "Feature", "properties": {"Name":"Delaware city","State":"Iowa","State_Abbrev":"IA"},
"geometry":{ "type": "Point", "coordinates": [-91.338269,42.472106]}},
{ "type": "Feature", "properties": {"Name":"Delhi city","State":"Iowa","State_Abbrev":"IA"},
"geometry":{ "type": "Point", "coordinates": [-91.325945,42.433719]}},
{ "type": "Feature", "properties": {"Name":"Delmar city","State":"Iowa","State_Abbrev":"IA"},
"geometry":{ "type": "Point", "coordinates": [-90.607872,41.998881]}},
{ "type": "Feature", "properties": {"Name":"Deloit city","State":"Iowa","State_Abbrev":"IA"},
"geometry":{ "type": "Point", "coordinates": [-95.317341,42.097191]}},
{ "type": "Feature", "properties": {"Name":"Delphos CDP","State":"Iowa","State_Abbrev":"IA"},
"geometry":{ "type": "Point", "coordinates": [-94.339571,40.663177]}},
{ "type": "Feature", "properties": {"Name":"Delta city","State":"Iowa","State_Abbrev":"IA"},
"geometry":{ "type": "Point", "coordinates": [-92.33057,41.322766]}},
{ "type": "Feature", "properties": {"Name":"Denison city","State":"Iowa","State_Abbrev":"IA"},
"geometry":{ "type": "Point", "coordinates": [-95.352861,42.016443]}},
{ "type": "Feature", "properties": {"Name":"Denmark CDP","State":"Iowa","State_Abbrev":"IA"},
"geometry":{ "type": "Point", "coordinates": [-91.338403,40.734325]}},
{ "type": "Feature", "properties": {"Name":"Denver city","State":"Iowa","State_Abbrev":"IA"},
"geometry":{ "type": "Point", "coordinates": [-92.333942,42.66822]}},
{ "type": "Feature", "properties": {"Name":"Derby city","State":"Iowa","State_Abbrev":"IA"},
"geometry":{ "type": "Point", "coordinates": [-93.456521,40.930296]}},
{ "type": "Feature", "properties": {"Name":"Des Moines city","State":"Iowa","State_Abbrev":"IA"},
"geometry":{ "type": "Point", "coordinates": [-93.610243,41.57259]}},
{ "type": "Feature", "properties": {"Name":"De Soto city","State":"Iowa","State_Abbrev":"IA"},
"geometry":{ "type": "Point", "coordinates": [-94.009953,41.537777]}},
{ "type": "Feature", "properties": {"Name":"DeWitt city","State":"Iowa","State_Abbrev":"IA"},
"geometry":{ "type": "Point", "coordinates": [-90.544087,41.822712]}},
{ "type": "Feature", "properties": {"Name":"Dexter city","State":"Iowa","State_Abbrev":"IA"},
"geometry":{ "type": "Point", "coordinates": [-94.227621,41.515385]}},
{ "type": "Feature", "properties": {"Name":"Diagonal city","State":"Iowa","State_Abbrev":"IA"},
"geometry":{ "type": "Point", "coordinates": [-94.341853,40.810899]}},
{ "type": "Feature", "properties": {"Name":"Diamondhead Lake CDP","State":"Iowa","State_Abbrev":"IA"},
"geometry":{ "type": "Point", "coordinates": [-94.259961,41.554649]}},
{ "type": "Feature", "properties": {"Name":"Dickens city","State":"Iowa","State_Abbrev":"IA"},
"geometry":{ "type": "Point", "coordinates": [-95.022243,43.133805]}},
{ "type": "Feature", "properties": {"Name":"Dike city","State":"Iowa","State_Abbrev":"IA"},
"geometry":{ "type": "Point", "coordinates": [-92.625566,42.464121]}},
{ "type": "Feature", "properties": {"Name":"Dixon city","State":"Iowa","State_Abbrev":"IA"},
"geometry":{ "type": "Point", "coordinates": [-90.782371,41.742124]}},
{ "type": "Feature", "properties": {"Name":"Dolliver city","State":"Iowa","State_Abbrev":"IA"},
"geometry":{ "type": "Point", "coordinates": [-94.614271,43.463561]}},
{ "type": "Feature", "properties": {"Name":"Donahue city","State":"Iowa","State_Abbrev":"IA"},
"geometry":{ "type": "Point", "coordinates": [-90.67463,41.691534]}},
{ "type": "Feature", "properties": {"Name":"Donnellson city","State":"Iowa","State_Abbrev":"IA"},
"geometry":{ "type": "Point", "coordinates": [-91.564097,40.645318]}},
{ "type": "Feature", "properties": {"Name":"Doon city","State":"Iowa","State_Abbrev":"IA"},
"geometry":{ "type": "Point", "coordinates": [-96.233092,43.279281]}},
{ "type": "Feature", "properties": {"Name":"Douds CDP","State":"Iowa","State_Abbrev":"IA"},
"geometry":{ "type": "Point", "coordinates": [-92.073239,40.844631]}},
{ "type": "Feature", "properties": {"Name":"Dougherty city","State":"Iowa","State_Abbrev":"IA"},
"geometry":{ "type": "Point", "coordinates": [-93.036127,42.922017]}},
{ "type": "Feature", "properties": {"Name":"Dow City city","State":"Iowa","State_Abbrev":"IA"},
"geometry":{ "type": "Point", "coordinates": [-95.494419,41.927465]}},
{ "type": "Feature", "properties": {"Name":"Downey CDP","State":"Iowa","State_Abbrev":"IA"},
"geometry":{ "type": "Point", "coordinates": [-91.347253,41.611924]}},
{ "type": "Feature", "properties": {"Name":"Dows city","State":"Iowa","State_Abbrev":"IA"},
"geometry":{ "type": "Point", "coordinates": [-93.502041,42.658364]}},
{ "type": "Feature", "properties": {"Name":"Drakesville city","State":"Iowa","State_Abbrev":"IA"},
"geometry":{ "type": "Point", "coordinates": [-92.481309,40.798556]}},
{ "type": "Feature", "properties": {"Name":"Dubuque city","State":"Iowa","State_Abbrev":"IA"},
"geometry":{ "type": "Point", "coordinates": [-90.707258,42.498901]}},
{ "type": "Feature", "properties": {"Name":"Dumont city","State":"Iowa","State_Abbrev":"IA"},
"geometry":{ "type": "Point", "coordinates": [-92.973652,42.752196]}},
{ "type": "Feature", "properties": {"Name":"Duncan CDP","State":"Iowa","State_Abbrev":"IA"},
"geometry":{ "type": "Point", "coordinates": [-93.702135,43.10822]}},
{ "type": "Feature", "properties": {"Name":"Duncombe city","State":"Iowa","State_Abbrev":"IA"},
"geometry":{ "type": "Point", "coordinates": [-93.996792,42.469788]}},
{ "type": "Feature", "properties": {"Name":"Dundee city","State":"Iowa","State_Abbrev":"IA"},
"geometry":{ "type": "Point", "coordinates": [-91.546457,42.579284]}},
{ "type": "Feature", "properties": {"Name":"Dunkerton city","State":"Iowa","State_Abbrev":"IA"},
"geometry":{ "type": "Point", "coordinates": [-92.166028,42.567823]}},
{ "type": "Feature", "properties": {"Name":"Dunlap city","State":"Iowa","State_Abbrev":"IA"},
"geometry":{ "type": "Point", "coordinates": [-95.601935,41.851949]}},
{ "type": "Feature", "properties": {"Name":"Durango city","State":"Iowa","State_Abbrev":"IA"},
"geometry":{ "type": "Point", "coordinates": [-90.775364,42.561962]}},
{ "type": "Feature", "properties": {"Name":"Durant city","State":"Iowa","State_Abbrev":"IA"},
"geometry":{ "type": "Point", "coordinates": [-90.91381,41.601134]}},
{ "type": "Feature", "properties": {"Name":"Dyersville city","State":"Iowa","State_Abbrev":"IA"},
"geometry":{ "type": "Point", "coordinates": [-91.118435,42.481467]}},
{ "type": "Feature", "properties": {"Name":"Dysart city","State":"Iowa","State_Abbrev":"IA"},
"geometry":{ "type": "Point", "coordinates": [-92.309095,42.172071]}},
{ "type": "Feature", "properties": {"Name":"Eagle Grove city","State":"Iowa","State_Abbrev":"IA"},
"geometry":{ "type": "Point", "coordinates": [-93.902412,42.666237]}},
{ "type": "Feature", "properties": {"Name":"Earlham city","State":"Iowa","State_Abbrev":"IA"},
"geometry":{ "type": "Point", "coordinates": [-94.122283,41.49441]}},
{ "type": "Feature", "properties": {"Name":"Earling city","State":"Iowa","State_Abbrev":"IA"},
"geometry":{ "type": "Point", "coordinates": [-95.418983,41.776273]}},
{ "type": "Feature", "properties": {"Name":"Earlville city","State":"Iowa","State_Abbrev":"IA"},
"geometry":{ "type": "Point", "coordinates": [-91.27011,42.482667]}},
{ "type": "Feature", "properties": {"Name":"Early city","State":"Iowa","State_Abbrev":"IA"},
"geometry":{ "type": "Point", "coordinates": [-95.152411,42.461098]}},
{ "type": "Feature", "properties": {"Name":"East Amana CDP","State":"Iowa","State_Abbrev":"IA"},
"geometry":{ "type": "Point", "coordinates": [-91.852699,41.808555]}},
{ "type": "Feature", "properties": {"Name":"East Peru city","State":"Iowa","State_Abbrev":"IA"},
"geometry":{ "type": "Point", "coordinates": [-93.929512,41.227029]}},
{ "type": "Feature", "properties": {"Name":"Eddyville city","State":"Iowa","State_Abbrev":"IA"},
"geometry":{ "type": "Point", "coordinates": [-92.630333,41.159335]}},
{ "type": "Feature", "properties": {"Name":"Edgewood city","State":"Iowa","State_Abbrev":"IA"},
"geometry":{ "type": "Point", "coordinates": [-91.402405,42.644222]}},
{ "type": "Feature", "properties": {"Name":"Elberon city","State":"Iowa","State_Abbrev":"IA"},
"geometry":{ "type": "Point", "coordinates": [-92.316108,42.005532]}},
{ "type": "Feature", "properties": {"Name":"Eldon city","State":"Iowa","State_Abbrev":"IA"},
"geometry":{ "type": "Point", "coordinates": [-92.218227,40.918004]}},
{ "type": "Feature", "properties": {"Name":"Eldora city","State":"Iowa","State_Abbrev":"IA"},
"geometry":{ "type": "Point", "coordinates": [-93.101295,42.360533]}},
{ "type": "Feature", "properties": {"Name":"Eldridge city","State":"Iowa","State_Abbrev":"IA"},
"geometry":{ "type": "Point", "coordinates": [-90.580918,41.639034]}},
{ "type": "Feature", "properties": {"Name":"Elgin city","State":"Iowa","State_Abbrev":"IA"},
"geometry":{ "type": "Point", "coordinates": [-91.635366,42.955417]}},
{ "type": "Feature", "properties": {"Name":"Elkader city","State":"Iowa","State_Abbrev":"IA"},
"geometry":{ "type": "Point", "coordinates": [-91.402831,42.857388]}},
{ "type": "Feature", "properties": {"Name":"Elkhart city","State":"Iowa","State_Abbrev":"IA"},
"geometry":{ "type": "Point", "coordinates": [-93.523173,41.794247]}},
{ "type": "Feature", "properties": {"Name":"Elk Horn city","State":"Iowa","State_Abbrev":"IA"},
"geometry":{ "type": "Point", "coordinates": [-95.061257,41.593108]}},
{ "type": "Feature", "properties": {"Name":"Elkport city","State":"Iowa","State_Abbrev":"IA"},
"geometry":{ "type": "Point", "coordinates": [-91.274767,42.741818]}},
{ "type": "Feature", "properties": {"Name":"Elk Run Heights city","State":"Iowa","State_Abbrev":"IA"},
"geometry":{ "type": "Point", "coordinates": [-92.256048,42.468845]}},
{ "type": "Feature", "properties": {"Name":"Elliott city","State":"Iowa","State_Abbrev":"IA"},
"geometry":{ "type": "Point", "coordinates": [-95.162954,41.149365]}},
{ "type": "Feature", "properties": {"Name":"Ellston city","State":"Iowa","State_Abbrev":"IA"},
"geometry":{ "type": "Point", "coordinates": [-94.108367,40.840071]}},
{ "type": "Feature", "properties": {"Name":"Ellsworth city","State":"Iowa","State_Abbrev":"IA"},
"geometry":{ "type": "Point", "coordinates": [-93.581877,42.310239]}},
{ "type": "Feature", "properties": {"Name":"Elma city","State":"Iowa","State_Abbrev":"IA"},
"geometry":{ "type": "Point", "coordinates": [-92.438689,43.245705]}},
{ "type": "Feature", "properties": {"Name":"Ely city","State":"Iowa","State_Abbrev":"IA"},
"geometry":{ "type": "Point", "coordinates": [-91.586323,41.880328]}},
{ "type": "Feature", "properties": {"Name":"Emerson city","State":"Iowa","State_Abbrev":"IA"},
"geometry":{ "type": "Point", "coordinates": [-95.402725,41.01798]}},
{ "type": "Feature", "properties": {"Name":"Emmetsburg city","State":"Iowa","State_Abbrev":"IA"},
"geometry":{ "type": "Point", "coordinates": [-94.679579,43.114798]}},
{ "type": "Feature", "properties": {"Name":"Epworth city","State":"Iowa","State_Abbrev":"IA"},
"geometry":{ "type": "Point", "coordinates": [-90.931383,42.446542]}},
{ "type": "Feature", "properties": {"Name":"Essex city","State":"Iowa","State_Abbrev":"IA"},
"geometry":{ "type": "Point", "coordinates": [-95.303826,40.832654]}},
{ "type": "Feature", "properties": {"Name":"Estherville city","State":"Iowa","State_Abbrev":"IA"},
"geometry":{ "type": "Point", "coordinates": [-94.834216,43.399735]}},
{ "type": "Feature", "properties": {"Name":"Evansdale city","State":"Iowa","State_Abbrev":"IA"},
"geometry":{ "type": "Point", "coordinates": [-92.269402,42.465698]}},
{ "type": "Feature", "properties": {"Name":"Everly city","State":"Iowa","State_Abbrev":"IA"},
"geometry":{ "type": "Point", "coordinates": [-95.317533,43.16513]}},
{ "type": "Feature", "properties": {"Name":"Exira city","State":"Iowa","State_Abbrev":"IA"},
"geometry":{ "type": "Point", "coordinates": [-94.881109,41.591903]}},
{ "type": "Feature", "properties": {"Name":"Exline city","State":"Iowa","State_Abbrev":"IA"},
"geometry":{ "type": "Point", "coordinates": [-92.843177,40.649101]}},
{ "type": "Feature", "properties": {"Name":"Fairbank city","State":"Iowa","State_Abbrev":"IA"},
"geometry":{ "type": "Point", "coordinates": [-92.047788,42.640139]}},
{ "type": "Feature", "properties": {"Name":"Fairfax city","State":"Iowa","State_Abbrev":"IA"},
"geometry":{ "type": "Point", "coordinates": [-91.777163,41.928705]}},
{ "type": "Feature", "properties": {"Name":"Fairfield city","State":"Iowa","State_Abbrev":"IA"},
"geometry":{ "type": "Point", "coordinates": [-91.966628,41.006376]}},
{ "type": "Feature", "properties": {"Name":"Fairport CDP","State":"Iowa","State_Abbrev":"IA"},
"geometry":{ "type": "Point", "coordinates": [-90.924078,41.439676]}},
{ "type": "Feature", "properties": {"Name":"Farley city","State":"Iowa","State_Abbrev":"IA"},
"geometry":{ "type": "Point", "coordinates": [-91.009182,42.443736]}},
{ "type": "Feature", "properties": {"Name":"Farmersburg city","State":"Iowa","State_Abbrev":"IA"},
"geometry":{ "type": "Point", "coordinates": [-91.366709,42.959343]}},
{ "type": "Feature", "properties": {"Name":"Farmington city","State":"Iowa","State_Abbrev":"IA"},
"geometry":{ "type": "Point", "coordinates": [-91.738964,40.638812]}},
{ "type": "Feature", "properties": {"Name":"Farnhamville city","State":"Iowa","State_Abbrev":"IA"},
"geometry":{ "type": "Point", "coordinates": [-94.407713,42.276475]}},
{ "type": "Feature", "properties": {"Name":"Farragut city","State":"Iowa","State_Abbrev":"IA"},
"geometry":{ "type": "Point", "coordinates": [-95.480798,40.720099]}},
{ "type": "Feature", "properties": {"Name":"Fayette city","State":"Iowa","State_Abbrev":"IA"},
"geometry":{ "type": "Point", "coordinates": [-91.803755,42.841755]}},
{ "type": "Feature", "properties": {"Name":"Fenton city","State":"Iowa","State_Abbrev":"IA"},
"geometry":{ "type": "Point", "coordinates": [-94.427898,43.218435]}},
{ "type": "Feature", "properties": {"Name":"Ferguson city","State":"Iowa","State_Abbrev":"IA"},
"geometry":{ "type": "Point", "coordinates": [-92.862908,41.938595]}},
{ "type": "Feature", "properties": {"Name":"Fertile city","State":"Iowa","State_Abbrev":"IA"},
"geometry":{ "type": "Point", "coordinates": [-93.423199,43.262295]}},
{ "type": "Feature", "properties": {"Name":"Floris city","State":"Iowa","State_Abbrev":"IA"},
"geometry":{ "type": "Point", "coordinates": [-92.332647,40.8645]}},
{ "type": "Feature", "properties": {"Name":"Floyd city","State":"Iowa","State_Abbrev":"IA"},
"geometry":{ "type": "Point", "coordinates": [-92.739944,43.128185]}},
{ "type": "Feature", "properties": {"Name":"Fonda city","State":"Iowa","State_Abbrev":"IA"},
"geometry":{ "type": "Point", "coordinates": [-94.845519,42.581699]}},
{ "type": "Feature", "properties": {"Name":"Fontanelle city","State":"Iowa","State_Abbrev":"IA"},
"geometry":{ "type": "Point", "coordinates": [-94.560204,41.290039]}},
{ "type": "Feature", "properties": {"Name":"Forest City city","State":"Iowa","State_Abbrev":"IA"},
"geometry":{ "type": "Point", "coordinates": [-93.636541,43.257072]}},
{ "type": "Feature", "properties": {"Name":"Fort Atkinson city","State":"Iowa","State_Abbrev":"IA"},
"geometry":{ "type": "Point", "coordinates": [-91.93449,43.144264]}},
{ "type": "Feature", "properties": {"Name":"Fort Dodge city","State":"Iowa","State_Abbrev":"IA"},
"geometry":{ "type": "Point", "coordinates": [-94.175675,42.509863]}},
{ "type": "Feature", "properties": {"Name":"Fort Madison city","State":"Iowa","State_Abbrev":"IA"},
"geometry":{ "type": "Point", "coordinates": [-91.34947,40.620781]}},
{ "type": "Feature", "properties": {"Name":"Fostoria city","State":"Iowa","State_Abbrev":"IA"},
"geometry":{ "type": "Point", "coordinates": [-95.154941,43.242964]}},
{ "type": "Feature", "properties": {"Name":"Franklin city","State":"Iowa","State_Abbrev":"IA"},
"geometry":{ "type": "Point", "coordinates": [-91.511823,40.666797]}},
{ "type": "Feature", "properties": {"Name":"Fraser city","State":"Iowa","State_Abbrev":"IA"},
"geometry":{ "type": "Point", "coordinates": [-93.974209,42.127167]}},
{ "type": "Feature", "properties": {"Name":"Fredericksburg city","State":"Iowa","State_Abbrev":"IA"},
"geometry":{ "type": "Point", "coordinates": [-92.196496,42.964777]}},
{ "type": "Feature", "properties": {"Name":"Frederika city","State":"Iowa","State_Abbrev":"IA"},
"geometry":{ "type": "Point", "coordinates": [-92.306017,42.883394]}},
{ "type": "Feature", "properties": {"Name":"Fredonia city","State":"Iowa","State_Abbrev":"IA"},
"geometry":{ "type": "Point", "coordinates": [-91.339167,41.284311]}},
{ "type": "Feature", "properties": {"Name":"Fremont city","State":"Iowa","State_Abbrev":"IA"},
"geometry":{ "type": "Point", "coordinates": [-92.433721,41.212483]}},
{ "type": "Feature", "properties": {"Name":"Fruitland city","State":"Iowa","State_Abbrev":"IA"},
"geometry":{ "type": "Point", "coordinates": [-91.128785,41.34745]}},
{ "type": "Feature", "properties": {"Name":"Frytown CDP","State":"Iowa","State_Abbrev":"IA"},
"geometry":{ "type": "Point", "coordinates": [-91.732134,41.571949]}},
{ "type": "Feature", "properties": {"Name":"Galt city","State":"Iowa","State_Abbrev":"IA"},
"geometry":{ "type": "Point", "coordinates": [-93.604621,42.693538]}},
{ "type": "Feature", "properties": {"Name":"Galva city","State":"Iowa","State_Abbrev":"IA"},
"geometry":{ "type": "Point", "coordinates": [-95.418037,42.505659]}},
{ "type": "Feature", "properties": {"Name":"Garber city","State":"Iowa","State_Abbrev":"IA"},
"geometry":{ "type": "Point", "coordinates": [-91.260656,42.744245]}},
{ "type": "Feature", "properties": {"Name":"Garden City CDP","State":"Iowa","State_Abbrev":"IA"},
"geometry":{ "type": "Point", "coordinates": [-93.395378,42.245521]}},
{ "type": "Feature", "properties": {"Name":"Garden Grove city","State":"Iowa","State_Abbrev":"IA"},
"geometry":{ "type": "Point", "coordinates": [-93.606882,40.826715]}},
{ "type": "Feature", "properties": {"Name":"Garnavillo city","State":"Iowa","State_Abbrev":"IA"},
"geometry":{ "type": "Point", "coordinates": [-91.23624,42.866688]}},
{ "type": "Feature", "properties": {"Name":"Garner city","State":"Iowa","State_Abbrev":"IA"},
"geometry":{ "type": "Point", "coordinates": [-93.603118,43.099971]}},
{ "type": "Feature", "properties": {"Name":"Garrison city","State":"Iowa","State_Abbrev":"IA"},
"geometry":{ "type": "Point", "coordinates": [-92.144201,42.145031]}},
{ "type": "Feature", "properties": {"Name":"Garwin city","State":"Iowa","State_Abbrev":"IA"},
"geometry":{ "type": "Point", "coordinates": [-92.679118,42.093481]}},
{ "type": "Feature", "properties": {"Name":"Geneva city","State":"Iowa","State_Abbrev":"IA"},
"geometry":{ "type": "Point", "coordinates": [-93.129833,42.674846]}},
{ "type": "Feature", "properties": {"Name":"George city","State":"Iowa","State_Abbrev":"IA"},
"geometry":{ "type": "Point", "coordinates": [-96.003257,43.341873]}},
{ "type": "Feature", "properties": {"Name":"Gibson city","State":"Iowa","State_Abbrev":"IA"},
"geometry":{ "type": "Point", "coordinates": [-92.392156,41.480255]}},
{ "type": "Feature", "properties": {"Name":"Gilbert city","State":"Iowa","State_Abbrev":"IA"},
"geometry":{ "type": "Point", "coordinates": [-93.646053,42.106197]}},
{ "type": "Feature", "properties": {"Name":"Gilbertville city","State":"Iowa","State_Abbrev":"IA"},
"geometry":{ "type": "Point", "coordinates": [-92.214115,42.418279]}},
{ "type": "Feature", "properties": {"Name":"Gillett Grove city","State":"Iowa","State_Abbrev":"IA"},
"geometry":{ "type": "Point", "coordinates": [-95.036759,43.016331]}},
{ "type": "Feature", "properties": {"Name":"Gilman city","State":"Iowa","State_Abbrev":"IA"},
"geometry":{ "type": "Point", "coordinates": [-92.788118,41.878881]}},
{ "type": "Feature", "properties": {"Name":"Gilmore City city","State":"Iowa","State_Abbrev":"IA"},
"geometry":{ "type": "Point", "coordinates": [-94.436817,42.726804]}},
{ "type": "Feature", "properties": {"Name":"Gladbrook city","State":"Iowa","State_Abbrev":"IA"},
"geometry":{ "type": "Point", "coordinates": [-92.715088,42.186106]}},
{ "type": "Feature", "properties": {"Name":"Glenwood city","State":"Iowa","State_Abbrev":"IA"},
"geometry":{ "type": "Point", "coordinates": [-95.740606,41.044701]}},
{ "type": "Feature", "properties": {"Name":"Glidden city","State":"Iowa","State_Abbrev":"IA"},
"geometry":{ "type": "Point", "coordinates": [-94.726613,42.05774]}},
{ "type": "Feature", "properties": {"Name":"Goldfield city","State":"Iowa","State_Abbrev":"IA"},
"geometry":{ "type": "Point", "coordinates": [-93.917906,42.735623]}},
{ "type": "Feature", "properties": {"Name":"Goodell city","State":"Iowa","State_Abbrev":"IA"},
"geometry":{ "type": "Point", "coordinates": [-93.6141,42.923826]}},
{ "type": "Feature", "properties": {"Name":"Goose Lake city","State":"Iowa","State_Abbrev":"IA"},
"geometry":{ "type": "Point", "coordinates": [-90.381829,41.96764]}},
{ "type": "Feature", "properties": {"Name":"Gowrie city","State":"Iowa","State_Abbrev":"IA"},
"geometry":{ "type": "Point", "coordinates": [-94.289735,42.277932]}},
{ "type": "Feature", "properties": {"Name":"Graettinger city","State":"Iowa","State_Abbrev":"IA"},
"geometry":{ "type": "Point", "coordinates": [-94.750469,43.23702]}},
{ "type": "Feature", "properties": {"Name":"Graf city","State":"Iowa","State_Abbrev":"IA"},
"geometry":{ "type": "Point", "coordinates": [-90.873191,42.493853]}},
{ "type": "Feature", "properties": {"Name":"Grafton city","State":"Iowa","State_Abbrev":"IA"},
"geometry":{ "type": "Point", "coordinates": [-93.068714,43.330678]}},
{ "type": "Feature", "properties": {"Name":"Grand Junction city","State":"Iowa","State_Abbrev":"IA"},
"geometry":{ "type": "Point", "coordinates": [-94.236952,42.032994]}},
{ "type": "Feature", "properties": {"Name":"Grand Mound city","State":"Iowa","State_Abbrev":"IA"},
"geometry":{ "type": "Point", "coordinates": [-90.650673,41.823745]}},
{ "type": "Feature", "properties": {"Name":"Grand River city","State":"Iowa","State_Abbrev":"IA"},
"geometry":{ "type": "Point", "coordinates": [-93.963064,40.819011]}},
{ "type": "Feature", "properties": {"Name":"Grandview city","State":"Iowa","State_Abbrev":"IA"},
"geometry":{ "type": "Point", "coordinates": [-91.188077,41.277115]}},
{ "type": "Feature", "properties": {"Name":"Granger city","State":"Iowa","State_Abbrev":"IA"},
"geometry":{ "type": "Point", "coordinates": [-93.823577,41.761696]}},
{ "type": "Feature", "properties": {"Name":"Grant city","State":"Iowa","State_Abbrev":"IA"},
"geometry":{ "type": "Point", "coordinates": [-94.98417,41.143271]}},
{ "type": "Feature", "properties": {"Name":"Granville city","State":"Iowa","State_Abbrev":"IA"},
"geometry":{ "type": "Point", "coordinates": [-95.875011,42.985344]}},
{ "type": "Feature", "properties": {"Name":"Gravity city","State":"Iowa","State_Abbrev":"IA"},
"geometry":{ "type": "Point", "coordinates": [-94.74442,40.76353]}},
{ "type": "Feature", "properties": {"Name":"Gray city","State":"Iowa","State_Abbrev":"IA"},
"geometry":{ "type": "Point", "coordinates": [-94.985863,41.841711]}},
{ "type": "Feature", "properties": {"Name":"Greeley city","State":"Iowa","State_Abbrev":"IA"},
"geometry":{ "type": "Point", "coordinates": [-91.341734,42.584905]}},
{ "type": "Feature", "properties": {"Name":"Greene city","State":"Iowa","State_Abbrev":"IA"},
"geometry":{ "type": "Point", "coordinates": [-92.803538,42.896506]}},
{ "type": "Feature", "properties": {"Name":"Greenfield city","State":"Iowa","State_Abbrev":"IA"},
"geometry":{ "type": "Point", "coordinates": [-94.459268,41.305797]}},
{ "type": "Feature", "properties": {"Name":"Green Mountain CDP","State":"Iowa","State_Abbrev":"IA"},
"geometry":{ "type": "Point", "coordinates": [-92.819626,42.101917]}},
{ "type": "Feature", "properties": {"Name":"Greenville city","State":"Iowa","State_Abbrev":"IA"},
"geometry":{ "type": "Point", "coordinates": [-95.146117,43.016978]}},
{ "type": "Feature", "properties": {"Name":"Grimes city","State":"Iowa","State_Abbrev":"IA"},
"geometry":{ "type": "Point", "coordinates": [-93.80231,41.677848]}},
{ "type": "Feature", "properties": {"Name":"Grinnell city","State":"Iowa","State_Abbrev":"IA"},
"geometry":{ "type": "Point", "coordinates": [-92.724902,41.735236]}},
{ "type": "Feature", "properties": {"Name":"Griswold city","State":"Iowa","State_Abbrev":"IA"},
"geometry":{ "type": "Point", "coordinates": [-95.139368,41.234332]}},
{ "type": "Feature", "properties": {"Name":"Grundy Center city","State":"Iowa","State_Abbrev":"IA"},
"geometry":{ "type": "Point", "coordinates": [-92.774017,42.363729]}},
{ "type": "Feature", "properties": {"Name":"Gruver city","State":"Iowa","State_Abbrev":"IA"},
"geometry":{ "type": "Point", "coordinates": [-94.703556,43.393076]}},
{ "type": "Feature", "properties": {"Name":"Guernsey city","State":"Iowa","State_Abbrev":"IA"},
"geometry":{ "type": "Point", "coordinates": [-92.346018,41.650551]}},
{ "type": "Feature", "properties": {"Name":"Guthrie Center city","State":"Iowa","State_Abbrev":"IA"},
"geometry":{ "type": "Point", "coordinates": [-94.499153,41.677935]}},
{ "type": "Feature", "properties": {"Name":"Guttenberg city","State":"Iowa","State_Abbrev":"IA"},
"geometry":{ "type": "Point", "coordinates": [-91.108775,42.788556]}},
{ "type": "Feature", "properties": {"Name":"Halbur city","State":"Iowa","State_Abbrev":"IA"},
"geometry":{ "type": "Point", "coordinates": [-94.971946,42.005319]}},
{ "type": "Feature", "properties": {"Name":"Hamburg city","State":"Iowa","State_Abbrev":"IA"},
"geometry":{ "type": "Point", "coordinates": [-95.654721,40.606215]}},
{ "type": "Feature", "properties": {"Name":"Hamilton city","State":"Iowa","State_Abbrev":"IA"},
"geometry":{ "type": "Point", "coordinates": [-92.904095,41.17049]}},
{ "type": "Feature", "properties": {"Name":"Hampton city","State":"Iowa","State_Abbrev":"IA"},
"geometry":{ "type": "Point", "coordinates": [-93.204992,42.741989]}},
{ "type": "Feature", "properties": {"Name":"Hancock city","State":"Iowa","State_Abbrev":"IA"},
"geometry":{ "type": "Point", "coordinates": [-95.35969,41.394614]}},
{ "type": "Feature", "properties": {"Name":"Hanlontown city","State":"Iowa","State_Abbrev":"IA"},
"geometry":{ "type": "Point", "coordinates": [-93.378907,43.280934]}},
{ "type": "Feature", "properties": {"Name":"Hansell city","State":"Iowa","State_Abbrev":"IA"},
"geometry":{ "type": "Point", "coordinates": [-93.104119,42.757771]}},
{ "type": "Feature", "properties": {"Name":"Harcourt city","State":"Iowa","State_Abbrev":"IA"},
"geometry":{ "type": "Point", "coordinates": [-94.174487,42.260558]}},
{ "type": "Feature", "properties": {"Name":"Hardy city","State":"Iowa","State_Abbrev":"IA"},
"geometry":{ "type": "Point", "coordinates": [-94.0512,42.81017]}},
{ "type": "Feature", "properties": {"Name":"Harlan city","State":"Iowa","State_Abbrev":"IA"},
"geometry":{ "type": "Point", "coordinates": [-95.326794,41.649536]}},
{ "type": "Feature", "properties": {"Name":"Harper city","State":"Iowa","State_Abbrev":"IA"},
"geometry":{ "type": "Point", "coordinates": [-92.050895,41.363721]}},
{ "type": "Feature", "properties": {"Name":"Harpers Ferry city","State":"Iowa","State_Abbrev":"IA"},
"geometry":{ "type": "Point", "coordinates": [-91.152153,43.200815]}},
{ "type": "Feature", "properties": {"Name":"Harris city","State":"Iowa","State_Abbrev":"IA"},
"geometry":{ "type": "Point", "coordinates": [-95.437199,43.4451]}},
{ "type": "Feature", "properties": {"Name":"Hartford city","State":"Iowa","State_Abbrev":"IA"},
"geometry":{ "type": "Point", "coordinates": [-93.403799,41.457729]}},
{ "type": "Feature", "properties": {"Name":"Hartley city","State":"Iowa","State_Abbrev":"IA"},
"geometry":{ "type": "Point", "coordinates": [-95.476755,43.179058]}},
{ "type": "Feature", "properties": {"Name":"Hartwick city","State":"Iowa","State_Abbrev":"IA"},
"geometry":{ "type": "Point", "coordinates": [-92.345194,41.785608]}},
{ "type": "Feature", "properties": {"Name":"Harvey city","State":"Iowa","State_Abbrev":"IA"},
"geometry":{ "type": "Point", "coordinates": [-92.922715,41.317948]}},
{ "type": "Feature", "properties": {"Name":"Hastings city","State":"Iowa","State_Abbrev":"IA"},
"geometry":{ "type": "Point", "coordinates": [-95.494742,41.025153]}},
{ "type": "Feature", "properties": {"Name":"Havelock city","State":"Iowa","State_Abbrev":"IA"},
"geometry":{ "type": "Point", "coordinates": [-94.701025,42.833019]}},
{ "type": "Feature", "properties": {"Name":"Haverhill city","State":"Iowa","State_Abbrev":"IA"},
"geometry":{ "type": "Point", "coordinates": [-92.960721,41.944144]}},
{ "type": "Feature", "properties": {"Name":"Hawarden city","State":"Iowa","State_Abbrev":"IA"},
"geometry":{ "type": "Point", "coordinates": [-96.482908,43.001314]}},
{ "type": "Feature", "properties": {"Name":"Hawkeye city","State":"Iowa","State_Abbrev":"IA"},
"geometry":{ "type": "Point", "coordinates": [-91.950402,42.937787]}},
{ "type": "Feature", "properties": {"Name":"Hayesville city","State":"Iowa","State_Abbrev":"IA"},
"geometry":{ "type": "Point", "coordinates": [-92.247792,41.2648]}},
{ "type": "Feature", "properties": {"Name":"Hayfield CDP","State":"Iowa","State_Abbrev":"IA"},
"geometry":{ "type": "Point", "coordinates": [-93.694828,43.178562]}},
{ "type": "Feature", "properties": {"Name":"Hazleton city","State":"Iowa","State_Abbrev":"IA"},
"geometry":{ "type": "Point", "coordinates": [-91.906112,42.618538]}},
{ "type": "Feature", "properties": {"Name":"Hedrick city","State":"Iowa","State_Abbrev":"IA"},
"geometry":{ "type": "Point", "coordinates": [-92.307914,41.171327]}},
{ "type": "Feature", "properties": {"Name":"Henderson city","State":"Iowa","State_Abbrev":"IA"},
"geometry":{ "type": "Point", "coordinates": [-95.430294,41.139914]}},
{ "type": "Feature", "properties": {"Name":"Hepburn city","State":"Iowa","State_Abbrev":"IA"},
"geometry":{ "type": "Point", "coordinates": [-95.016649,40.847594]}},
{ "type": "Feature", "properties": {"Name":"Hiawatha city","State":"Iowa","State_Abbrev":"IA"},
"geometry":{ "type": "Point", "coordinates": [-91.689939,42.056054]}},
{ "type": "Feature", "properties": {"Name":"High Amana CDP","State":"Iowa","State_Abbrev":"IA"},
"geometry":{ "type": "Point", "coordinates": [-91.941871,41.801129]}},
{ "type": "Feature", "properties": {"Name":"Hills city","State":"Iowa","State_Abbrev":"IA"},
"geometry":{ "type": "Point", "coordinates": [-91.536295,41.556611]}},
{ "type": "Feature", "properties": {"Name":"Hillsboro city","State":"Iowa","State_Abbrev":"IA"},
"geometry":{ "type": "Point", "coordinates": [-91.711321,40.837159]}},
{ "type": "Feature", "properties": {"Name":"Hinton city","State":"Iowa","State_Abbrev":"IA"},
"geometry":{ "type": "Point", "coordinates": [-96.29765,42.62123]}},
{ "type": "Feature", "properties": {"Name":"Holiday Lake CDP","State":"Iowa","State_Abbrev":"IA"},
"geometry":{ "type": "Point", "coordinates": [-92.453517,41.817971]}},
{ "type": "Feature", "properties": {"Name":"Holland city","State":"Iowa","State_Abbrev":"IA"},
"geometry":{ "type": "Point", "coordinates": [-92.798835,42.400127]}},
{ "type": "Feature", "properties": {"Name":"Holstein city","State":"Iowa","State_Abbrev":"IA"},
"geometry":{ "type": "Point", "coordinates": [-95.542877,42.487149]}},
{ "type": "Feature", "properties": {"Name":"Holy Cross city","State":"Iowa","State_Abbrev":"IA"},
"geometry":{ "type": "Point", "coordinates": [-90.996177,42.601087]}},
{ "type": "Feature", "properties": {"Name":"Homestead CDP","State":"Iowa","State_Abbrev":"IA"},
"geometry":{ "type": "Point", "coordinates": [-91.871137,41.761205]}},
{ "type": "Feature", "properties": {"Name":"Hopkinton city","State":"Iowa","State_Abbrev":"IA"},
"geometry":{ "type": "Point", "coordinates": [-91.249048,42.342873]}},
{ "type": "Feature", "properties": {"Name":"Hornick city","State":"Iowa","State_Abbrev":"IA"},
"geometry":{ "type": "Point", "coordinates": [-96.096596,42.230923]}},
{ "type": "Feature", "properties": {"Name":"Hospers city","State":"Iowa","State_Abbrev":"IA"},
"geometry":{ "type": "Point", "coordinates": [-95.903678,43.071919]}},
{ "type": "Feature", "properties": {"Name":"Houghton city","State":"Iowa","State_Abbrev":"IA"},
"geometry":{ "type": "Point", "coordinates": [-91.610022,40.783668]}},
{ "type": "Feature", "properties": {"Name":"Hubbard city","State":"Iowa","State_Abbrev":"IA"},
"geometry":{ "type": "Point", "coordinates": [-93.30166,42.305793]}},
{ "type": "Feature", "properties": {"Name":"Hudson city","State":"Iowa","State_Abbrev":"IA"},
"geometry":{ "type": "Point", "coordinates": [-92.451284,42.434882]}},
{ "type": "Feature", "properties": {"Name":"Hull city","State":"Iowa","State_Abbrev":"IA"},
"geometry":{ "type": "Point", "coordinates": [-96.1341,43.189457]}},
{ "type": "Feature", "properties": {"Name":"Humboldt city","State":"Iowa","State_Abbrev":"IA"},
"geometry":{ "type": "Point", "coordinates": [-94.22502,42.722928]}},
{ "type": "Feature", "properties": {"Name":"Humeston city","State":"Iowa","State_Abbrev":"IA"},
"geometry":{ "type": "Point", "coordinates": [-93.497303,40.860728]}},
{ "type": "Feature", "properties": {"Name":"Hutchins CDP","State":"Iowa","State_Abbrev":"IA"},
"geometry":{ "type": "Point", "coordinates": [-93.88657,43.08778]}},
{ "type": "Feature", "properties": {"Name":"Huxley city","State":"Iowa","State_Abbrev":"IA"},
"geometry":{ "type": "Point", "coordinates": [-93.591995,41.896551]}},
{ "type": "Feature", "properties": {"Name":"Ida Grove city","State":"Iowa","State_Abbrev":"IA"},
"geometry":{ "type": "Point", "coordinates": [-95.473368,42.34324]}},
{ "type": "Feature", "properties": {"Name":"Imogene city","State":"Iowa","State_Abbrev":"IA"},
"geometry":{ "type": "Point", "coordinates": [-95.429213,40.877674]}},
{ "type": "Feature", "properties": {"Name":"Independence city","State":"Iowa","State_Abbrev":"IA"},
"geometry":{ "type": "Point", "coordinates": [-91.903152,42.462193]}},
{ "type": "Feature", "properties": {"Name":"Indianola city","State":"Iowa","State_Abbrev":"IA"},
"geometry":{ "type": "Point", "coordinates": [-93.565545,41.362971]}},
{ "type": "Feature", "properties": {"Name":"Inwood city","State":"Iowa","State_Abbrev":"IA"},
"geometry":{ "type": "Point", "coordinates": [-96.434357,43.309209]}},
{ "type": "Feature", "properties": {"Name":"Ionia city","State":"Iowa","State_Abbrev":"IA"},
"geometry":{ "type": "Point", "coordinates": [-92.458402,43.035879]}},
{ "type": "Feature", "properties": {"Name":"Iowa City city","State":"Iowa","State_Abbrev":"IA"},
"geometry":{ "type": "Point", "coordinates": [-91.530859,41.655661]}},
{ "type": "Feature", "properties": {"Name":"Iowa Falls city","State":"Iowa","State_Abbrev":"IA"},
"geometry":{ "type": "Point", "coordinates": [-93.26605,42.519169]}},
{ "type": "Feature", "properties": {"Name":"Ireton city","State":"Iowa","State_Abbrev":"IA"},
"geometry":{ "type": "Point", "coordinates": [-96.321609,42.974897]}},
{ "type": "Feature", "properties": {"Name":"Irvington CDP","State":"Iowa","State_Abbrev":"IA"},
"geometry":{ "type": "Point", "coordinates": [-94.195715,43.012876]}},
{ "type": "Feature", "properties": {"Name":"Irwin city","State":"Iowa","State_Abbrev":"IA"},
"geometry":{ "type": "Point", "coordinates": [-95.206792,41.790094]}},
{ "type": "Feature", "properties": {"Name":"Jackson Junction city","State":"Iowa","State_Abbrev":"IA"},
"geometry":{ "type": "Point", "coordinates": [-92.04622,43.10133]}},
{ "type": "Feature", "properties": {"Name":"Jacksonville CDP","State":"Iowa","State_Abbrev":"IA"},
"geometry":{ "type": "Point", "coordinates": [-95.151693,41.645074]}},
{ "type": "Feature", "properties": {"Name":"Jamaica city","State":"Iowa","State_Abbrev":"IA"},
"geometry":{ "type": "Point", "coordinates": [-94.306963,41.845358]}},
{ "type": "Feature", "properties": {"Name":"Janesville city","State":"Iowa","State_Abbrev":"IA"},
"geometry":{ "type": "Point", "coordinates": [-92.462397,42.645805]}},
{ "type": "Feature", "properties": {"Name":"Jefferson city","State":"Iowa","State_Abbrev":"IA"},
"geometry":{ "type": "Point", "coordinates": [-94.379422,42.017743]}},
{ "type": "Feature", "properties": {"Name":"Jesup city","State":"Iowa","State_Abbrev":"IA"},
"geometry":{ "type": "Point", "coordinates": [-92.065636,42.47454]}},
{ "type": "Feature", "properties": {"Name":"Jewell Junction city","State":"Iowa","State_Abbrev":"IA"},
"geometry":{ "type": "Point", "coordinates": [-93.638709,42.311647]}},
{ "type": "Feature", "properties": {"Name":"Johnston city","State":"Iowa","State_Abbrev":"IA"},
"geometry":{ "type": "Point", "coordinates": [-93.724456,41.69195]}},
{ "type": "Feature", "properties": {"Name":"Joice city","State":"Iowa","State_Abbrev":"IA"},
"geometry":{ "type": "Point", "coordinates": [-93.457308,43.364147]}},
{ "type": "Feature", "properties": {"Name":"Jolley city","State":"Iowa","State_Abbrev":"IA"},
"geometry":{ "type": "Point", "coordinates": [-94.719076,42.47938]}},
{ "type": "Feature", "properties": {"Name":"Kalona city","State":"Iowa","State_Abbrev":"IA"},
"geometry":{ "type": "Point", "coordinates": [-91.701828,41.487378]}},
{ "type": "Feature", "properties": {"Name":"Kamrar city","State":"Iowa","State_Abbrev":"IA"},
"geometry":{ "type": "Point", "coordinates": [-93.727857,42.38965]}},
{ "type": "Feature", "properties": {"Name":"Kanawha city","State":"Iowa","State_Abbrev":"IA"},
"geometry":{ "type": "Point", "coordinates": [-93.793179,42.93416]}},
{ "type": "Feature", "properties": {"Name":"Kellerton city","State":"Iowa","State_Abbrev":"IA"},
"geometry":{ "type": "Point", "coordinates": [-94.049929,40.710408]}},
{ "type": "Feature", "properties": {"Name":"Kelley city","State":"Iowa","State_Abbrev":"IA"},
"geometry":{ "type": "Point", "coordinates": [-93.665572,41.951028]}},
{ "type": "Feature", "properties": {"Name":"Kellogg city","State":"Iowa","State_Abbrev":"IA"},
"geometry":{ "type": "Point", "coordinates": [-92.907157,41.718036]}},
{ "type": "Feature", "properties": {"Name":"Kensett city","State":"Iowa","State_Abbrev":"IA"},
"geometry":{ "type": "Point", "coordinates": [-93.210797,43.35338]}},
{ "type": "Feature", "properties": {"Name":"Kent CDP","State":"Iowa","State_Abbrev":"IA"},
"geometry":{ "type": "Point", "coordinates": [-94.461127,40.953632]}},
{ "type": "Feature", "properties": {"Name":"Kent Estates CDP","State":"Iowa","State_Abbrev":"IA"},
"geometry":{ "type": "Point", "coordinates": [-91.056876,41.466488]}},
{ "type": "Feature", "properties": {"Name":"Keokuk city","State":"Iowa","State_Abbrev":"IA"},
"geometry":{ "type": "Point", "coordinates": [-91.402511,40.409546]}},
{ "type": "Feature", "properties": {"Name":"Keomah Village city","State":"Iowa","State_Abbrev":"IA"},
"geometry":{ "type": "Point", "coordinates": [-92.536876,41.286783]}},
{ "type": "Feature", "properties": {"Name":"Keosauqua city","State":"Iowa","State_Abbrev":"IA"},
"geometry":{ "type": "Point", "coordinates": [-91.960305,40.73464]}},
{ "type": "Feature", "properties": {"Name":"Keota city","State":"Iowa","State_Abbrev":"IA"},
"geometry":{ "type": "Point", "coordinates": [-91.953314,41.365129]}},
{ "type": "Feature", "properties": {"Name":"Keswick city","State":"Iowa","State_Abbrev":"IA"},
"geometry":{ "type": "Point", "coordinates": [-92.238315,41.45455]}},
{ "type": "Feature", "properties": {"Name":"Keystone city","State":"Iowa","State_Abbrev":"IA"},
"geometry":{ "type": "Point", "coordinates": [-92.198186,41.999484]}},
{ "type": "Feature", "properties": {"Name":"Kimballton city","State":"Iowa","State_Abbrev":"IA"},
"geometry":{ "type": "Point", "coordinates": [-95.074671,41.627204]}},
{ "type": "Feature", "properties": {"Name":"Kingsley city","State":"Iowa","State_Abbrev":"IA"},
"geometry":{ "type": "Point", "coordinates": [-95.967948,42.586432]}},
{ "type": "Feature", "properties": {"Name":"Kingston CDP","State":"Iowa","State_Abbrev":"IA"},
"geometry":{ "type": "Point", "coordinates": [-91.045788,40.97923]}},
{ "type": "Feature", "properties": {"Name":"Kinross city","State":"Iowa","State_Abbrev":"IA"},
"geometry":{ "type": "Point", "coordinates": [-91.987297,41.459056]}},
{ "type": "Feature", "properties": {"Name":"Kirkman city","State":"Iowa","State_Abbrev":"IA"},
"geometry":{ "type": "Point", "coordinates": [-95.267061,41.728668]}},
{ "type": "Feature", "properties": {"Name":"Kirkville city","State":"Iowa","State_Abbrev":"IA"},
"geometry":{ "type": "Point", "coordinates": [-92.503565,41.142286]}},
{ "type": "Feature", "properties": {"Name":"Kiron city","State":"Iowa","State_Abbrev":"IA"},
"geometry":{ "type": "Point", "coordinates": [-95.327078,42.19416]}},
{ "type": "Feature", "properties": {"Name":"Klemme city","State":"Iowa","State_Abbrev":"IA"},
"geometry":{ "type": "Point", "coordinates": [-93.601345,43.009644]}},
{ "type": "Feature", "properties": {"Name":"Knierim city","State":"Iowa","State_Abbrev":"IA"},
"geometry":{ "type": "Point", "coordinates": [-94.455871,42.456339]}},
{ "type": "Feature", "properties": {"Name":"Knoxville city","State":"Iowa","State_Abbrev":"IA"},
"geometry":{ "type": "Point", "coordinates": [-93.102624,41.318484]}},
{ "type": "Feature", "properties": {"Name":"Lacona city","State":"Iowa","State_Abbrev":"IA"},
"geometry":{ "type": "Point", "coordinates": [-93.385081,41.190095]}},
{ "type": "Feature", "properties": {"Name":"Ladora city","State":"Iowa","State_Abbrev":"IA"},
"geometry":{ "type": "Point", "coordinates": [-92.185917,41.755742]}},
{ "type": "Feature", "properties": {"Name":"Lake City city","State":"Iowa","State_Abbrev":"IA"},
"geometry":{ "type": "Point", "coordinates": [-94.731054,42.26767]}},
{ "type": "Feature", "properties": {"Name":"Lake Mills city","State":"Iowa","State_Abbrev":"IA"},
"geometry":{ "type": "Point", "coordinates": [-93.531588,43.417081]}},
{ "type": "Feature", "properties": {"Name":"Lake Panorama CDP","State":"Iowa","State_Abbrev":"IA"},
"geometry":{ "type": "Point", "coordinates": [-94.404021,41.721545]}},
{ "type": "Feature", "properties": {"Name":"Lake Park city","State":"Iowa","State_Abbrev":"IA"},
"geometry":{ "type": "Point", "coordinates": [-95.324947,43.446938]}},
{ "type": "Feature", "properties": {"Name":"Lakeside city","State":"Iowa","State_Abbrev":"IA"},
"geometry":{ "type": "Point", "coordinates": [-95.177356,42.617485]}},
{ "type": "Feature", "properties": {"Name":"Lake View city","State":"Iowa","State_Abbrev":"IA"},
"geometry":{ "type": "Point", "coordinates": [-95.035761,42.301996]}},
{ "type": "Feature", "properties": {"Name":"Lakota city","State":"Iowa","State_Abbrev":"IA"},
"geometry":{ "type": "Point", "coordinates": [-94.096301,43.378647]}},
{ "type": "Feature", "properties": {"Name":"Lambs Grove city","State":"Iowa","State_Abbrev":"IA"},
"geometry":{ "type": "Point", "coordinates": [-93.079345,41.700761]}},
{ "type": "Feature", "properties": {"Name":"Lamoni city","State":"Iowa","State_Abbrev":"IA"},
"geometry":{ "type": "Point", "coordinates": [-93.930477,40.619579]}},
{ "type": "Feature", "properties": {"Name":"Lamont city","State":"Iowa","State_Abbrev":"IA"},
"geometry":{ "type": "Point", "coordinates": [-91.640388,42.598552]}},
{ "type": "Feature", "properties": {"Name":"La Motte city","State":"Iowa","State_Abbrev":"IA"},
"geometry":{ "type": "Point", "coordinates": [-90.623289,42.295638]}},
{ "type": "Feature", "properties": {"Name":"Lanesboro city","State":"Iowa","State_Abbrev":"IA"},
"geometry":{ "type": "Point", "coordinates": [-94.689769,42.182541]}},
{ "type": "Feature", "properties": {"Name":"Lansing city","State":"Iowa","State_Abbrev":"IA"},
"geometry":{ "type": "Point", "coordinates": [-91.222859,43.359835]}},
{ "type": "Feature", "properties": {"Name":"La Porte City city","State":"Iowa","State_Abbrev":"IA"},
"geometry":{ "type": "Point", "coordinates": [-92.190878,42.313759]}},
{ "type": "Feature", "properties": {"Name":"Larchwood city","State":"Iowa","State_Abbrev":"IA"},
"geometry":{ "type": "Point", "coordinates": [-96.436341,43.454648]}},
{ "type": "Feature", "properties": {"Name":"Larrabee city","State":"Iowa","State_Abbrev":"IA"},
"geometry":{ "type": "Point", "coordinates": [-95.544737,42.861501]}},
{ "type": "Feature", "properties": {"Name":"Latimer city","State":"Iowa","State_Abbrev":"IA"},
"geometry":{ "type": "Point", "coordinates": [-93.365518,42.762921]}},
{ "type": "Feature", "properties": {"Name":"Laurel city","State":"Iowa","State_Abbrev":"IA"},
"geometry":{ "type": "Point", "coordinates": [-92.922312,41.883997]}},
{ "type": "Feature", "properties": {"Name":"Laurens city","State":"Iowa","State_Abbrev":"IA"},
"geometry":{ "type": "Point", "coordinates": [-94.847939,42.847502]}},
{ "type": "Feature", "properties": {"Name":"Lawler city","State":"Iowa","State_Abbrev":"IA"},
"geometry":{ "type": "Point", "coordinates": [-92.152813,43.071919]}},
{ "type": "Feature", "properties": {"Name":"Lawton city","State":"Iowa","State_Abbrev":"IA"},
"geometry":{ "type": "Point", "coordinates": [-96.185092,42.476974]}},
{ "type": "Feature", "properties": {"Name":"Leando CDP","State":"Iowa","State_Abbrev":"IA"},
"geometry":{ "type": "Point", "coordinates": [-92.074516,40.821203]}},
{ "type": "Feature", "properties": {"Name":"Le Claire city","State":"Iowa","State_Abbrev":"IA"},
"geometry":{ "type": "Point", "coordinates": [-90.377006,41.595594]}},
{ "type": "Feature", "properties": {"Name":"Ledyard city","State":"Iowa","State_Abbrev":"IA"},
"geometry":{ "type": "Point", "coordinates": [-94.159283,43.419204]}},
{ "type": "Feature", "properties": {"Name":"Le Grand city","State":"Iowa","State_Abbrev":"IA"},
"geometry":{ "type": "Point", "coordinates": [-92.775058,42.007186]}},
{ "type": "Feature", "properties": {"Name":"Lehigh city","State":"Iowa","State_Abbrev":"IA"},
"geometry":{ "type": "Point", "coordinates": [-94.053366,42.358203]}},
{ "type": "Feature", "properties": {"Name":"Leighton city","State":"Iowa","State_Abbrev":"IA"},
"geometry":{ "type": "Point", "coordinates": [-92.786348,41.338839]}},
{ "type": "Feature", "properties": {"Name":"Leland city","State":"Iowa","State_Abbrev":"IA"},
"geometry":{ "type": "Point", "coordinates": [-93.631824,43.334026]}},
{ "type": "Feature", "properties": {"Name":"Le Mars city","State":"Iowa","State_Abbrev":"IA"},
"geometry":{ "type": "Point", "coordinates": [-96.173311,42.781514]}},
{ "type": "Feature", "properties": {"Name":"Lenox city","State":"Iowa","State_Abbrev":"IA"},
"geometry":{ "type": "Point", "coordinates": [-94.557932,40.883177]}},
{ "type": "Feature", "properties": {"Name":"Leon city","State":"Iowa","State_Abbrev":"IA"},
"geometry":{ "type": "Point", "coordinates": [-93.755571,40.741341]}},
{ "type": "Feature", "properties": {"Name":"Le Roy city","State":"Iowa","State_Abbrev":"IA"},
"geometry":{ "type": "Point", "coordinates": [-93.592622,40.877911]}},
{ "type": "Feature", "properties": {"Name":"Lester city","State":"Iowa","State_Abbrev":"IA"},
"geometry":{ "type": "Point", "coordinates": [-96.331416,43.440293]}},
{ "type": "Feature", "properties": {"Name":"Letts city","State":"Iowa","State_Abbrev":"IA"},
"geometry":{ "type": "Point", "coordinates": [-91.23539,41.330017]}},
{ "type": "Feature", "properties": {"Name":"Lewis city","State":"Iowa","State_Abbrev":"IA"},
"geometry":{ "type": "Point", "coordinates": [-95.084269,41.306403]}},
{ "type": "Feature", "properties": {"Name":"Libertyville city","State":"Iowa","State_Abbrev":"IA"},
"geometry":{ "type": "Point", "coordinates": [-92.04962,40.958218]}},
{ "type": "Feature", "properties": {"Name":"Lidderdale city","State":"Iowa","State_Abbrev":"IA"},
"geometry":{ "type": "Point", "coordinates": [-94.783642,42.122421]}},
{ "type": "Feature", "properties": {"Name":"Lime Springs city","State":"Iowa","State_Abbrev":"IA"},
"geometry":{ "type": "Point", "coordinates": [-92.284064,43.449899]}},
{ "type": "Feature", "properties": {"Name":"Lincoln city","State":"Iowa","State_Abbrev":"IA"},
"geometry":{ "type": "Point", "coordinates": [-92.69233,42.262718]}},
{ "type": "Feature", "properties": {"Name":"Linden city","State":"Iowa","State_Abbrev":"IA"},
"geometry":{ "type": "Point", "coordinates": [-94.27002,41.64274]}},
{ "type": "Feature", "properties": {"Name":"Lineville city","State":"Iowa","State_Abbrev":"IA"},
"geometry":{ "type": "Point", "coordinates": [-93.523193,40.587032]}},
{ "type": "Feature", "properties": {"Name":"Linn Grove city","State":"Iowa","State_Abbrev":"IA"},
"geometry":{ "type": "Point", "coordinates": [-95.243647,42.89389]}},
{ "type": "Feature", "properties": {"Name":"Lisbon city","State":"Iowa","State_Abbrev":"IA"},
"geometry":{ "type": "Point", "coordinates": [-91.391602,41.92048]}},
{ "type": "Feature", "properties": {"Name":"Liscomb city","State":"Iowa","State_Abbrev":"IA"},
"geometry":{ "type": "Point", "coordinates": [-93.006282,42.191262]}},
{ "type": "Feature", "properties": {"Name":"Little Cedar CDP","State":"Iowa","State_Abbrev":"IA"},
"geometry":{ "type": "Point", "coordinates": [-92.725683,43.380049]}},
{ "type": "Feature", "properties": {"Name":"Little Rock city","State":"Iowa","State_Abbrev":"IA"},
"geometry":{ "type": "Point", "coordinates": [-95.880434,43.447066]}},
{ "type": "Feature", "properties": {"Name":"Little Sioux city","State":"Iowa","State_Abbrev":"IA"},
"geometry":{ "type": "Point", "coordinates": [-96.027402,41.808191]}},
{ "type": "Feature", "properties": {"Name":"Livermore city","State":"Iowa","State_Abbrev":"IA"},
"geometry":{ "type": "Point", "coordinates": [-94.184171,42.868056]}},
{ "type": "Feature", "properties": {"Name":"Lockridge city","State":"Iowa","State_Abbrev":"IA"},
"geometry":{ "type": "Point", "coordinates": [-91.750659,40.993595]}},
{ "type": "Feature", "properties": {"Name":"Logan city","State":"Iowa","State_Abbrev":"IA"},
"geometry":{ "type": "Point", "coordinates": [-95.791253,41.645409]}},
{ "type": "Feature", "properties": {"Name":"Lohrville city","State":"Iowa","State_Abbrev":"IA"},
"geometry":{ "type": "Point", "coordinates": [-94.551547,42.266945]}},
{ "type": "Feature", "properties": {"Name":"Lone Rock city","State":"Iowa","State_Abbrev":"IA"},
"geometry":{ "type": "Point", "coordinates": [-94.325289,43.220867]}},
{ "type": "Feature", "properties": {"Name":"Lone Tree city","State":"Iowa","State_Abbrev":"IA"},
"geometry":{ "type": "Point", "coordinates": [-91.426698,41.485893]}},
{ "type": "Feature", "properties": {"Name":"Long Grove city","State":"Iowa","State_Abbrev":"IA"},
"geometry":{ "type": "Point", "coordinates": [-90.580271,41.692236]}},
{ "type": "Feature", "properties": {"Name":"Lorimor city","State":"Iowa","State_Abbrev":"IA"},
"geometry":{ "type": "Point", "coordinates": [-94.056855,41.126742]}},
{ "type": "Feature", "properties": {"Name":"Lost Nation city","State":"Iowa","State_Abbrev":"IA"},
"geometry":{ "type": "Point", "coordinates": [-90.818139,41.967548]}},
{ "type": "Feature", "properties": {"Name":"Loveland CDP","State":"Iowa","State_Abbrev":"IA"},
"geometry":{ "type": "Point", "coordinates": [-95.890225,41.49702]}},
{ "type": "Feature", "properties": {"Name":"Lovilia city","State":"Iowa","State_Abbrev":"IA"},
"geometry":{ "type": "Point", "coordinates": [-92.907907,41.134735]}},
{ "type": "Feature", "properties": {"Name":"Lowden city","State":"Iowa","State_Abbrev":"IA"},
"geometry":{ "type": "Point", "coordinates": [-90.922906,41.858932]}},
{ "type": "Feature", "properties": {"Name":"Lowell CDP","State":"Iowa","State_Abbrev":"IA"},
"geometry":{ "type": "Point", "coordinates": [-91.438597,40.834348]}},
{ "type": "Feature", "properties": {"Name":"Low Moor city","State":"Iowa","State_Abbrev":"IA"},
"geometry":{ "type": "Point", "coordinates": [-90.354992,41.802944]}},
{ "type": "Feature", "properties": {"Name":"Luana city","State":"Iowa","State_Abbrev":"IA"},
"geometry":{ "type": "Point", "coordinates": [-91.455727,43.059422]}},
{ "type": "Feature", "properties": {"Name":"Lucas city","State":"Iowa","State_Abbrev":"IA"},
"geometry":{ "type": "Point", "coordinates": [-93.461601,41.03241]}},
{ "type": "Feature", "properties": {"Name":"Luther city","State":"Iowa","State_Abbrev":"IA"},
"geometry":{ "type": "Point", "coordinates": [-93.817641,41.966902]}},
{ "type": "Feature", "properties": {"Name":"Lu Verne city","State":"Iowa","State_Abbrev":"IA"},
"geometry":{ "type": "Point", "coordinates": [-94.083593,42.90946]}},
{ "type": "Feature", "properties": {"Name":"Luxemburg city","State":"Iowa","State_Abbrev":"IA"},
"geometry":{ "type": "Point", "coordinates": [-91.072578,42.604028]}},
{ "type": "Feature", "properties": {"Name":"Luzerne city","State":"Iowa","State_Abbrev":"IA"},
"geometry":{ "type": "Point", "coordinates": [-92.180366,41.905434]}},
{ "type": "Feature", "properties": {"Name":"Lynnville city","State":"Iowa","State_Abbrev":"IA"},
"geometry":{ "type": "Point", "coordinates": [-92.786893,41.572859]}},
{ "type": "Feature", "properties": {"Name":"Lytton city","State":"Iowa","State_Abbrev":"IA"},
"geometry":{ "type": "Point", "coordinates": [-94.860874,42.423252]}},
{ "type": "Feature", "properties": {"Name":"McCallsburg city","State":"Iowa","State_Abbrev":"IA"},
"geometry":{ "type": "Point", "coordinates": [-93.390781,42.164883]}},
{ "type": "Feature", "properties": {"Name":"McCausland city","State":"Iowa","State_Abbrev":"IA"},
"geometry":{ "type": "Point", "coordinates": [-90.445881,41.743407]}},
{ "type": "Feature", "properties": {"Name":"McClelland city","State":"Iowa","State_Abbrev":"IA"},
"geometry":{ "type": "Point", "coordinates": [-95.681396,41.331616]}},
{ "type": "Feature", "properties": {"Name":"Macedonia city","State":"Iowa","State_Abbrev":"IA"},
"geometry":{ "type": "Point", "coordinates": [-95.426544,41.192259]}},
{ "type": "Feature", "properties": {"Name":"McGregor city","State":"Iowa","State_Abbrev":"IA"},
"geometry":{ "type": "Point", "coordinates": [-91.185657,43.028291]}},
{ "type": "Feature", "properties": {"Name":"McIntire city","State":"Iowa","State_Abbrev":"IA"},
"geometry":{ "type": "Point", "coordinates": [-92.593634,43.435949]}},
{ "type": "Feature", "properties": {"Name":"Macksburg city","State":"Iowa","State_Abbrev":"IA"},
"geometry":{ "type": "Point", "coordinates": [-94.185073,41.214704]}},
{ "type": "Feature", "properties": {"Name":"Madrid city","State":"Iowa","State_Abbrev":"IA"},
"geometry":{ "type": "Point", "coordinates": [-93.820526,41.875688]}},
{ "type": "Feature", "properties": {"Name":"Magnolia city","State":"Iowa","State_Abbrev":"IA"},
"geometry":{ "type": "Point", "coordinates": [-95.874139,41.692671]}},
{ "type": "Feature", "properties": {"Name":"Maharishi Vedic City city","State":"Iowa","State_Abbrev":"IA"},
"geometry":{ "type": "Point", "coordinates": [-92.014608,41.054451]}},
{ "type": "Feature", "properties": {"Name":"Malcom city","State":"Iowa","State_Abbrev":"IA"},
"geometry":{ "type": "Point", "coordinates": [-92.55531,41.706101]}},
{ "type": "Feature", "properties": {"Name":"Mallard city","State":"Iowa","State_Abbrev":"IA"},
"geometry":{ "type": "Point", "coordinates": [-94.683394,42.939394]}},
{ "type": "Feature", "properties": {"Name":"Maloy city","State":"Iowa","State_Abbrev":"IA"},
"geometry":{ "type": "Point", "coordinates": [-94.409645,40.670645]}},
{ "type": "Feature", "properties": {"Name":"Malvern city","State":"Iowa","State_Abbrev":"IA"},
"geometry":{ "type": "Point", "coordinates": [-95.584141,41.003747]}},
{ "type": "Feature", "properties": {"Name":"Manchester city","State":"Iowa","State_Abbrev":"IA"},
"geometry":{ "type": "Point", "coordinates": [-91.456086,42.485339]}},
{ "type": "Feature", "properties": {"Name":"Manilla city","State":"Iowa","State_Abbrev":"IA"},
"geometry":{ "type": "Point", "coordinates": [-95.234506,41.892555]}},
{ "type": "Feature", "properties": {"Name":"Manly city","State":"Iowa","State_Abbrev":"IA"},
"geometry":{ "type": "Point", "coordinates": [-93.200815,43.288254]}},
{ "type": "Feature", "properties": {"Name":"Manning city","State":"Iowa","State_Abbrev":"IA"},
"geometry":{ "type": "Point", "coordinates": [-95.064442,41.90963]}},
{ "type": "Feature", "properties": {"Name":"Manson city","State":"Iowa","State_Abbrev":"IA"},
"geometry":{ "type": "Point", "coordinates": [-94.540064,42.528638]}},
{ "type": "Feature", "properties": {"Name":"Mapleton city","State":"Iowa","State_Abbrev":"IA"},
"geometry":{ "type": "Point", "coordinates": [-95.790869,42.167315]}},
{ "type": "Feature", "properties": {"Name":"Maquoketa city","State":"Iowa","State_Abbrev":"IA"},
"geometry":{ "type": "Point", "coordinates": [-90.663862,42.06053]}},
{ "type": "Feature", "properties": {"Name":"Marathon city","State":"Iowa","State_Abbrev":"IA"},
"geometry":{ "type": "Point", "coordinates": [-94.982866,42.860193]}},
{ "type": "Feature", "properties": {"Name":"Marble Rock city","State":"Iowa","State_Abbrev":"IA"},
"geometry":{ "type": "Point", "coordinates": [-92.867772,42.964608]}},
{ "type": "Feature", "properties": {"Name":"Marcus city","State":"Iowa","State_Abbrev":"IA"},
"geometry":{ "type": "Point", "coordinates": [-95.806842,42.822401]}},
{ "type": "Feature", "properties": {"Name":"Marengo city","State":"Iowa","State_Abbrev":"IA"},
"geometry":{ "type": "Point", "coordinates": [-92.068061,41.796205]}},
{ "type": "Feature", "properties": {"Name":"Marion city","State":"Iowa","State_Abbrev":"IA"},
"geometry":{ "type": "Point", "coordinates": [-91.586155,42.045394]}},
{ "type": "Feature", "properties": {"Name":"Marne city","State":"Iowa","State_Abbrev":"IA"},
"geometry":{ "type": "Point", "coordinates": [-95.110897,41.448857]}},
{ "type": "Feature", "properties": {"Name":"Marquette city","State":"Iowa","State_Abbrev":"IA"},
"geometry":{ "type": "Point", "coordinates": [-91.192423,43.043301]}},
{ "type": "Feature", "properties": {"Name":"Marshalltown city","State":"Iowa","State_Abbrev":"IA"},
"geometry":{ "type": "Point", "coordinates": [-92.906266,42.0343]}},
{ "type": "Feature", "properties": {"Name":"Martelle city","State":"Iowa","State_Abbrev":"IA"},
"geometry":{ "type": "Point", "coordinates": [-91.357818,42.02043]}},
{ "type": "Feature", "properties": {"Name":"Martensdale city","State":"Iowa","State_Abbrev":"IA"},
"geometry":{ "type": "Point", "coordinates": [-93.7388,41.37375]}},
{ "type": "Feature", "properties": {"Name":"Martinsburg city","State":"Iowa","State_Abbrev":"IA"},
"geometry":{ "type": "Point", "coordinates": [-92.25189,41.17877]}},
{ "type": "Feature", "properties": {"Name":"Marysville city","State":"Iowa","State_Abbrev":"IA"},
"geometry":{ "type": "Point", "coordinates": [-92.953778,41.180833]}},
{ "type": "Feature", "properties": {"Name":"Mason City city","State":"Iowa","State_Abbrev":"IA"},
"geometry":{ "type": "Point", "coordinates": [-93.19984,43.148585]}},
{ "type": "Feature", "properties": {"Name":"Masonville city","State":"Iowa","State_Abbrev":"IA"},
"geometry":{ "type": "Point", "coordinates": [-91.591513,42.479808]}},
{ "type": "Feature", "properties": {"Name":"Massena city","State":"Iowa","State_Abbrev":"IA"},
"geometry":{ "type": "Point", "coordinates": [-94.769859,41.250632]}},
{ "type": "Feature", "properties": {"Name":"Matlock city","State":"Iowa","State_Abbrev":"IA"},
"geometry":{ "type": "Point", "coordinates": [-95.934382,43.244307]}},
{ "type": "Feature", "properties": {"Name":"Maurice city","State":"Iowa","State_Abbrev":"IA"},
"geometry":{ "type": "Point", "coordinates": [-96.182029,42.966136]}},
{ "type": "Feature", "properties": {"Name":"Maxwell city","State":"Iowa","State_Abbrev":"IA"},
"geometry":{ "type": "Point", "coordinates": [-93.396063,41.891433]}},
{ "type": "Feature", "properties": {"Name":"Maynard city","State":"Iowa","State_Abbrev":"IA"},
"geometry":{ "type": "Point", "coordinates": [-91.878025,42.773315]}},
{ "type": "Feature", "properties": {"Name":"Maysville city","State":"Iowa","State_Abbrev":"IA"},
"geometry":{ "type": "Point", "coordinates": [-90.718487,41.649545]}},
{ "type": "Feature", "properties": {"Name":"Mechanicsville city","State":"Iowa","State_Abbrev":"IA"},
"geometry":{ "type": "Point", "coordinates": [-91.253272,41.905593]}},
{ "type": "Feature", "properties": {"Name":"Mediapolis city","State":"Iowa","State_Abbrev":"IA"},
"geometry":{ "type": "Point", "coordinates": [-91.16372,41.007867]}},
{ "type": "Feature", "properties": {"Name":"Melbourne city","State":"Iowa","State_Abbrev":"IA"},
"geometry":{ "type": "Point", "coordinates": [-93.102304,41.941623]}},
{ "type": "Feature", "properties": {"Name":"Melcher-Dallas city","State":"Iowa","State_Abbrev":"IA"},
"geometry":{ "type": "Point", "coordinates": [-93.241634,41.226962]}},
{ "type": "Feature", "properties": {"Name":"Melrose city","State":"Iowa","State_Abbrev":"IA"},
"geometry":{ "type": "Point", "coordinates": [-93.050824,40.979074]}},
{ "type": "Feature", "properties": {"Name":"Melvin city","State":"Iowa","State_Abbrev":"IA"},
"geometry":{ "type": "Point", "coordinates": [-95.608631,43.286461]}},
{ "type": "Feature", "properties": {"Name":"Menlo city","State":"Iowa","State_Abbrev":"IA"},
"geometry":{ "type": "Point", "coordinates": [-94.404485,41.522181]}},
{ "type": "Feature", "properties": {"Name":"Meriden city","State":"Iowa","State_Abbrev":"IA"},
"geometry":{ "type": "Point", "coordinates": [-95.634142,42.794537]}},
{ "type": "Feature", "properties": {"Name":"Merrill city","State":"Iowa","State_Abbrev":"IA"},
"geometry":{ "type": "Point", "coordinates": [-96.251943,42.720456]}},
{ "type": "Feature", "properties": {"Name":"Meservey city","State":"Iowa","State_Abbrev":"IA"},
"geometry":{ "type": "Point", "coordinates": [-93.473276,42.915648]}},
{ "type": "Feature", "properties": {"Name":"Meyer CDP","State":"Iowa","State_Abbrev":"IA"},
"geometry":{ "type": "Point", "coordinates": [-92.701063,43.461813]}},
{ "type": "Feature", "properties": {"Name":"Middle Amana CDP","State":"Iowa","State_Abbrev":"IA"},
"geometry":{ "type": "Point", "coordinates": [-91.901539,41.794765]}},
{ "type": "Feature", "properties": {"Name":"Middletown city","State":"Iowa","State_Abbrev":"IA"},
"geometry":{ "type": "Point", "coordinates": [-91.262227,40.827862]}},
{ "type": "Feature", "properties": {"Name":"Miles city","State":"Iowa","State_Abbrev":"IA"},
"geometry":{ "type": "Point", "coordinates": [-90.313318,42.048121]}},
{ "type": "Feature", "properties": {"Name":"Milford city","State":"Iowa","State_Abbrev":"IA"},
"geometry":{ "type": "Point", "coordinates": [-95.145709,43.341717]}},
{ "type": "Feature", "properties": {"Name":"Miller CDP","State":"Iowa","State_Abbrev":"IA"},
"geometry":{ "type": "Point", "coordinates": [-93.607646,43.186371]}},
{ "type": "Feature", "properties": {"Name":"Millersburg city","State":"Iowa","State_Abbrev":"IA"},
"geometry":{ "type": "Point", "coordinates": [-92.159358,41.573345]}},
{ "type": "Feature", "properties": {"Name":"Millerton city","State":"Iowa","State_Abbrev":"IA"},
"geometry":{ "type": "Point", "coordinates": [-93.306614,40.849935]}},
{ "type": "Feature", "properties": {"Name":"Milo city","State":"Iowa","State_Abbrev":"IA"},
"geometry":{ "type": "Point", "coordinates": [-93.440373,41.289284]}},
{ "type": "Feature", "properties": {"Name":"Milton city","State":"Iowa","State_Abbrev":"IA"},
"geometry":{ "type": "Point", "coordinates": [-92.161951,40.671531]}},
{ "type": "Feature", "properties": {"Name":"Minburn city","State":"Iowa","State_Abbrev":"IA"},
"geometry":{ "type": "Point", "coordinates": [-94.028481,41.757564]}},
{ "type": "Feature", "properties": {"Name":"Minden city","State":"Iowa","State_Abbrev":"IA"},
"geometry":{ "type": "Point", "coordinates": [-95.543198,41.469409]}},
{ "type": "Feature", "properties": {"Name":"Mineola CDP","State":"Iowa","State_Abbrev":"IA"},
"geometry":{ "type": "Point", "coordinates": [-95.694773,41.141446]}},
{ "type": "Feature", "properties": {"Name":"Mingo city","State":"Iowa","State_Abbrev":"IA"},
"geometry":{ "type": "Point", "coordinates": [-93.282532,41.766212]}},
{ "type": "Feature", "properties": {"Name":"Missouri Valley city","State":"Iowa","State_Abbrev":"IA"},
"geometry":{ "type": "Point", "coordinates": [-95.902635,41.559319]}},
{ "type": "Feature", "properties": {"Name":"Mitchell city","State":"Iowa","State_Abbrev":"IA"},
"geometry":{ "type": "Point", "coordinates": [-92.871072,43.320189]}},
{ "type": "Feature", "properties": {"Name":"Mitchellville city","State":"Iowa","State_Abbrev":"IA"},
"geometry":{ "type": "Point", "coordinates": [-93.365854,41.667232]}},
{ "type": "Feature", "properties": {"Name":"Modale city","State":"Iowa","State_Abbrev":"IA"},
"geometry":{ "type": "Point", "coordinates": [-96.012082,41.618227]}},
{ "type": "Feature", "properties": {"Name":"Mona CDP","State":"Iowa","State_Abbrev":"IA"},
"geometry":{ "type": "Point", "coordinates": [-92.953441,43.485981]}},
{ "type": "Feature", "properties": {"Name":"Mondamin city","State":"Iowa","State_Abbrev":"IA"},
"geometry":{ "type": "Point", "coordinates": [-96.021466,41.710035]}},
{ "type": "Feature", "properties": {"Name":"Monmouth city","State":"Iowa","State_Abbrev":"IA"},
"geometry":{ "type": "Point", "coordinates": [-90.88223,42.0751]}},
{ "type": "Feature", "properties": {"Name":"Monona city","State":"Iowa","State_Abbrev":"IA"},
"geometry":{ "type": "Point", "coordinates": [-91.391056,43.049843]}},
{ "type": "Feature", "properties": {"Name":"Monroe city","State":"Iowa","State_Abbrev":"IA"},
"geometry":{ "type": "Point", "coordinates": [-93.103739,41.518945]}},
{ "type": "Feature", "properties": {"Name":"Montezuma city","State":"Iowa","State_Abbrev":"IA"},
"geometry":{ "type": "Point", "coordinates": [-92.527828,41.582991]}},
{ "type": "Feature", "properties": {"Name":"Monticello city","State":"Iowa","State_Abbrev":"IA"},
"geometry":{ "type": "Point", "coordinates": [-91.185925,42.230425]}},
{ "type": "Feature", "properties": {"Name":"Montour city","State":"Iowa","State_Abbrev":"IA"},
"geometry":{ "type": "Point", "coordinates": [-92.715062,41.980306]}},
{ "type": "Feature", "properties": {"Name":"Montpelier CDP","State":"Iowa","State_Abbrev":"IA"},
"geometry":{ "type": "Point", "coordinates": [-90.811395,41.461433]}},
{ "type": "Feature", "properties": {"Name":"Montrose city","State":"Iowa","State_Abbrev":"IA"},
"geometry":{ "type": "Point", "coordinates": [-91.418407,40.525347]}},
{ "type": "Feature", "properties": {"Name":"Mooar CDP","State":"Iowa","State_Abbrev":"IA"},
"geometry":{ "type": "Point", "coordinates": [-91.444612,40.431939]}},
{ "type": "Feature", "properties": {"Name":"Moorhead city","State":"Iowa","State_Abbrev":"IA"},
"geometry":{ "type": "Point", "coordinates": [-95.851415,41.923267]}},
{ "type": "Feature", "properties": {"Name":"Moorland city","State":"Iowa","State_Abbrev":"IA"},
"geometry":{ "type": "Point", "coordinates": [-94.295395,42.441533]}},
{ "type": "Feature", "properties": {"Name":"Moravia city","State":"Iowa","State_Abbrev":"IA"},
"geometry":{ "type": "Point", "coordinates": [-92.819972,40.891662]}},
{ "type": "Feature", "properties": {"Name":"Morley city","State":"Iowa","State_Abbrev":"IA"},
"geometry":{ "type": "Point", "coordinates": [-91.245878,42.006145]}},
{ "type": "Feature", "properties": {"Name":"Morning Sun city","State":"Iowa","State_Abbrev":"IA"},
"geometry":{ "type": "Point", "coordinates": [-91.250598,41.094139]}},
{ "type": "Feature", "properties": {"Name":"Morrison city","State":"Iowa","State_Abbrev":"IA"},
"geometry":{ "type": "Point", "coordinates": [-92.673299,42.34297]}},
{ "type": "Feature", "properties": {"Name":"Moscow CDP","State":"Iowa","State_Abbrev":"IA"},
"geometry":{ "type": "Point", "coordinates": [-91.074306,41.570664]}},
{ "type": "Feature", "properties": {"Name":"Moulton city","State":"Iowa","State_Abbrev":"IA"},
"geometry":{ "type": "Point", "coordinates": [-92.676302,40.685492]}},
{ "type": "Feature", "properties": {"Name":"Mount Auburn city","State":"Iowa","State_Abbrev":"IA"},
"geometry":{ "type": "Point", "coordinates": [-92.093859,42.257284]}},
{ "type": "Feature", "properties": {"Name":"Mount Ayr city","State":"Iowa","State_Abbrev":"IA"},
"geometry":{ "type": "Point", "coordinates": [-94.237225,40.714071]}},
{ "type": "Feature", "properties": {"Name":"Mount Pleasant city","State":"Iowa","State_Abbrev":"IA"},
"geometry":{ "type": "Point", "coordinates": [-91.547162,40.962205]}},
{ "type": "Feature", "properties": {"Name":"Mount Sterling CDP","State":"Iowa","State_Abbrev":"IA"},
"geometry":{ "type": "Point", "coordinates": [-91.935382,40.618481]}},
{ "type": "Feature", "properties": {"Name":"Mount Union CDP","State":"Iowa","State_Abbrev":"IA"},
"geometry":{ "type": "Point", "coordinates": [-91.391398,41.057704]}},
{ "type": "Feature", "properties": {"Name":"Mount Vernon city","State":"Iowa","State_Abbrev":"IA"},
"geometry":{ "type": "Point", "coordinates": [-91.423763,41.92365]}},
{ "type": "Feature", "properties": {"Name":"Moville city","State":"Iowa","State_Abbrev":"IA"},
"geometry":{ "type": "Point", "coordinates": [-96.067924,42.490235]}},
{ "type": "Feature", "properties": {"Name":"Murray city","State":"Iowa","State_Abbrev":"IA"},
"geometry":{ "type": "Point", "coordinates": [-93.948817,41.041338]}},
{ "type": "Feature", "properties": {"Name":"Muscatine city","State":"Iowa","State_Abbrev":"IA"},
"geometry":{ "type": "Point", "coordinates": [-91.067946,41.419058]}},
{ "type": "Feature", "properties": {"Name":"Mystic city","State":"Iowa","State_Abbrev":"IA"},
"geometry":{ "type": "Point", "coordinates": [-92.944387,40.779175]}},
{ "type": "Feature", "properties": {"Name":"Nashua city","State":"Iowa","State_Abbrev":"IA"},
"geometry":{ "type": "Point", "coordinates": [-92.542538,42.950393]}},
{ "type": "Feature", "properties": {"Name":"Nemaha city","State":"Iowa","State_Abbrev":"IA"},
"geometry":{ "type": "Point", "coordinates": [-95.088523,42.514693]}},
{ "type": "Feature", "properties": {"Name":"Neola city","State":"Iowa","State_Abbrev":"IA"},
"geometry":{ "type": "Point", "coordinates": [-95.618914,41.451904]}},
{ "type": "Feature", "properties": {"Name":"Nevada city","State":"Iowa","State_Abbrev":"IA"},
"geometry":{ "type": "Point", "coordinates": [-93.469674,42.01749]}},
{ "type": "Feature", "properties": {"Name":"New Albin city","State":"Iowa","State_Abbrev":"IA"},
"geometry":{ "type": "Point", "coordinates": [-91.287867,43.496987]}},
{ "type": "Feature", "properties": {"Name":"Newell city","State":"Iowa","State_Abbrev":"IA"},
"geometry":{ "type": "Point", "coordinates": [-95.003978,42.609682]}},
{ "type": "Feature", "properties": {"Name":"Newhall city","State":"Iowa","State_Abbrev":"IA"},
"geometry":{ "type": "Point", "coordinates": [-91.967224,41.993249]}},
{ "type": "Feature", "properties": {"Name":"New Hampton city","State":"Iowa","State_Abbrev":"IA"},
"geometry":{ "type": "Point", "coordinates": [-92.314725,43.056219]}},
{ "type": "Feature", "properties": {"Name":"New Hartford city","State":"Iowa","State_Abbrev":"IA"},
"geometry":{ "type": "Point", "coordinates": [-92.621391,42.568201]}},
{ "type": "Feature", "properties": {"Name":"New Haven CDP","State":"Iowa","State_Abbrev":"IA"},
"geometry":{ "type": "Point", "coordinates": [-92.642192,43.283922]}},
{ "type": "Feature", "properties": {"Name":"New Liberty city","State":"Iowa","State_Abbrev":"IA"},
"geometry":{ "type": "Point", "coordinates": [-90.877976,41.715956]}},
{ "type": "Feature", "properties": {"Name":"New London city","State":"Iowa","State_Abbrev":"IA"},
"geometry":{ "type": "Point", "coordinates": [-91.401194,40.923112]}},
{ "type": "Feature", "properties": {"Name":"New Market city","State":"Iowa","State_Abbrev":"IA"},
"geometry":{ "type": "Point", "coordinates": [-94.900042,40.732565]}},
{ "type": "Feature", "properties": {"Name":"New Providence city","State":"Iowa","State_Abbrev":"IA"},
"geometry":{ "type": "Point", "coordinates": [-93.171623,42.281328]}},
{ "type": "Feature", "properties": {"Name":"New Sharon city","State":"Iowa","State_Abbrev":"IA"},
"geometry":{ "type": "Point", "coordinates": [-92.650966,41.470056]}},
{ "type": "Feature", "properties": {"Name":"Newton city","State":"Iowa","State_Abbrev":"IA"},
"geometry":{ "type": "Point", "coordinates": [-93.040274,41.696242]}},
{ "type": "Feature", "properties": {"Name":"New Vienna city","State":"Iowa","State_Abbrev":"IA"},
"geometry":{ "type": "Point", "coordinates": [-91.113885,42.54772]}},
{ "type": "Feature", "properties": {"Name":"New Virginia city","State":"Iowa","State_Abbrev":"IA"},
"geometry":{ "type": "Point", "coordinates": [-93.73107,41.181764]}},
{ "type": "Feature", "properties": {"Name":"Nichols city","State":"Iowa","State_Abbrev":"IA"},
"geometry":{ "type": "Point", "coordinates": [-91.30797,41.479667]}},
{ "type": "Feature", "properties": {"Name":"Nodaway city","State":"Iowa","State_Abbrev":"IA"},
"geometry":{ "type": "Point", "coordinates": [-94.897373,40.936099]}},
{ "type": "Feature", "properties": {"Name":"Nora Springs city","State":"Iowa","State_Abbrev":"IA"},
"geometry":{ "type": "Point", "coordinates": [-93.008927,43.144083]}},
{ "type": "Feature", "properties": {"Name":"Northboro city","State":"Iowa","State_Abbrev":"IA"},
"geometry":{ "type": "Point", "coordinates": [-95.29247,40.60733]}},
{ "type": "Feature", "properties": {"Name":"North Buena Vista city","State":"Iowa","State_Abbrev":"IA"},
"geometry":{ "type": "Point", "coordinates": [-90.961256,42.672713]}},
{ "type": "Feature", "properties": {"Name":"North English city","State":"Iowa","State_Abbrev":"IA"},
"geometry":{ "type": "Point", "coordinates": [-92.077664,41.5168]}},
{ "type": "Feature", "properties": {"Name":"North Liberty city","State":"Iowa","State_Abbrev":"IA"},
"geometry":{ "type": "Point", "coordinates": [-91.611643,41.743778]}},
{ "type": "Feature", "properties": {"Name":"North Washington city","State":"Iowa","State_Abbrev":"IA"},
"geometry":{ "type": "Point", "coordinates": [-92.41511,43.117131]}},
{ "type": "Feature", "properties": {"Name":"Northwood city","State":"Iowa","State_Abbrev":"IA"},
"geometry":{ "type": "Point", "coordinates": [-93.215969,43.444091]}},
{ "type": "Feature", "properties": {"Name":"Norwalk city","State":"Iowa","State_Abbrev":"IA"},
"geometry":{ "type": "Point", "coordinates": [-93.702119,41.491679]}},
{ "type": "Feature", "properties": {"Name":"Norway city","State":"Iowa","State_Abbrev":"IA"},
"geometry":{ "type": "Point", "coordinates": [-91.922799,41.902191]}},
{ "type": "Feature", "properties": {"Name":"Numa city","State":"Iowa","State_Abbrev":"IA"},
"geometry":{ "type": "Point", "coordinates": [-92.980144,40.685562]}},
{ "type": "Feature", "properties": {"Name":"Oak Hills CDP","State":"Iowa","State_Abbrev":"IA"},
"geometry":{ "type": "Point", "coordinates": [-91.149712,40.755506]}},
{ "type": "Feature", "properties": {"Name":"Oakland city","State":"Iowa","State_Abbrev":"IA"},
"geometry":{ "type": "Point", "coordinates": [-95.399703,41.31037]}},
{ "type": "Feature", "properties": {"Name":"Oakland Acres city","State":"Iowa","State_Abbrev":"IA"},
"geometry":{ "type": "Point", "coordinates": [-92.81987,41.720862]}},
{ "type": "Feature", "properties": {"Name":"Oakville city","State":"Iowa","State_Abbrev":"IA"},
"geometry":{ "type": "Point", "coordinates": [-91.04379,41.097988]}},
{ "type": "Feature", "properties": {"Name":"Ocheyedan city","State":"Iowa","State_Abbrev":"IA"},
"geometry":{ "type": "Point", "coordinates": [-95.53666,43.418215]}},
{ "type": "Feature", "properties": {"Name":"Odebolt city","State":"Iowa","State_Abbrev":"IA"},
"geometry":{ "type": "Point", "coordinates": [-95.254412,42.311829]}},
{ "type": "Feature", "properties": {"Name":"Oelwein city","State":"Iowa","State_Abbrev":"IA"},
"geometry":{ "type": "Point", "coordinates": [-91.912787,42.671581]}},
{ "type": "Feature", "properties": {"Name":"Ogden city","State":"Iowa","State_Abbrev":"IA"},
"geometry":{ "type": "Point", "coordinates": [-94.028288,42.039479]}},
{ "type": "Feature", "properties": {"Name":"Okoboji city","State":"Iowa","State_Abbrev":"IA"},
"geometry":{ "type": "Point", "coordinates": [-95.133244,43.388082]}},
{ "type": "Feature", "properties": {"Name":"Olds city","State":"Iowa","State_Abbrev":"IA"},
"geometry":{ "type": "Point", "coordinates": [-91.544026,41.134292]}},
{ "type": "Feature", "properties": {"Name":"Olin city","State":"Iowa","State_Abbrev":"IA"},
"geometry":{ "type": "Point", "coordinates": [-91.141242,41.997473]}},
{ "type": "Feature", "properties": {"Name":"Ollie city","State":"Iowa","State_Abbrev":"IA"},
"geometry":{ "type": "Point", "coordinates": [-92.092344,41.199187]}},
{ "type": "Feature", "properties": {"Name":"Onawa city","State":"Iowa","State_Abbrev":"IA"},
"geometry":{ "type": "Point", "coordinates": [-96.090917,42.026476]}},
{ "type": "Feature", "properties": {"Name":"Onslow city","State":"Iowa","State_Abbrev":"IA"},
"geometry":{ "type": "Point", "coordinates": [-91.015062,42.10685]}},
{ "type": "Feature", "properties": {"Name":"Orange City city","State":"Iowa","State_Abbrev":"IA"},
"geometry":{ "type": "Point", "coordinates": [-96.055251,43.001805]}},
{ "type": "Feature", "properties": {"Name":"Orchard city","State":"Iowa","State_Abbrev":"IA"},
"geometry":{ "type": "Point", "coordinates": [-92.775888,43.227529]}},
{ "type": "Feature", "properties": {"Name":"Orient city","State":"Iowa","State_Abbrev":"IA"},
"geometry":{ "type": "Point", "coordinates": [-94.417291,41.203211]}},
{ "type": "Feature", "properties": {"Name":"Orleans city","State":"Iowa","State_Abbrev":"IA"},
"geometry":{ "type": "Point", "coordinates": [-95.085873,43.452724]}},
{ "type": "Feature", "properties": {"Name":"Osage city","State":"Iowa","State_Abbrev":"IA"},
"geometry":{ "type": "Point", "coordinates": [-92.811317,43.282673]}},
{ "type": "Feature", "properties": {"Name":"Osceola city","State":"Iowa","State_Abbrev":"IA"},
"geometry":{ "type": "Point", "coordinates": [-93.785259,41.029726]}},
{ "type": "Feature", "properties": {"Name":"Oskaloosa city","State":"Iowa","State_Abbrev":"IA"},
"geometry":{ "type": "Point", "coordinates": [-92.640854,41.292209]}},
{ "type": "Feature", "properties": {"Name":"Ossian city","State":"Iowa","State_Abbrev":"IA"},
"geometry":{ "type": "Point", "coordinates": [-91.764555,43.146976]}},
{ "type": "Feature", "properties": {"Name":"Osterdock city","State":"Iowa","State_Abbrev":"IA"},
"geometry":{ "type": "Point", "coordinates": [-91.158664,42.731252]}},
{ "type": "Feature", "properties": {"Name":"Otho city","State":"Iowa","State_Abbrev":"IA"},
"geometry":{ "type": "Point", "coordinates": [-94.14938,42.422211]}},
{ "type": "Feature", "properties": {"Name":"Oto city","State":"Iowa","State_Abbrev":"IA"},
"geometry":{ "type": "Point", "coordinates": [-95.894552,42.282168]}},
{ "type": "Feature", "properties": {"Name":"Otranto CDP","State":"Iowa","State_Abbrev":"IA"},
"geometry":{ "type": "Point", "coordinates": [-92.986294,43.460856]}},
{ "type": "Feature", "properties": {"Name":"Ottosen city","State":"Iowa","State_Abbrev":"IA"},
"geometry":{ "type": "Point", "coordinates": [-94.376004,42.897748]}},
{ "type": "Feature", "properties": {"Name":"Ottumwa city","State":"Iowa","State_Abbrev":"IA"},
"geometry":{ "type": "Point", "coordinates": [-92.423263,41.022251]}},
{ "type": "Feature", "properties": {"Name":"Owasa city","State":"Iowa","State_Abbrev":"IA"},
"geometry":{ "type": "Point", "coordinates": [-93.204663,42.431854]}},
{ "type": "Feature", "properties": {"Name":"Oxford city","State":"Iowa","State_Abbrev":"IA"},
"geometry":{ "type": "Point", "coordinates": [-91.791087,41.722773]}},
{ "type": "Feature", "properties": {"Name":"Oxford Junction city","State":"Iowa","State_Abbrev":"IA"},
"geometry":{ "type": "Point", "coordinates": [-90.954342,41.983747]}},
{ "type": "Feature", "properties": {"Name":"Oyens city","State":"Iowa","State_Abbrev":"IA"},
"geometry":{ "type": "Point", "coordinates": [-96.058042,42.819816]}},
{ "type": "Feature", "properties": {"Name":"Pacific Junction city","State":"Iowa","State_Abbrev":"IA"},
"geometry":{ "type": "Point", "coordinates": [-95.799453,41.017975]}},
{ "type": "Feature", "properties": {"Name":"Packwood city","State":"Iowa","State_Abbrev":"IA"},
"geometry":{ "type": "Point", "coordinates": [-92.082517,41.132711]}},
{ "type": "Feature", "properties": {"Name":"Palmer city","State":"Iowa","State_Abbrev":"IA"},
"geometry":{ "type": "Point", "coordinates": [-94.598517,42.630096]}},
{ "type": "Feature", "properties": {"Name":"Palo city","State":"Iowa","State_Abbrev":"IA"},
"geometry":{ "type": "Point", "coordinates": [-91.799285,42.064233]}},
{ "type": "Feature", "properties": {"Name":"Panama city","State":"Iowa","State_Abbrev":"IA"},
"geometry":{ "type": "Point", "coordinates": [-95.47538,41.726211]}},
{ "type": "Feature", "properties": {"Name":"Panora city","State":"Iowa","State_Abbrev":"IA"},
"geometry":{ "type": "Point", "coordinates": [-94.363909,41.691126]}},
{ "type": "Feature", "properties": {"Name":"Panorama Park city","State":"Iowa","State_Abbrev":"IA"},
"geometry":{ "type": "Point", "coordinates": [-90.453769,41.555701]}},
{ "type": "Feature", "properties": {"Name":"Parkersburg city","State":"Iowa","State_Abbrev":"IA"},
"geometry":{ "type": "Point", "coordinates": [-92.778475,42.573844]}},
{ "type": "Feature", "properties": {"Name":"Park View CDP","State":"Iowa","State_Abbrev":"IA"},
"geometry":{ "type": "Point", "coordinates": [-90.538985,41.694347]}},
{ "type": "Feature", "properties": {"Name":"Parnell city","State":"Iowa","State_Abbrev":"IA"},
"geometry":{ "type": "Point", "coordinates": [-92.004425,41.583702]}},
{ "type": "Feature", "properties": {"Name":"Paton city","State":"Iowa","State_Abbrev":"IA"},
"geometry":{ "type": "Point", "coordinates": [-94.25503,42.164386]}},
{ "type": "Feature", "properties": {"Name":"Patterson city","State":"Iowa","State_Abbrev":"IA"},
"geometry":{ "type": "Point", "coordinates": [-93.877594,41.348429]}},
{ "type": "Feature", "properties": {"Name":"Paullina city","State":"Iowa","State_Abbrev":"IA"},
"geometry":{ "type": "Point", "coordinates": [-95.683443,42.97986]}},
{ "type": "Feature", "properties": {"Name":"Pella city","State":"Iowa","State_Abbrev":"IA"},
"geometry":{ "type": "Point", "coordinates": [-92.917412,41.404715]}},
{ "type": "Feature", "properties": {"Name":"Peosta city","State":"Iowa","State_Abbrev":"IA"},
"geometry":{ "type": "Point", "coordinates": [-90.844315,42.447714]}},
{ "type": "Feature", "properties": {"Name":"Percival CDP","State":"Iowa","State_Abbrev":"IA"},
"geometry":{ "type": "Point", "coordinates": [-95.813266,40.751269]}},
{ "type": "Feature", "properties": {"Name":"Perry city","State":"Iowa","State_Abbrev":"IA"},
"geometry":{ "type": "Point", "coordinates": [-94.093488,41.838982]}},
{ "type": "Feature", "properties": {"Name":"Persia city","State":"Iowa","State_Abbrev":"IA"},
"geometry":{ "type": "Point", "coordinates": [-95.570113,41.578556]}},
{ "type": "Feature", "properties": {"Name":"Peterson city","State":"Iowa","State_Abbrev":"IA"},
"geometry":{ "type": "Point", "coordinates": [-95.343117,42.917324]}},
{ "type": "Feature", "properties": {"Name":"Pierson city","State":"Iowa","State_Abbrev":"IA"},
"geometry":{ "type": "Point", "coordinates": [-95.866538,42.543586]}},
{ "type": "Feature", "properties": {"Name":"Pilot Mound city","State":"Iowa","State_Abbrev":"IA"},
"geometry":{ "type": "Point", "coordinates": [-94.018294,42.159243]}},
{ "type": "Feature", "properties": {"Name":"Pisgah city","State":"Iowa","State_Abbrev":"IA"},
"geometry":{ "type": "Point", "coordinates": [-95.926167,41.829855]}},
{ "type": "Feature", "properties": {"Name":"Plainfield city","State":"Iowa","State_Abbrev":"IA"},
"geometry":{ "type": "Point", "coordinates": [-92.535683,42.844537]}},
{ "type": "Feature", "properties": {"Name":"Plainview CDP","State":"Iowa","State_Abbrev":"IA"},
"geometry":{ "type": "Point", "coordinates": [-90.780098,41.667177]}},
{ "type": "Feature", "properties": {"Name":"Plano city","State":"Iowa","State_Abbrev":"IA"},
"geometry":{ "type": "Point", "coordinates": [-93.046942,40.755625]}},
{ "type": "Feature", "properties": {"Name":"Pleasant Hill city","State":"Iowa","State_Abbrev":"IA"},
"geometry":{ "type": "Point", "coordinates": [-93.505047,41.599106]}},
{ "type": "Feature", "properties": {"Name":"Pleasanton city","State":"Iowa","State_Abbrev":"IA"},
"geometry":{ "type": "Point", "coordinates": [-93.742929,40.582444]}},
{ "type": "Feature", "properties": {"Name":"Pleasant Plain city","State":"Iowa","State_Abbrev":"IA"},
"geometry":{ "type": "Point", "coordinates": [-91.85962,41.147178]}},
{ "type": "Feature", "properties": {"Name":"Pleasantville city","State":"Iowa","State_Abbrev":"IA"},
"geometry":{ "type": "Point", "coordinates": [-93.272787,41.387011]}},
{ "type": "Feature", "properties": {"Name":"Plover city","State":"Iowa","State_Abbrev":"IA"},
"geometry":{ "type": "Point", "coordinates": [-94.622318,42.876645]}},
{ "type": "Feature", "properties": {"Name":"Plymouth city","State":"Iowa","State_Abbrev":"IA"},
"geometry":{ "type": "Point", "coordinates": [-93.123281,43.246394]}},
{ "type": "Feature", "properties": {"Name":"Pocahontas city","State":"Iowa","State_Abbrev":"IA"},
"geometry":{ "type": "Point", "coordinates": [-94.666046,42.737021]}},
{ "type": "Feature", "properties": {"Name":"Polk City city","State":"Iowa","State_Abbrev":"IA"},
"geometry":{ "type": "Point", "coordinates": [-93.722607,41.781842]}},
{ "type": "Feature", "properties": {"Name":"Pomeroy city","State":"Iowa","State_Abbrev":"IA"},
"geometry":{ "type": "Point", "coordinates": [-94.677879,42.551945]}},
{ "type": "Feature", "properties": {"Name":"Popejoy city","State":"Iowa","State_Abbrev":"IA"},
"geometry":{ "type": "Point", "coordinates": [-93.42782,42.593766]}},
{ "type": "Feature", "properties": {"Name":"Portland CDP","State":"Iowa","State_Abbrev":"IA"},
"geometry":{ "type": "Point", "coordinates": [-93.13748,43.122622]}},
{ "type": "Feature", "properties": {"Name":"Portsmouth city","State":"Iowa","State_Abbrev":"IA"},
"geometry":{ "type": "Point", "coordinates": [-95.519491,41.650302]}},
{ "type": "Feature", "properties": {"Name":"Postville city","State":"Iowa","State_Abbrev":"IA"},
"geometry":{ "type": "Point", "coordinates": [-91.56769,43.084157]}},
{ "type": "Feature", "properties": {"Name":"Prairieburg city","State":"Iowa","State_Abbrev":"IA"},
"geometry":{ "type": "Point", "coordinates": [-91.425728,42.237527]}},
{ "type": "Feature", "properties": {"Name":"Prairie City city","State":"Iowa","State_Abbrev":"IA"},
"geometry":{ "type": "Point", "coordinates": [-93.239276,41.595423]}},
{ "type": "Feature", "properties": {"Name":"Prescott city","State":"Iowa","State_Abbrev":"IA"},
"geometry":{ "type": "Point", "coordinates": [-94.612816,41.023587]}},
{ "type": "Feature", "properties": {"Name":"Preston city","State":"Iowa","State_Abbrev":"IA"},
"geometry":{ "type": "Point", "coordinates": [-90.396957,42.049179]}},
{ "type": "Feature", "properties": {"Name":"Primghar city","State":"Iowa","State_Abbrev":"IA"},
"geometry":{ "type": "Point", "coordinates": [-95.620745,43.086392]}},
{ "type": "Feature", "properties": {"Name":"Princeton city","State":"Iowa","State_Abbrev":"IA"},
"geometry":{ "type": "Point", "coordinates": [-90.357597,41.669459]}},
{ "type": "Feature", "properties": {"Name":"Promise City city","State":"Iowa","State_Abbrev":"IA"},
"geometry":{ "type": "Point", "coordinates": [-93.148345,40.747648]}},
{ "type": "Feature", "properties": {"Name":"Protivin city","State":"Iowa","State_Abbrev":"IA"},
"geometry":{ "type": "Point", "coordinates": [-92.088938,43.216707]}},
{ "type": "Feature", "properties": {"Name":"Pulaski city","State":"Iowa","State_Abbrev":"IA"},
"geometry":{ "type": "Point", "coordinates": [-92.274173,40.694358]}},
{ "type": "Feature", "properties": {"Name":"Quasqueton city","State":"Iowa","State_Abbrev":"IA"},
"geometry":{ "type": "Point", "coordinates": [-91.757679,42.394773]}},
{ "type": "Feature", "properties": {"Name":"Quimby city","State":"Iowa","State_Abbrev":"IA"},
"geometry":{ "type": "Point", "coordinates": [-95.644144,42.629075]}},
{ "type": "Feature", "properties": {"Name":"Radcliffe city","State":"Iowa","State_Abbrev":"IA"},
"geometry":{ "type": "Point", "coordinates": [-93.434311,42.31771]}},
{ "type": "Feature", "properties": {"Name":"Rake city","State":"Iowa","State_Abbrev":"IA"},
"geometry":{ "type": "Point", "coordinates": [-93.919654,43.480579]}},
{ "type": "Feature", "properties": {"Name":"Ralston city","State":"Iowa","State_Abbrev":"IA"},
"geometry":{ "type": "Point", "coordinates": [-94.629287,42.041855]}},
{ "type": "Feature", "properties": {"Name":"Randalia city","State":"Iowa","State_Abbrev":"IA"},
"geometry":{ "type": "Point", "coordinates": [-91.886736,42.86339]}},
{ "type": "Feature", "properties": {"Name":"Randall city","State":"Iowa","State_Abbrev":"IA"},
"geometry":{ "type": "Point", "coordinates": [-93.602579,42.237033]}},
{ "type": "Feature", "properties": {"Name":"Randolph city","State":"Iowa","State_Abbrev":"IA"},
"geometry":{ "type": "Point", "coordinates": [-95.564727,40.873135]}},
{ "type": "Feature", "properties": {"Name":"Rathbun city","State":"Iowa","State_Abbrev":"IA"},
"geometry":{ "type": "Point", "coordinates": [-92.887863,40.801838]}},
{ "type": "Feature", "properties": {"Name":"Raymond city","State":"Iowa","State_Abbrev":"IA"},
"geometry":{ "type": "Point", "coordinates": [-92.229653,42.469381]}},
{ "type": "Feature", "properties": {"Name":"Readlyn city","State":"Iowa","State_Abbrev":"IA"},
"geometry":{ "type": "Point", "coordinates": [-92.22503,42.703703]}},
{ "type": "Feature", "properties": {"Name":"Reasnor city","State":"Iowa","State_Abbrev":"IA"},
"geometry":{ "type": "Point", "coordinates": [-93.022898,41.578855]}},
{ "type": "Feature", "properties": {"Name":"Redding city","State":"Iowa","State_Abbrev":"IA"},
"geometry":{ "type": "Point", "coordinates": [-94.381948,40.605433]}},
{ "type": "Feature", "properties": {"Name":"Redfield city","State":"Iowa","State_Abbrev":"IA"},
"geometry":{ "type": "Point", "coordinates": [-94.196252,41.590489]}},
{ "type": "Feature", "properties": {"Name":"Red Oak city","State":"Iowa","State_Abbrev":"IA"},
"geometry":{ "type": "Point", "coordinates": [-95.224371,41.01413]}},
{ "type": "Feature", "properties": {"Name":"Reinbeck city","State":"Iowa","State_Abbrev":"IA"},
"geometry":{ "type": "Point", "coordinates": [-92.594261,42.322506]}},
{ "type": "Feature", "properties": {"Name":"Rembrandt city","State":"Iowa","State_Abbrev":"IA"},
"geometry":{ "type": "Point", "coordinates": [-95.16561,42.825719]}},
{ "type": "Feature", "properties": {"Name":"Remsen city","State":"Iowa","State_Abbrev":"IA"},
"geometry":{ "type": "Point", "coordinates": [-95.972633,42.815833]}},
{ "type": "Feature", "properties": {"Name":"Renwick city","State":"Iowa","State_Abbrev":"IA"},
"geometry":{ "type": "Point", "coordinates": [-93.981343,42.826926]}},
{ "type": "Feature", "properties": {"Name":"Rhodes city","State":"Iowa","State_Abbrev":"IA"},
"geometry":{ "type": "Point", "coordinates": [-93.183723,41.927815]}},
{ "type": "Feature", "properties": {"Name":"Riceville city","State":"Iowa","State_Abbrev":"IA"},
"geometry":{ "type": "Point", "coordinates": [-92.553318,43.361563]}},
{ "type": "Feature", "properties": {"Name":"Richland city","State":"Iowa","State_Abbrev":"IA"},
"geometry":{ "type": "Point", "coordinates": [-91.993573,41.185542]}},
{ "type": "Feature", "properties": {"Name":"Rickardsville city","State":"Iowa","State_Abbrev":"IA"},
"geometry":{ "type": "Point", "coordinates": [-90.876279,42.581552]}},
{ "type": "Feature", "properties": {"Name":"Ricketts city","State":"Iowa","State_Abbrev":"IA"},
"geometry":{ "type": "Point", "coordinates": [-95.574864,42.127962]}},
{ "type": "Feature", "properties": {"Name":"Ridgeway city","State":"Iowa","State_Abbrev":"IA"},
"geometry":{ "type": "Point", "coordinates": [-91.992422,43.297113]}},
{ "type": "Feature", "properties": {"Name":"Rinard city","State":"Iowa","State_Abbrev":"IA"},
"geometry":{ "type": "Point", "coordinates": [-94.484914,42.33964]}},
{ "type": "Feature", "properties": {"Name":"Ringsted city","State":"Iowa","State_Abbrev":"IA"},
"geometry":{ "type": "Point", "coordinates": [-94.507408,43.295074]}},
{ "type": "Feature", "properties": {"Name":"Rippey city","State":"Iowa","State_Abbrev":"IA"},
"geometry":{ "type": "Point", "coordinates": [-94.200723,41.933895]}},
{ "type": "Feature", "properties": {"Name":"Riverdale city","State":"Iowa","State_Abbrev":"IA"},
"geometry":{ "type": "Point", "coordinates": [-90.463583,41.537276]}},
{ "type": "Feature", "properties": {"Name":"Riverside city","State":"Iowa","State_Abbrev":"IA"},
"geometry":{ "type": "Point", "coordinates": [-91.572195,41.483235]}},
{ "type": "Feature", "properties": {"Name":"River Sioux CDP","State":"Iowa","State_Abbrev":"IA"},
"geometry":{ "type": "Point", "coordinates": [-96.047988,41.802439]}},
{ "type": "Feature", "properties": {"Name":"Riverton city","State":"Iowa","State_Abbrev":"IA"},
"geometry":{ "type": "Point", "coordinates": [-95.568613,40.686871]}},
{ "type": "Feature", "properties": {"Name":"Robins city","State":"Iowa","State_Abbrev":"IA"},
"geometry":{ "type": "Point", "coordinates": [-91.673973,42.078745]}},
{ "type": "Feature", "properties": {"Name":"Rochester CDP","State":"Iowa","State_Abbrev":"IA"},
"geometry":{ "type": "Point", "coordinates": [-91.144308,41.674149]}},
{ "type": "Feature", "properties": {"Name":"Rock Falls city","State":"Iowa","State_Abbrev":"IA"},
"geometry":{ "type": "Point", "coordinates": [-93.086793,43.207148]}},
{ "type": "Feature", "properties": {"Name":"Rockford city","State":"Iowa","State_Abbrev":"IA"},
"geometry":{ "type": "Point", "coordinates": [-92.94769,43.052435]}},
{ "type": "Feature", "properties": {"Name":"Rock Rapids city","State":"Iowa","State_Abbrev":"IA"},
"geometry":{ "type": "Point", "coordinates": [-96.166393,43.426699]}},
{ "type": "Feature", "properties": {"Name":"Rock Valley city","State":"Iowa","State_Abbrev":"IA"},
"geometry":{ "type": "Point", "coordinates": [-96.289038,43.202585]}},
{ "type": "Feature", "properties": {"Name":"Rockwell city","State":"Iowa","State_Abbrev":"IA"},
"geometry":{ "type": "Point", "coordinates": [-93.18718,42.979972]}},
{ "type": "Feature", "properties": {"Name":"Rockwell City city","State":"Iowa","State_Abbrev":"IA"},
"geometry":{ "type": "Point", "coordinates": [-94.62887,42.398125]}},
{ "type": "Feature", "properties": {"Name":"Rodman city","State":"Iowa","State_Abbrev":"IA"},
"geometry":{ "type": "Point", "coordinates": [-94.527369,43.026584]}},
{ "type": "Feature", "properties": {"Name":"Rodney city","State":"Iowa","State_Abbrev":"IA"},
"geometry":{ "type": "Point", "coordinates": [-95.95073,42.204484]}},
{ "type": "Feature", "properties": {"Name":"Roland city","State":"Iowa","State_Abbrev":"IA"},
"geometry":{ "type": "Point", "coordinates": [-93.502979,42.166019]}},
{ "type": "Feature", "properties": {"Name":"Rolfe city","State":"Iowa","State_Abbrev":"IA"},
"geometry":{ "type": "Point", "coordinates": [-94.531855,42.813197]}},
{ "type": "Feature", "properties": {"Name":"Rome city","State":"Iowa","State_Abbrev":"IA"},
"geometry":{ "type": "Point", "coordinates": [-91.681203,40.982177]}},
{ "type": "Feature", "properties": {"Name":"Rose Hill city","State":"Iowa","State_Abbrev":"IA"},
"geometry":{ "type": "Point", "coordinates": [-92.463589,41.320399]}},
{ "type": "Feature", "properties": {"Name":"Roseville CDP","State":"Iowa","State_Abbrev":"IA"},
"geometry":{ "type": "Point", "coordinates": [-92.808174,43.02535]}},
{ "type": "Feature", "properties": {"Name":"Rossie city","State":"Iowa","State_Abbrev":"IA"},
"geometry":{ "type": "Point", "coordinates": [-95.188612,43.013661]}},
{ "type": "Feature", "properties": {"Name":"Rowan city","State":"Iowa","State_Abbrev":"IA"},
"geometry":{ "type": "Point", "coordinates": [-93.550288,42.739935]}},
{ "type": "Feature", "properties": {"Name":"Rowley city","State":"Iowa","State_Abbrev":"IA"},
"geometry":{ "type": "Point", "coordinates": [-91.844282,42.368544]}},
{ "type": "Feature", "properties": {"Name":"Royal city","State":"Iowa","State_Abbrev":"IA"},
"geometry":{ "type": "Point", "coordinates": [-95.283721,43.064441]}},
{ "type": "Feature", "properties": {"Name":"Rudd city","State":"Iowa","State_Abbrev":"IA"},
"geometry":{ "type": "Point", "coordinates": [-92.904722,43.126262]}},
{ "type": "Feature", "properties": {"Name":"Runnells city","State":"Iowa","State_Abbrev":"IA"},
"geometry":{ "type": "Point", "coordinates": [-93.360098,41.513968]}},
{ "type": "Feature", "properties": {"Name":"Russell city","State":"Iowa","State_Abbrev":"IA"},
"geometry":{ "type": "Point", "coordinates": [-93.201121,40.980404]}},
{ "type": "Feature", "properties": {"Name":"Ruthven city","State":"Iowa","State_Abbrev":"IA"},
"geometry":{ "type": "Point", "coordinates": [-94.898691,43.130054]}},
{ "type": "Feature", "properties": {"Name":"Rutland city","State":"Iowa","State_Abbrev":"IA"},
"geometry":{ "type": "Point", "coordinates": [-94.29517,42.761402]}},
{ "type": "Feature", "properties": {"Name":"Ryan city","State":"Iowa","State_Abbrev":"IA"},
"geometry":{ "type": "Point", "coordinates": [-91.484945,42.352336]}},
{ "type": "Feature", "properties": {"Name":"Sabula city","State":"Iowa","State_Abbrev":"IA"},
"geometry":{ "type": "Point", "coordinates": [-90.182499,42.070188]}},
{ "type": "Feature", "properties": {"Name":"Sac City city","State":"Iowa","State_Abbrev":"IA"},
"geometry":{ "type": "Point", "coordinates": [-94.997437,42.422042]}},
{ "type": "Feature", "properties": {"Name":"Sageville city","State":"Iowa","State_Abbrev":"IA"},
"geometry":{ "type": "Point", "coordinates": [-90.706428,42.54952]}},
{ "type": "Feature", "properties": {"Name":"St. Ansgar city","State":"Iowa","State_Abbrev":"IA"},
"geometry":{ "type": "Point", "coordinates": [-92.917798,43.379892]}},
{ "type": "Feature", "properties": {"Name":"St. Anthony city","State":"Iowa","State_Abbrev":"IA"},
"geometry":{ "type": "Point", "coordinates": [-93.197512,42.123547]}},
{ "type": "Feature", "properties": {"Name":"St. Benedict CDP","State":"Iowa","State_Abbrev":"IA"},
"geometry":{ "type": "Point", "coordinates": [-94.06095,43.044008]}},
{ "type": "Feature", "properties": {"Name":"St. Charles city","State":"Iowa","State_Abbrev":"IA"},
"geometry":{ "type": "Point", "coordinates": [-93.807451,41.287152]}},
{ "type": "Feature", "properties": {"Name":"St. Donatus city","State":"Iowa","State_Abbrev":"IA"},
"geometry":{ "type": "Point", "coordinates": [-90.542206,42.362442]}},
{ "type": "Feature", "properties": {"Name":"St. Joseph CDP","State":"Iowa","State_Abbrev":"IA"},
"geometry":{ "type": "Point", "coordinates": [-94.230914,42.91229]}},
{ "type": "Feature", "properties": {"Name":"St. Lucas city","State":"Iowa","State_Abbrev":"IA"},
"geometry":{ "type": "Point", "coordinates": [-91.934063,43.066468]}},
{ "type": "Feature", "properties": {"Name":"St. Marys city","State":"Iowa","State_Abbrev":"IA"},
"geometry":{ "type": "Point", "coordinates": [-93.733845,41.307698]}},
{ "type": "Feature", "properties": {"Name":"St. Olaf city","State":"Iowa","State_Abbrev":"IA"},
"geometry":{ "type": "Point", "coordinates": [-91.387696,42.926811]}},
{ "type": "Feature", "properties": {"Name":"St. Paul city","State":"Iowa","State_Abbrev":"IA"},
"geometry":{ "type": "Point", "coordinates": [-91.516424,40.767847]}},
{ "type": "Feature", "properties": {"Name":"Salem city","State":"Iowa","State_Abbrev":"IA"},
"geometry":{ "type": "Point", "coordinates": [-91.62066,40.85217]}},
{ "type": "Feature", "properties": {"Name":"Salix city","State":"Iowa","State_Abbrev":"IA"},
"geometry":{ "type": "Point", "coordinates": [-96.292189,42.311921]}},
{ "type": "Feature", "properties": {"Name":"Sanborn city","State":"Iowa","State_Abbrev":"IA"},
"geometry":{ "type": "Point", "coordinates": [-95.655335,43.181432]}},
{ "type": "Feature", "properties": {"Name":"Sandusky CDP","State":"Iowa","State_Abbrev":"IA"},
"geometry":{ "type": "Point", "coordinates": [-91.389046,40.448001]}},
{ "type": "Feature", "properties": {"Name":"Sandyville city","State":"Iowa","State_Abbrev":"IA"},
"geometry":{ "type": "Point", "coordinates": [-93.386159,41.370935]}},
{ "type": "Feature", "properties": {"Name":"Saylorville CDP","State":"Iowa","State_Abbrev":"IA"},
"geometry":{ "type": "Point", "coordinates": [-93.627005,41.680754]}},
{ "type": "Feature", "properties": {"Name":"Scarville city","State":"Iowa","State_Abbrev":"IA"},
"geometry":{ "type": "Point", "coordinates": [-93.615245,43.470672]}},
{ "type": "Feature", "properties": {"Name":"Schaller city","State":"Iowa","State_Abbrev":"IA"},
"geometry":{ "type": "Point", "coordinates": [-95.296271,42.496531]}},
{ "type": "Feature", "properties": {"Name":"Schleswig city","State":"Iowa","State_Abbrev":"IA"},
"geometry":{ "type": "Point", "coordinates": [-95.434646,42.161028]}},
{ "type": "Feature", "properties": {"Name":"Scranton city","State":"Iowa","State_Abbrev":"IA"},
"geometry":{ "type": "Point", "coordinates": [-94.549182,42.019165]}},
{ "type": "Feature", "properties": {"Name":"Searsboro city","State":"Iowa","State_Abbrev":"IA"},
"geometry":{ "type": "Point", "coordinates": [-92.704124,41.579124]}},
{ "type": "Feature", "properties": {"Name":"Sergeant Bluff city","State":"Iowa","State_Abbrev":"IA"},
"geometry":{ "type": "Point", "coordinates": [-96.350934,42.397549]}},
{ "type": "Feature", "properties": {"Name":"Sexton CDP","State":"Iowa","State_Abbrev":"IA"},
"geometry":{ "type": "Point", "coordinates": [-94.089152,43.074905]}},
{ "type": "Feature", "properties": {"Name":"Seymour city","State":"Iowa","State_Abbrev":"IA"},
"geometry":{ "type": "Point", "coordinates": [-93.121099,40.682141]}},
{ "type": "Feature", "properties": {"Name":"Shambaugh city","State":"Iowa","State_Abbrev":"IA"},
"geometry":{ "type": "Point", "coordinates": [-95.035259,40.657459]}},
{ "type": "Feature", "properties": {"Name":"Shannon City city","State":"Iowa","State_Abbrev":"IA"},
"geometry":{ "type": "Point", "coordinates": [-94.263651,40.898751]}},
{ "type": "Feature", "properties": {"Name":"Sharpsburg city","State":"Iowa","State_Abbrev":"IA"},
"geometry":{ "type": "Point", "coordinates": [-94.638149,40.804491]}},
{ "type": "Feature", "properties": {"Name":"Sheffield city","State":"Iowa","State_Abbrev":"IA"},
"geometry":{ "type": "Point", "coordinates": [-93.207143,42.888763]}},
{ "type": "Feature", "properties": {"Name":"Shelby city","State":"Iowa","State_Abbrev":"IA"},
"geometry":{ "type": "Point", "coordinates": [-95.44937,41.505581]}},
{ "type": "Feature", "properties": {"Name":"Sheldahl city","State":"Iowa","State_Abbrev":"IA"},
"geometry":{ "type": "Point", "coordinates": [-93.696739,41.864564]}},
{ "type": "Feature", "properties": {"Name":"Sheldon city","State":"Iowa","State_Abbrev":"IA"},
"geometry":{ "type": "Point", "coordinates": [-95.843668,43.179739]}},
{ "type": "Feature", "properties": {"Name":"Shell Rock city","State":"Iowa","State_Abbrev":"IA"},
"geometry":{ "type": "Point", "coordinates": [-92.581658,42.712345]}},
{ "type": "Feature", "properties": {"Name":"Shellsburg city","State":"Iowa","State_Abbrev":"IA"},
"geometry":{ "type": "Point", "coordinates": [-91.871261,42.092876]}},
{ "type": "Feature", "properties": {"Name":"Shenandoah city","State":"Iowa","State_Abbrev":"IA"},
"geometry":{ "type": "Point", "coordinates": [-95.372027,40.758193]}},
{ "type": "Feature", "properties": {"Name":"Sherrill city","State":"Iowa","State_Abbrev":"IA"},
"geometry":{ "type": "Point", "coordinates": [-90.784178,42.604588]}},
{ "type": "Feature", "properties": {"Name":"Shueyville city","State":"Iowa","State_Abbrev":"IA"},
"geometry":{ "type": "Point", "coordinates": [-91.651221,41.846257]}},
{ "type": "Feature", "properties": {"Name":"Sibley city","State":"Iowa","State_Abbrev":"IA"},
"geometry":{ "type": "Point", "coordinates": [-95.743031,43.401476]}},
{ "type": "Feature", "properties": {"Name":"Sidney city","State":"Iowa","State_Abbrev":"IA"},
"geometry":{ "type": "Point", "coordinates": [-95.644728,40.745895]}},
{ "type": "Feature", "properties": {"Name":"Sigourney city","State":"Iowa","State_Abbrev":"IA"},
"geometry":{ "type": "Point", "coordinates": [-92.204448,41.333974]}},
{ "type": "Feature", "properties": {"Name":"Silver City city","State":"Iowa","State_Abbrev":"IA"},
"geometry":{ "type": "Point", "coordinates": [-95.637852,41.111474]}},
{ "type": "Feature", "properties": {"Name":"Sioux Center city","State":"Iowa","State_Abbrev":"IA"},
"geometry":{ "type": "Point", "coordinates": [-96.170407,43.07479]}},
{ "type": "Feature", "properties": {"Name":"Sioux City city","State":"Iowa","State_Abbrev":"IA"},
"geometry":{ "type": "Point", "coordinates": [-96.390525,42.495668]}},
{ "type": "Feature", "properties": {"Name":"Sioux Rapids city","State":"Iowa","State_Abbrev":"IA"},
"geometry":{ "type": "Point", "coordinates": [-95.148538,42.891672]}},
{ "type": "Feature", "properties": {"Name":"Slater city","State":"Iowa","State_Abbrev":"IA"},
"geometry":{ "type": "Point", "coordinates": [-93.691179,41.880736]}},
{ "type": "Feature", "properties": {"Name":"Sloan city","State":"Iowa","State_Abbrev":"IA"},
"geometry":{ "type": "Point", "coordinates": [-96.22483,42.233062]}},
{ "type": "Feature", "properties": {"Name":"Smithland city","State":"Iowa","State_Abbrev":"IA"},
"geometry":{ "type": "Point", "coordinates": [-95.931578,42.228903]}},
{ "type": "Feature", "properties": {"Name":"Soldier city","State":"Iowa","State_Abbrev":"IA"},
"geometry":{ "type": "Point", "coordinates": [-95.780438,41.984306]}},
{ "type": "Feature", "properties": {"Name":"Solon city","State":"Iowa","State_Abbrev":"IA"},
"geometry":{ "type": "Point", "coordinates": [-91.499141,41.806876]}},
{ "type": "Feature", "properties": {"Name":"Somers city","State":"Iowa","State_Abbrev":"IA"},
"geometry":{ "type": "Point", "coordinates": [-94.430991,42.37875]}},
{ "type": "Feature", "properties": {"Name":"South Amana CDP","State":"Iowa","State_Abbrev":"IA"},
"geometry":{ "type": "Point", "coordinates": [-91.959912,41.770357]}},
{ "type": "Feature", "properties": {"Name":"South English city","State":"Iowa","State_Abbrev":"IA"},
"geometry":{ "type": "Point", "coordinates": [-92.090333,41.452153]}},
{ "type": "Feature", "properties": {"Name":"Spencer city","State":"Iowa","State_Abbrev":"IA"},
"geometry":{ "type": "Point", "coordinates": [-95.152691,43.147025]}},
{ "type": "Feature", "properties": {"Name":"Sperry CDP","State":"Iowa","State_Abbrev":"IA"},
"geometry":{ "type": "Point", "coordinates": [-91.164118,40.961955]}},
{ "type": "Feature", "properties": {"Name":"Spillville city","State":"Iowa","State_Abbrev":"IA"},
"geometry":{ "type": "Point", "coordinates": [-91.952212,43.202841]}},
{ "type": "Feature", "properties": {"Name":"Spirit Lake city","State":"Iowa","State_Abbrev":"IA"},
"geometry":{ "type": "Point", "coordinates": [-95.113071,43.416659]}},
{ "type": "Feature", "properties": {"Name":"Spragueville city","State":"Iowa","State_Abbrev":"IA"},
"geometry":{ "type": "Point", "coordinates": [-90.432745,42.071527]}},
{ "type": "Feature", "properties": {"Name":"Springbrook city","State":"Iowa","State_Abbrev":"IA"},
"geometry":{ "type": "Point", "coordinates": [-90.479136,42.165732]}},
{ "type": "Feature", "properties": {"Name":"Spring Hill city","State":"Iowa","State_Abbrev":"IA"},
"geometry":{ "type": "Point", "coordinates": [-93.650052,41.412179]}},
{ "type": "Feature", "properties": {"Name":"Springville city","State":"Iowa","State_Abbrev":"IA"},
"geometry":{ "type": "Point", "coordinates": [-91.461155,42.040542]}},
{ "type": "Feature", "properties": {"Name":"Stacyville city","State":"Iowa","State_Abbrev":"IA"},
"geometry":{ "type": "Point", "coordinates": [-92.783935,43.43921]}},
{ "type": "Feature", "properties": {"Name":"Stanhope city","State":"Iowa","State_Abbrev":"IA"},
"geometry":{ "type": "Point", "coordinates": [-93.795986,42.288933]}},
{ "type": "Feature", "properties": {"Name":"Stanley city","State":"Iowa","State_Abbrev":"IA"},
"geometry":{ "type": "Point", "coordinates": [-91.811891,42.641963]}},
{ "type": "Feature", "properties": {"Name":"Stanton city","State":"Iowa","State_Abbrev":"IA"},
"geometry":{ "type": "Point", "coordinates": [-95.10277,40.981229]}},
{ "type": "Feature", "properties": {"Name":"Stanwood city","State":"Iowa","State_Abbrev":"IA"},
"geometry":{ "type": "Point", "coordinates": [-91.148758,41.892697]}},
{ "type": "Feature", "properties": {"Name":"State Center city","State":"Iowa","State_Abbrev":"IA"},
"geometry":{ "type": "Point", "coordinates": [-93.165304,42.014821]}},
{ "type": "Feature", "properties": {"Name":"Steamboat Rock city","State":"Iowa","State_Abbrev":"IA"},
"geometry":{ "type": "Point", "coordinates": [-93.066168,42.408061]}},
{ "type": "Feature", "properties": {"Name":"Stockport city","State":"Iowa","State_Abbrev":"IA"},
"geometry":{ "type": "Point", "coordinates": [-91.833349,40.857266]}},
{ "type": "Feature", "properties": {"Name":"Stockton city","State":"Iowa","State_Abbrev":"IA"},
"geometry":{ "type": "Point", "coordinates": [-90.856428,41.590828]}},
{ "type": "Feature", "properties": {"Name":"Stone City CDP","State":"Iowa","State_Abbrev":"IA"},
"geometry":{ "type": "Point", "coordinates": [-91.350196,42.105427]}},
{ "type": "Feature", "properties": {"Name":"Storm Lake city","State":"Iowa","State_Abbrev":"IA"},
"geometry":{ "type": "Point", "coordinates": [-95.196463,42.642951]}},
{ "type": "Feature", "properties": {"Name":"Story City city","State":"Iowa","State_Abbrev":"IA"},
"geometry":{ "type": "Point", "coordinates": [-93.586885,42.185743]}},
{ "type": "Feature", "properties": {"Name":"Stout city","State":"Iowa","State_Abbrev":"IA"},
"geometry":{ "type": "Point", "coordinates": [-92.711533,42.526962]}},
{ "type": "Feature", "properties": {"Name":"Stratford city","State":"Iowa","State_Abbrev":"IA"},
"geometry":{ "type": "Point", "coordinates": [-93.927416,42.269593]}},
{ "type": "Feature", "properties": {"Name":"Strawberry Point city","State":"Iowa","State_Abbrev":"IA"},
"geometry":{ "type": "Point", "coordinates": [-91.53478,42.680489]}},
{ "type": "Feature", "properties": {"Name":"Struble city","State":"Iowa","State_Abbrev":"IA"},
"geometry":{ "type": "Point", "coordinates": [-96.194453,42.894418]}},
{ "type": "Feature", "properties": {"Name":"Stuart city","State":"Iowa","State_Abbrev":"IA"},
"geometry":{ "type": "Point", "coordinates": [-94.318243,41.500385]}},
{ "type": "Feature", "properties": {"Name":"Sully city","State":"Iowa","State_Abbrev":"IA"},
"geometry":{ "type": "Point", "coordinates": [-92.846792,41.577998]}},
{ "type": "Feature", "properties": {"Name":"Sumner city","State":"Iowa","State_Abbrev":"IA"},
"geometry":{ "type": "Point", "coordinates": [-92.097154,42.849372]}},
{ "type": "Feature", "properties": {"Name":"Sun Valley Lake CDP","State":"Iowa","State_Abbrev":"IA"},
"geometry":{ "type": "Point", "coordinates": [-94.067487,40.849185]}},
{ "type": "Feature", "properties": {"Name":"Superior city","State":"Iowa","State_Abbrev":"IA"},
"geometry":{ "type": "Point", "coordinates": [-94.946634,43.433646]}},
{ "type": "Feature", "properties": {"Name":"Sutherland city","State":"Iowa","State_Abbrev":"IA"},
"geometry":{ "type": "Point", "coordinates": [-95.495245,42.972941]}},
{ "type": "Feature", "properties": {"Name":"Swaledale city","State":"Iowa","State_Abbrev":"IA"},
"geometry":{ "type": "Point", "coordinates": [-93.3155,42.976453]}},
{ "type": "Feature", "properties": {"Name":"Swan city","State":"Iowa","State_Abbrev":"IA"},
"geometry":{ "type": "Point", "coordinates": [-93.309547,41.467598]}},
{ "type": "Feature", "properties": {"Name":"Swea City city","State":"Iowa","State_Abbrev":"IA"},
"geometry":{ "type": "Point", "coordinates": [-94.310265,43.38349]}},
{ "type": "Feature", "properties": {"Name":"Swedesburg CDP","State":"Iowa","State_Abbrev":"IA"},
"geometry":{ "type": "Point", "coordinates": [-91.553228,41.106002]}},
{ "type": "Feature", "properties": {"Name":"Swisher city","State":"Iowa","State_Abbrev":"IA"},
"geometry":{ "type": "Point", "coordinates": [-91.693815,41.844124]}},
{ "type": "Feature", "properties": {"Name":"Tabor city","State":"Iowa","State_Abbrev":"IA"},
"geometry":{ "type": "Point", "coordinates": [-95.673625,40.89493]}},
{ "type": "Feature", "properties": {"Name":"Tama city","State":"Iowa","State_Abbrev":"IA"},
"geometry":{ "type": "Point", "coordinates": [-92.573799,41.965123]}},
{ "type": "Feature", "properties": {"Name":"Templeton city","State":"Iowa","State_Abbrev":"IA"},
"geometry":{ "type": "Point", "coordinates": [-94.941311,41.918018]}},
{ "type": "Feature", "properties": {"Name":"Tennant city","State":"Iowa","State_Abbrev":"IA"},
"geometry":{ "type": "Point", "coordinates": [-95.444974,41.594134]}},
{ "type": "Feature", "properties": {"Name":"Terril city","State":"Iowa","State_Abbrev":"IA"},
"geometry":{ "type": "Point", "coordinates": [-94.96892,43.305794]}},
{ "type": "Feature", "properties": {"Name":"Thayer city","State":"Iowa","State_Abbrev":"IA"},
"geometry":{ "type": "Point", "coordinates": [-94.049938,41.028705]}},
{ "type": "Feature", "properties": {"Name":"Thompson city","State":"Iowa","State_Abbrev":"IA"},
"geometry":{ "type": "Point", "coordinates": [-93.774701,43.369903]}},
{ "type": "Feature", "properties": {"Name":"Thor city","State":"Iowa","State_Abbrev":"IA"},
"geometry":{ "type": "Point", "coordinates": [-94.049601,42.6881]}},
{ "type": "Feature", "properties": {"Name":"Thornburg city","State":"Iowa","State_Abbrev":"IA"},
"geometry":{ "type": "Point", "coordinates": [-92.332273,41.455752]}},
{ "type": "Feature", "properties": {"Name":"Thornton city","State":"Iowa","State_Abbrev":"IA"},
"geometry":{ "type": "Point", "coordinates": [-93.38702,42.944221]}},
{ "type": "Feature", "properties": {"Name":"Thurman city","State":"Iowa","State_Abbrev":"IA"},
"geometry":{ "type": "Point", "coordinates": [-95.748813,40.820118]}},
{ "type": "Feature", "properties": {"Name":"Tiffin city","State":"Iowa","State_Abbrev":"IA"},
"geometry":{ "type": "Point", "coordinates": [-91.654397,41.705034]}},
{ "type": "Feature", "properties": {"Name":"Tingley city","State":"Iowa","State_Abbrev":"IA"},
"geometry":{ "type": "Point", "coordinates": [-94.195749,40.852837]}},
{ "type": "Feature", "properties": {"Name":"Tipton city","State":"Iowa","State_Abbrev":"IA"},
"geometry":{ "type": "Point", "coordinates": [-91.128281,41.770121]}},
{ "type": "Feature", "properties": {"Name":"Titonka city","State":"Iowa","State_Abbrev":"IA"},
"geometry":{ "type": "Point", "coordinates": [-94.041431,43.237175]}},
{ "type": "Feature", "properties": {"Name":"Toeterville CDP","State":"Iowa","State_Abbrev":"IA"},
"geometry":{ "type": "Point", "coordinates": [-92.887929,43.440057]}},
{ "type": "Feature", "properties": {"Name":"Toledo city","State":"Iowa","State_Abbrev":"IA"},
"geometry":{ "type": "Point", "coordinates": [-92.580342,41.990174]}},
{ "type": "Feature", "properties": {"Name":"Toronto city","State":"Iowa","State_Abbrev":"IA"},
"geometry":{ "type": "Point", "coordinates": [-90.862815,41.903118]}},
{ "type": "Feature", "properties": {"Name":"Traer city","State":"Iowa","State_Abbrev":"IA"},
"geometry":{ "type": "Point", "coordinates": [-92.464042,42.189577]}},
{ "type": "Feature", "properties": {"Name":"Trenton CDP","State":"Iowa","State_Abbrev":"IA"},
"geometry":{ "type": "Point", "coordinates": [-91.639498,41.065974]}},
{ "type": "Feature", "properties": {"Name":"Treynor city","State":"Iowa","State_Abbrev":"IA"},
"geometry":{ "type": "Point", "coordinates": [-95.606375,41.232028]}},
{ "type": "Feature", "properties": {"Name":"Tripoli city","State":"Iowa","State_Abbrev":"IA"},
"geometry":{ "type": "Point", "coordinates": [-92.257843,42.808371]}},
{ "type": "Feature", "properties": {"Name":"Truesdale city","State":"Iowa","State_Abbrev":"IA"},
"geometry":{ "type": "Point", "coordinates": [-95.183407,42.729257]}},
{ "type": "Feature", "properties": {"Name":"Truro city","State":"Iowa","State_Abbrev":"IA"},
"geometry":{ "type": "Point", "coordinates": [-93.846711,41.209794]}},
{ "type": "Feature", "properties": {"Name":"Turin city","State":"Iowa","State_Abbrev":"IA"},
"geometry":{ "type": "Point", "coordinates": [-95.966158,42.020881]}},
{ "type": "Feature", "properties": {"Name":"Twin Lakes CDP","State":"Iowa","State_Abbrev":"IA"},
"geometry":{ "type": "Point", "coordinates": [-94.629756,42.480996]}},
{ "type": "Feature", "properties": {"Name":"Udell city","State":"Iowa","State_Abbrev":"IA"},
"geometry":{ "type": "Point", "coordinates": [-92.743163,40.78014]}},
{ "type": "Feature", "properties": {"Name":"Underwood city","State":"Iowa","State_Abbrev":"IA"},
"geometry":{ "type": "Point", "coordinates": [-95.68251,41.380243]}},
{ "type": "Feature", "properties": {"Name":"Union city","State":"Iowa","State_Abbrev":"IA"},
"geometry":{ "type": "Point", "coordinates": [-93.062498,42.243534]}},
{ "type": "Feature", "properties": {"Name":"Unionville city","State":"Iowa","State_Abbrev":"IA"},
"geometry":{ "type": "Point", "coordinates": [-92.695832,40.818136]}},
{ "type": "Feature", "properties": {"Name":"University Heights city","State":"Iowa","State_Abbrev":"IA"},
"geometry":{ "type": "Point", "coordinates": [-91.558868,41.655036]}},
{ "type": "Feature", "properties": {"Name":"University Park city","State":"Iowa","State_Abbrev":"IA"},
"geometry":{ "type": "Point", "coordinates": [-92.614978,41.285546]}},
{ "type": "Feature", "properties": {"Name":"Urbana city","State":"Iowa","State_Abbrev":"IA"},
"geometry":{ "type": "Point", "coordinates": [-91.885511,42.229835]}},
{ "type": "Feature", "properties": {"Name":"Urbandale city","State":"Iowa","State_Abbrev":"IA"},
"geometry":{ "type": "Point", "coordinates": [-93.779833,41.636794]}},
{ "type": "Feature", "properties": {"Name":"Ute city","State":"Iowa","State_Abbrev":"IA"},
"geometry":{ "type": "Point", "coordinates": [-95.705776,42.050259]}},
{ "type": "Feature", "properties": {"Name":"Vail city","State":"Iowa","State_Abbrev":"IA"},
"geometry":{ "type": "Point", "coordinates": [-95.200454,42.059715]}},
{ "type": "Feature", "properties": {"Name":"Valeria city","State":"Iowa","State_Abbrev":"IA"},
"geometry":{ "type": "Point", "coordinates": [-93.325533,41.729794]}},
{ "type": "Feature", "properties": {"Name":"Van Horne city","State":"Iowa","State_Abbrev":"IA"},
"geometry":{ "type": "Point", "coordinates": [-92.089718,42.008311]}},
{ "type": "Feature", "properties": {"Name":"Van Meter city","State":"Iowa","State_Abbrev":"IA"},
"geometry":{ "type": "Point", "coordinates": [-93.94418,41.524638]}},
{ "type": "Feature", "properties": {"Name":"Van Wert city","State":"Iowa","State_Abbrev":"IA"},
"geometry":{ "type": "Point", "coordinates": [-93.792178,40.870742]}},
{ "type": "Feature", "properties": {"Name":"Varina city","State":"Iowa","State_Abbrev":"IA"},
"geometry":{ "type": "Point", "coordinates": [-94.898011,42.658578]}},
{ "type": "Feature", "properties": {"Name":"Ventura city","State":"Iowa","State_Abbrev":"IA"},
"geometry":{ "type": "Point", "coordinates": [-93.465914,43.128868]}},
{ "type": "Feature", "properties": {"Name":"Victor city","State":"Iowa","State_Abbrev":"IA"},
"geometry":{ "type": "Point", "coordinates": [-92.294846,41.730599]}},
{ "type": "Feature", "properties": {"Name":"Villisca city","State":"Iowa","State_Abbrev":"IA"},
"geometry":{ "type": "Point", "coordinates": [-94.981108,40.929875]}},
{ "type": "Feature", "properties": {"Name":"Vincent city","State":"Iowa","State_Abbrev":"IA"},
"geometry":{ "type": "Point", "coordinates": [-94.018881,42.591829]}},
{ "type": "Feature", "properties": {"Name":"Vining city","State":"Iowa","State_Abbrev":"IA"},
"geometry":{ "type": "Point", "coordinates": [-92.387278,41.99102]}},
{ "type": "Feature", "properties": {"Name":"Vinton city","State":"Iowa","State_Abbrev":"IA"},
"geometry":{ "type": "Point", "coordinates": [-92.026206,42.163106]}},
{ "type": "Feature", "properties": {"Name":"Volga city","State":"Iowa","State_Abbrev":"IA"},
"geometry":{ "type": "Point", "coordinates": [-91.542301,42.802939]}},
{ "type": "Feature", "properties": {"Name":"Wadena city","State":"Iowa","State_Abbrev":"IA"},
"geometry":{ "type": "Point", "coordinates": [-91.659402,42.839676]}},
{ "type": "Feature", "properties": {"Name":"Wahpeton city","State":"Iowa","State_Abbrev":"IA"},
"geometry":{ "type": "Point", "coordinates": [-95.17591,43.369515]}},
{ "type": "Feature", "properties": {"Name":"Walcott city","State":"Iowa","State_Abbrev":"IA"},
"geometry":{ "type": "Point", "coordinates": [-90.780518,41.587319]}},
{ "type": "Feature", "properties": {"Name":"Walford city","State":"Iowa","State_Abbrev":"IA"},
"geometry":{ "type": "Point", "coordinates": [-91.830559,41.879845]}},
{ "type": "Feature", "properties": {"Name":"Walker city","State":"Iowa","State_Abbrev":"IA"},
"geometry":{ "type": "Point", "coordinates": [-91.781479,42.287545]}},
{ "type": "Feature", "properties": {"Name":"Wallingford city","State":"Iowa","State_Abbrev":"IA"},
"geometry":{ "type": "Point", "coordinates": [-94.792177,43.320285]}},
{ "type": "Feature", "properties": {"Name":"Wall Lake city","State":"Iowa","State_Abbrev":"IA"},
"geometry":{ "type": "Point", "coordinates": [-95.093226,42.26732]}},
{ "type": "Feature", "properties": {"Name":"Walnut city","State":"Iowa","State_Abbrev":"IA"},
"geometry":{ "type": "Point", "coordinates": [-95.219669,41.489453]}},
{ "type": "Feature", "properties": {"Name":"Wapello city","State":"Iowa","State_Abbrev":"IA"},
"geometry":{ "type": "Point", "coordinates": [-91.187372,41.177248]}},
{ "type": "Feature", "properties": {"Name":"Washburn CDP","State":"Iowa","State_Abbrev":"IA"},
"geometry":{ "type": "Point", "coordinates": [-92.266866,42.410291]}},
{ "type": "Feature", "properties": {"Name":"Washington city","State":"Iowa","State_Abbrev":"IA"},
"geometry":{ "type": "Point", "coordinates": [-91.693671,41.297913]}},
{ "type": "Feature", "properties": {"Name":"Washta city","State":"Iowa","State_Abbrev":"IA"},
"geometry":{ "type": "Point", "coordinates": [-95.720125,42.575575]}},
{ "type": "Feature", "properties": {"Name":"Waterloo city","State":"Iowa","State_Abbrev":"IA"},
"geometry":{ "type": "Point", "coordinates": [-92.351947,42.492327]}},
{ "type": "Feature", "properties": {"Name":"Waterville city","State":"Iowa","State_Abbrev":"IA"},
"geometry":{ "type": "Point", "coordinates": [-91.2966,43.207661]}},
{ "type": "Feature", "properties": {"Name":"Watkins CDP","State":"Iowa","State_Abbrev":"IA"},
"geometry":{ "type": "Point", "coordinates": [-91.984993,41.893102]}},
{ "type": "Feature", "properties": {"Name":"Waucoma city","State":"Iowa","State_Abbrev":"IA"},
"geometry":{ "type": "Point", "coordinates": [-92.034459,43.055629]}},
{ "type": "Feature", "properties": {"Name":"Waukee city","State":"Iowa","State_Abbrev":"IA"},
"geometry":{ "type": "Point", "coordinates": [-93.882818,41.59048]}},
{ "type": "Feature", "properties": {"Name":"Waukon city","State":"Iowa","State_Abbrev":"IA"},
"geometry":{ "type": "Point", "coordinates": [-91.478492,43.268519]}},
{ "type": "Feature", "properties": {"Name":"Waverly city","State":"Iowa","State_Abbrev":"IA"},
"geometry":{ "type": "Point", "coordinates": [-92.469462,42.722049]}},
{ "type": "Feature", "properties": {"Name":"Wayland city","State":"Iowa","State_Abbrev":"IA"},
"geometry":{ "type": "Point", "coordinates": [-91.657535,41.148347]}},
{ "type": "Feature", "properties": {"Name":"Webb city","State":"Iowa","State_Abbrev":"IA"},
"geometry":{ "type": "Point", "coordinates": [-95.012919,42.949759]}},
{ "type": "Feature", "properties": {"Name":"Webster city","State":"Iowa","State_Abbrev":"IA"},
"geometry":{ "type": "Point", "coordinates": [-92.171718,41.438464]}},
{ "type": "Feature", "properties": {"Name":"Webster City city","State":"Iowa","State_Abbrev":"IA"},
"geometry":{ "type": "Point", "coordinates": [-93.816483,42.462407]}},
{ "type": "Feature", "properties": {"Name":"Weldon city","State":"Iowa","State_Abbrev":"IA"},
"geometry":{ "type": "Point", "coordinates": [-93.735023,40.897314]}},
{ "type": "Feature", "properties": {"Name":"Wellman city","State":"Iowa","State_Abbrev":"IA"},
"geometry":{ "type": "Point", "coordinates": [-91.835247,41.469238]}},
{ "type": "Feature", "properties": {"Name":"Wellsburg city","State":"Iowa","State_Abbrev":"IA"},
"geometry":{ "type": "Point", "coordinates": [-92.926618,42.433855]}},
{ "type": "Feature", "properties": {"Name":"Welton city","State":"Iowa","State_Abbrev":"IA"},
"geometry":{ "type": "Point", "coordinates": [-90.596853,41.907948]}},
{ "type": "Feature", "properties": {"Name":"Wesley city","State":"Iowa","State_Abbrev":"IA"},
"geometry":{ "type": "Point", "coordinates": [-93.992889,43.089115]}},
{ "type": "Feature", "properties": {"Name":"West Amana CDP","State":"Iowa","State_Abbrev":"IA"},
"geometry":{ "type": "Point", "coordinates": [-91.965539,41.808457]}},
{ "type": "Feature", "properties": {"Name":"West Bend city","State":"Iowa","State_Abbrev":"IA"},
"geometry":{ "type": "Point", "coordinates": [-94.445731,42.959966]}},
{ "type": "Feature", "properties": {"Name":"West Branch city","State":"Iowa","State_Abbrev":"IA"},
"geometry":{ "type": "Point", "coordinates": [-91.344197,41.666158]}},
{ "type": "Feature", "properties": {"Name":"West Burlington city","State":"Iowa","State_Abbrev":"IA"},
"geometry":{ "type": "Point", "coordinates": [-91.175475,40.821628]}},
{ "type": "Feature", "properties": {"Name":"West Chester city","State":"Iowa","State_Abbrev":"IA"},
"geometry":{ "type": "Point", "coordinates": [-91.816948,41.340039]}},
{ "type": "Feature", "properties": {"Name":"West Des Moines city","State":"Iowa","State_Abbrev":"IA"},
"geometry":{ "type": "Point", "coordinates": [-93.781351,41.549937]}},
{ "type": "Feature", "properties": {"Name":"Westfield city","State":"Iowa","State_Abbrev":"IA"},
"geometry":{ "type": "Point", "coordinates": [-96.605527,42.756206]}},
{ "type": "Feature", "properties": {"Name":"Westgate city","State":"Iowa","State_Abbrev":"IA"},
"geometry":{ "type": "Point", "coordinates": [-91.995669,42.768333]}},
{ "type": "Feature", "properties": {"Name":"West Liberty city","State":"Iowa","State_Abbrev":"IA"},
"geometry":{ "type": "Point", "coordinates": [-91.262639,41.572995]}},
{ "type": "Feature", "properties": {"Name":"West Okoboji city","State":"Iowa","State_Abbrev":"IA"},
"geometry":{ "type": "Point", "coordinates": [-95.166396,43.347705]}},
{ "type": "Feature", "properties": {"Name":"Weston CDP","State":"Iowa","State_Abbrev":"IA"},
"geometry":{ "type": "Point", "coordinates": [-95.744822,41.342261]}},
{ "type": "Feature", "properties": {"Name":"Westphalia city","State":"Iowa","State_Abbrev":"IA"},
"geometry":{ "type": "Point", "coordinates": [-95.393665,41.719252]}},
{ "type": "Feature", "properties": {"Name":"West Point city","State":"Iowa","State_Abbrev":"IA"},
"geometry":{ "type": "Point", "coordinates": [-91.452832,40.71454]}},
{ "type": "Feature", "properties": {"Name":"Westside city","State":"Iowa","State_Abbrev":"IA"},
"geometry":{ "type": "Point", "coordinates": [-95.101385,42.075699]}},
{ "type": "Feature", "properties": {"Name":"West Union city","State":"Iowa","State_Abbrev":"IA"},
"geometry":{ "type": "Point", "coordinates": [-91.813024,42.958873]}},
{ "type": "Feature", "properties": {"Name":"Westwood city","State":"Iowa","State_Abbrev":"IA"},
"geometry":{ "type": "Point", "coordinates": [-91.626773,40.964955]}},
{ "type": "Feature", "properties": {"Name":"Wever CDP","State":"Iowa","State_Abbrev":"IA"},
"geometry":{ "type": "Point", "coordinates": [-91.228102,40.705655]}},
{ "type": "Feature", "properties": {"Name":"What Cheer city","State":"Iowa","State_Abbrev":"IA"},
"geometry":{ "type": "Point", "coordinates": [-92.357088,41.400348]}},
{ "type": "Feature", "properties": {"Name":"Wheatland city","State":"Iowa","State_Abbrev":"IA"},
"geometry":{ "type": "Point", "coordinates": [-90.83801,41.833064]}},
{ "type": "Feature", "properties": {"Name":"Whiting city","State":"Iowa","State_Abbrev":"IA"},
"geometry":{ "type": "Point", "coordinates": [-96.150677,42.127224]}},
{ "type": "Feature", "properties": {"Name":"Whittemore city","State":"Iowa","State_Abbrev":"IA"},
"geometry":{ "type": "Point", "coordinates": [-94.425246,43.063335]}},
{ "type": "Feature", "properties": {"Name":"Whitten city","State":"Iowa","State_Abbrev":"IA"},
"geometry":{ "type": "Point", "coordinates": [-93.010632,42.264454]}},
{ "type": "Feature", "properties": {"Name":"Willey city","State":"Iowa","State_Abbrev":"IA"},
"geometry":{ "type": "Point", "coordinates": [-94.822404,41.97878]}},
{ "type": "Feature", "properties": {"Name":"Williams city","State":"Iowa","State_Abbrev":"IA"},
"geometry":{ "type": "Point", "coordinates": [-93.541245,42.489193]}},
{ "type": "Feature", "properties": {"Name":"Williamsburg city","State":"Iowa","State_Abbrev":"IA"},
"geometry":{ "type": "Point", "coordinates": [-92.013249,41.668884]}},
{ "type": "Feature", "properties": {"Name":"Williamson city","State":"Iowa","State_Abbrev":"IA"},
"geometry":{ "type": "Point", "coordinates": [-93.256955,41.088234]}},
{ "type": "Feature", "properties": {"Name":"Wilton city","State":"Iowa","State_Abbrev":"IA"},
"geometry":{ "type": "Point", "coordinates": [-91.025481,41.589109]}},
{ "type": "Feature", "properties": {"Name":"Windsor Heights city","State":"Iowa","State_Abbrev":"IA"},
"geometry":{ "type": "Point", "coordinates": [-93.712802,41.60446]}},
{ "type": "Feature", "properties": {"Name":"Winfield city","State":"Iowa","State_Abbrev":"IA"},
"geometry":{ "type": "Point", "coordinates": [-91.438127,41.125904]}},
{ "type": "Feature", "properties": {"Name":"Winterset city","State":"Iowa","State_Abbrev":"IA"},
"geometry":{ "type": "Point", "coordinates": [-94.018065,41.349897]}},
{ "type": "Feature", "properties": {"Name":"Winthrop city","State":"Iowa","State_Abbrev":"IA"},
"geometry":{ "type": "Point", "coordinates": [-91.737378,42.470766]}},
{ "type": "Feature", "properties": {"Name":"Wiota city","State":"Iowa","State_Abbrev":"IA"},
"geometry":{ "type": "Point", "coordinates": [-94.887329,41.40078]}},
{ "type": "Feature", "properties": {"Name":"Woden city","State":"Iowa","State_Abbrev":"IA"},
"geometry":{ "type": "Point", "coordinates": [-93.911402,43.230756]}},
{ "type": "Feature", "properties": {"Name":"Woodbine city","State":"Iowa","State_Abbrev":"IA"},
"geometry":{ "type": "Point", "coordinates": [-95.711055,41.736338]}},
{ "type": "Feature", "properties": {"Name":"Woodburn city","State":"Iowa","State_Abbrev":"IA"},
"geometry":{ "type": "Point", "coordinates": [-93.59632,41.010852]}},
{ "type": "Feature", "properties": {"Name":"Woodward city","State":"Iowa","State_Abbrev":"IA"},
"geometry":{ "type": "Point", "coordinates": [-93.92073,41.852764]}},
{ "type": "Feature", "properties": {"Name":"Woolstock city","State":"Iowa","State_Abbrev":"IA"},
"geometry":{ "type": "Point", "coordinates": [-93.843131,42.564776]}},
{ "type": "Feature", "properties": {"Name":"Worthington city","State":"Iowa","State_Abbrev":"IA"},
"geometry":{ "type": "Point", "coordinates": [-91.120703,42.397928]}},
{ "type": "Feature", "properties": {"Name":"Wyoming city","State":"Iowa","State_Abbrev":"IA"},
"geometry":{ "type": "Point", "coordinates": [-91.005188,42.059542]}},
{ "type": "Feature", "properties": {"Name":"Yale city","State":"Iowa","State_Abbrev":"IA"},
"geometry":{ "type": "Point", "coordinates": [-94.3578,41.77512]}},
{ "type": "Feature", "properties": {"Name":"Yarmouth CDP","State":"Iowa","State_Abbrev":"IA"},
"geometry":{ "type": "Point", "coordinates": [-91.322067,41.024513]}},
{ "type": "Feature", "properties": {"Name":"Yetter city","State":"Iowa","State_Abbrev":"IA"},
"geometry":{ "type": "Point", "coordinates": [-94.843199,42.316107]}},
{ "type": "Feature", "properties": {"Name":"Yorktown city","State":"Iowa","State_Abbrev":"IA"},
"geometry":{ "type": "Point", "coordinates": [-95.154337,40.735257]}},
{ "type": "Feature", "properties": {"Name":"Zearing city","State":"Iowa","State_Abbrev":"IA"},
"geometry":{ "type": "Point", "coordinates": [-93.297182,42.158925]}},
{ "type": "Feature", "properties": {"Name":"Zwingle city","State":"Iowa","State_Abbrev":"IA"},
"geometry":{ "type": "Point", "coordinates": [-90.687436,42.297192]}}]}
