{"type":"FeatureCollection","features":[
{ "type": "Feature", "properties": {"Name":"Abbyville city","State":"Kansas","State_Abbrev":"KS"},
"geometry":{ "type": "Point", "coordinates": [-98.202961,37.970576]}},
{ "type": "Feature", "properties": {"Name":"Abilene city","State":"Kansas","State_Abbrev":"KS"},
"geometry":{ "type": "Point", "coordinates": [-97.2279,38.924483]}},
{ "type": "Feature", "properties": {"Name":"Ada CDP","State":"Kansas","State_Abbrev":"KS"},
"geometry":{ "type": "Point", "coordinates": [-97.885948,39.1622]}},
{ "type": "Feature", "properties": {"Name":"Admire city","State":"Kansas","State_Abbrev":"KS"},
"geometry":{ "type": "Point", "coordinates": [-96.102009,38.640995]}},
{ "type": "Feature", "properties": {"Name":"Agenda city","State":"Kansas","State_Abbrev":"KS"},
"geometry":{ "type": "Point", "coordinates": [-97.432239,39.706567]}},
{ "type": "Feature", "properties": {"Name":"Agra city","State":"Kansas","State_Abbrev":"KS"},
"geometry":{ "type": "Point", "coordinates": [-99.119427,39.761262]}},
{ "type": "Feature", "properties": {"Name":"Albert city","State":"Kansas","State_Abbrev":"KS"},
"geometry":{ "type": "Point", "coordinates": [-99.011129,38.453959]}},
{ "type": "Feature", "properties": {"Name":"Alden city","State":"Kansas","State_Abbrev":"KS"},
"geometry":{ "type": "Point", "coordinates": [-98.31173,38.243839]}},
{ "type": "Feature", "properties": {"Name":"Alexander city","State":"Kansas","State_Abbrev":"KS"},
"geometry":{ "type": "Point", "coordinates": [-99.552998,38.469417]}},
{ "type": "Feature", "properties": {"Name":"Allen city","State":"Kansas","State_Abbrev":"KS"},
"geometry":{ "type": "Point", "coordinates": [-96.169636,38.655123]}},
{ "type": "Feature", "properties": {"Name":"Alma city","State":"Kansas","State_Abbrev":"KS"},
"geometry":{ "type": "Point", "coordinates": [-96.287096,39.015681]}},
{ "type": "Feature", "properties": {"Name":"Almena city","State":"Kansas","State_Abbrev":"KS"},
"geometry":{ "type": "Point", "coordinates": [-99.709613,39.891274]}},
{ "type": "Feature", "properties": {"Name":"Altamont city","State":"Kansas","State_Abbrev":"KS"},
"geometry":{ "type": "Point", "coordinates": [-95.291832,37.185366]}},
{ "type": "Feature", "properties": {"Name":"Alta Vista city","State":"Kansas","State_Abbrev":"KS"},
"geometry":{ "type": "Point", "coordinates": [-96.488838,38.862942]}},
{ "type": "Feature", "properties": {"Name":"Alton city","State":"Kansas","State_Abbrev":"KS"},
"geometry":{ "type": "Point", "coordinates": [-98.948639,39.467804]}},
{ "type": "Feature", "properties": {"Name":"Altoona city","State":"Kansas","State_Abbrev":"KS"},
"geometry":{ "type": "Point", "coordinates": [-95.661498,37.524517]}},
{ "type": "Feature", "properties": {"Name":"Americus city","State":"Kansas","State_Abbrev":"KS"},
"geometry":{ "type": "Point", "coordinates": [-96.261282,38.506385]}},
{ "type": "Feature", "properties": {"Name":"Ames CDP","State":"Kansas","State_Abbrev":"KS"},
"geometry":{ "type": "Point", "coordinates": [-97.450965,39.568894]}},
{ "type": "Feature", "properties": {"Name":"Andale city","State":"Kansas","State_Abbrev":"KS"},
"geometry":{ "type": "Point", "coordinates": [-97.627417,37.791285]}},
{ "type": "Feature", "properties": {"Name":"Andover city","State":"Kansas","State_Abbrev":"KS"},
"geometry":{ "type": "Point", "coordinates": [-97.130753,37.687166]}},
{ "type": "Feature", "properties": {"Name":"Anthony city","State":"Kansas","State_Abbrev":"KS"},
"geometry":{ "type": "Point", "coordinates": [-98.042776,37.158533]}},
{ "type": "Feature", "properties": {"Name":"Arcadia city","State":"Kansas","State_Abbrev":"KS"},
"geometry":{ "type": "Point", "coordinates": [-94.624019,37.641172]}},
{ "type": "Feature", "properties": {"Name":"Argonia city","State":"Kansas","State_Abbrev":"KS"},
"geometry":{ "type": "Point", "coordinates": [-97.762939,37.267876]}},
{ "type": "Feature", "properties": {"Name":"Arkansas City city","State":"Kansas","State_Abbrev":"KS"},
"geometry":{ "type": "Point", "coordinates": [-97.038436,37.072499]}},
{ "type": "Feature", "properties": {"Name":"Arlington city","State":"Kansas","State_Abbrev":"KS"},
"geometry":{ "type": "Point", "coordinates": [-98.178064,37.89629]}},
{ "type": "Feature", "properties": {"Name":"Arma city","State":"Kansas","State_Abbrev":"KS"},
"geometry":{ "type": "Point", "coordinates": [-94.701807,37.542775]}},
{ "type": "Feature", "properties": {"Name":"Asherville CDP","State":"Kansas","State_Abbrev":"KS"},
"geometry":{ "type": "Point", "coordinates": [-97.9732,39.407469]}},
{ "type": "Feature", "properties": {"Name":"Ashland city","State":"Kansas","State_Abbrev":"KS"},
"geometry":{ "type": "Point", "coordinates": [-99.769671,37.186661]}},
{ "type": "Feature", "properties": {"Name":"Assaria city","State":"Kansas","State_Abbrev":"KS"},
"geometry":{ "type": "Point", "coordinates": [-97.604142,38.680203]}},
{ "type": "Feature", "properties": {"Name":"Atchison city","State":"Kansas","State_Abbrev":"KS"},
"geometry":{ "type": "Point", "coordinates": [-95.136611,39.562552]}},
{ "type": "Feature", "properties": {"Name":"Athol city","State":"Kansas","State_Abbrev":"KS"},
"geometry":{ "type": "Point", "coordinates": [-98.919748,39.766191]}},
{ "type": "Feature", "properties": {"Name":"Atlanta city","State":"Kansas","State_Abbrev":"KS"},
"geometry":{ "type": "Point", "coordinates": [-96.766978,37.435738]}},
{ "type": "Feature", "properties": {"Name":"Attica city","State":"Kansas","State_Abbrev":"KS"},
"geometry":{ "type": "Point", "coordinates": [-98.227624,37.242605]}},
{ "type": "Feature", "properties": {"Name":"Atwood city","State":"Kansas","State_Abbrev":"KS"},
"geometry":{ "type": "Point", "coordinates": [-101.041893,39.8099]}},
{ "type": "Feature", "properties": {"Name":"Auburn city","State":"Kansas","State_Abbrev":"KS"},
"geometry":{ "type": "Point", "coordinates": [-95.815555,38.907756]}},
{ "type": "Feature", "properties": {"Name":"Augusta city","State":"Kansas","State_Abbrev":"KS"},
"geometry":{ "type": "Point", "coordinates": [-96.97316,37.698016]}},
{ "type": "Feature", "properties": {"Name":"Aurora city","State":"Kansas","State_Abbrev":"KS"},
"geometry":{ "type": "Point", "coordinates": [-97.529846,39.451924]}},
{ "type": "Feature", "properties": {"Name":"Axtell city","State":"Kansas","State_Abbrev":"KS"},
"geometry":{ "type": "Point", "coordinates": [-96.256896,39.871258]}},
{ "type": "Feature", "properties": {"Name":"Baileyville CDP","State":"Kansas","State_Abbrev":"KS"},
"geometry":{ "type": "Point", "coordinates": [-96.192749,39.850055]}},
{ "type": "Feature", "properties": {"Name":"Bala CDP","State":"Kansas","State_Abbrev":"KS"},
"geometry":{ "type": "Point", "coordinates": [-96.950392,39.310829]}},
{ "type": "Feature", "properties": {"Name":"Baldwin City city","State":"Kansas","State_Abbrev":"KS"},
"geometry":{ "type": "Point", "coordinates": [-95.18748,38.777506]}},
{ "type": "Feature", "properties": {"Name":"Barnard city","State":"Kansas","State_Abbrev":"KS"},
"geometry":{ "type": "Point", "coordinates": [-98.044252,39.189171]}},
{ "type": "Feature", "properties": {"Name":"Barnes city","State":"Kansas","State_Abbrev":"KS"},
"geometry":{ "type": "Point", "coordinates": [-96.873404,39.711551]}},
{ "type": "Feature", "properties": {"Name":"Bartlett city","State":"Kansas","State_Abbrev":"KS"},
"geometry":{ "type": "Point", "coordinates": [-95.211569,37.05486]}},
{ "type": "Feature", "properties": {"Name":"Basehor city","State":"Kansas","State_Abbrev":"KS"},
"geometry":{ "type": "Point", "coordinates": [-94.929047,39.135325]}},
{ "type": "Feature", "properties": {"Name":"Bassett city","State":"Kansas","State_Abbrev":"KS"},
"geometry":{ "type": "Point", "coordinates": [-95.405651,37.907206]}},
{ "type": "Feature", "properties": {"Name":"Bavaria CDP","State":"Kansas","State_Abbrev":"KS"},
"geometry":{ "type": "Point", "coordinates": [-97.75474,38.795399]}},
{ "type": "Feature", "properties": {"Name":"Baxter Springs city","State":"Kansas","State_Abbrev":"KS"},
"geometry":{ "type": "Point", "coordinates": [-94.734961,37.019951]}},
{ "type": "Feature", "properties": {"Name":"Bazine city","State":"Kansas","State_Abbrev":"KS"},
"geometry":{ "type": "Point", "coordinates": [-99.693006,38.446126]}},
{ "type": "Feature", "properties": {"Name":"Beattie city","State":"Kansas","State_Abbrev":"KS"},
"geometry":{ "type": "Point", "coordinates": [-96.41779,39.862371]}},
{ "type": "Feature", "properties": {"Name":"Beaumont CDP","State":"Kansas","State_Abbrev":"KS"},
"geometry":{ "type": "Point", "coordinates": [-96.531814,37.655975]}},
{ "type": "Feature", "properties": {"Name":"Beaver CDP","State":"Kansas","State_Abbrev":"KS"},
"geometry":{ "type": "Point", "coordinates": [-98.673715,38.64552]}},
{ "type": "Feature", "properties": {"Name":"Bel Aire city","State":"Kansas","State_Abbrev":"KS"},
"geometry":{ "type": "Point", "coordinates": [-97.246571,37.775943]}},
{ "type": "Feature", "properties": {"Name":"Belle Plaine city","State":"Kansas","State_Abbrev":"KS"},
"geometry":{ "type": "Point", "coordinates": [-97.279548,37.393428]}},
{ "type": "Feature", "properties": {"Name":"Belleville city","State":"Kansas","State_Abbrev":"KS"},
"geometry":{ "type": "Point", "coordinates": [-97.633855,39.824337]}},
{ "type": "Feature", "properties": {"Name":"Beloit city","State":"Kansas","State_Abbrev":"KS"},
"geometry":{ "type": "Point", "coordinates": [-98.10834,39.464698]}},
{ "type": "Feature", "properties": {"Name":"Belpre city","State":"Kansas","State_Abbrev":"KS"},
"geometry":{ "type": "Point", "coordinates": [-99.099822,37.950669]}},
{ "type": "Feature", "properties": {"Name":"Belvue city","State":"Kansas","State_Abbrev":"KS"},
"geometry":{ "type": "Point", "coordinates": [-96.179001,39.216297]}},
{ "type": "Feature", "properties": {"Name":"Bendena CDP","State":"Kansas","State_Abbrev":"KS"},
"geometry":{ "type": "Point", "coordinates": [-95.181057,39.743541]}},
{ "type": "Feature", "properties": {"Name":"Benedict city","State":"Kansas","State_Abbrev":"KS"},
"geometry":{ "type": "Point", "coordinates": [-95.743483,37.626883]}},
{ "type": "Feature", "properties": {"Name":"Bennington city","State":"Kansas","State_Abbrev":"KS"},
"geometry":{ "type": "Point", "coordinates": [-97.593228,39.033146]}},
{ "type": "Feature", "properties": {"Name":"Bentley city","State":"Kansas","State_Abbrev":"KS"},
"geometry":{ "type": "Point", "coordinates": [-97.514712,37.886762]}},
{ "type": "Feature", "properties": {"Name":"Benton city","State":"Kansas","State_Abbrev":"KS"},
"geometry":{ "type": "Point", "coordinates": [-97.107753,37.788136]}},
{ "type": "Feature", "properties": {"Name":"Bern city","State":"Kansas","State_Abbrev":"KS"},
"geometry":{ "type": "Point", "coordinates": [-95.971065,39.961415]}},
{ "type": "Feature", "properties": {"Name":"Beverly city","State":"Kansas","State_Abbrev":"KS"},
"geometry":{ "type": "Point", "coordinates": [-97.975454,39.013831]}},
{ "type": "Feature", "properties": {"Name":"Big Bow CDP","State":"Kansas","State_Abbrev":"KS"},
"geometry":{ "type": "Point", "coordinates": [-101.557372,37.560851]}},
{ "type": "Feature", "properties": {"Name":"Bird City city","State":"Kansas","State_Abbrev":"KS"},
"geometry":{ "type": "Point", "coordinates": [-101.532765,39.749514]}},
{ "type": "Feature", "properties": {"Name":"Bison city","State":"Kansas","State_Abbrev":"KS"},
"geometry":{ "type": "Point", "coordinates": [-99.19789,38.519915]}},
{ "type": "Feature", "properties": {"Name":"Blue Mound city","State":"Kansas","State_Abbrev":"KS"},
"geometry":{ "type": "Point", "coordinates": [-95.009926,38.089357]}},
{ "type": "Feature", "properties": {"Name":"Blue Rapids city","State":"Kansas","State_Abbrev":"KS"},
"geometry":{ "type": "Point", "coordinates": [-96.658901,39.678439]}},
{ "type": "Feature", "properties": {"Name":"Bluff City city","State":"Kansas","State_Abbrev":"KS"},
"geometry":{ "type": "Point", "coordinates": [-97.874701,37.076116]}},
{ "type": "Feature", "properties": {"Name":"Bogue city","State":"Kansas","State_Abbrev":"KS"},
"geometry":{ "type": "Point", "coordinates": [-99.68739,39.359522]}},
{ "type": "Feature", "properties": {"Name":"Bonner Springs city","State":"Kansas","State_Abbrev":"KS"},
"geometry":{ "type": "Point", "coordinates": [-94.871739,39.075368]}},
{ "type": "Feature", "properties": {"Name":"Bremen CDP","State":"Kansas","State_Abbrev":"KS"},
"geometry":{ "type": "Point", "coordinates": [-96.795507,39.897772]}},
{ "type": "Feature", "properties": {"Name":"Brewster city","State":"Kansas","State_Abbrev":"KS"},
"geometry":{ "type": "Point", "coordinates": [-101.37713,39.363054]}},
{ "type": "Feature", "properties": {"Name":"Bridgeport CDP","State":"Kansas","State_Abbrev":"KS"},
"geometry":{ "type": "Point", "coordinates": [-97.614004,38.62714]}},
{ "type": "Feature", "properties": {"Name":"Bronson city","State":"Kansas","State_Abbrev":"KS"},
"geometry":{ "type": "Point", "coordinates": [-95.073113,37.895806]}},
{ "type": "Feature", "properties": {"Name":"Brookville city","State":"Kansas","State_Abbrev":"KS"},
"geometry":{ "type": "Point", "coordinates": [-97.864544,38.773557]}},
{ "type": "Feature", "properties": {"Name":"Brownell city","State":"Kansas","State_Abbrev":"KS"},
"geometry":{ "type": "Point", "coordinates": [-99.744275,38.640619]}},
{ "type": "Feature", "properties": {"Name":"Bucklin city","State":"Kansas","State_Abbrev":"KS"},
"geometry":{ "type": "Point", "coordinates": [-99.634419,37.548647]}},
{ "type": "Feature", "properties": {"Name":"Bucyrus CDP","State":"Kansas","State_Abbrev":"KS"},
"geometry":{ "type": "Point", "coordinates": [-94.708347,38.720917]}},
{ "type": "Feature", "properties": {"Name":"Buffalo city","State":"Kansas","State_Abbrev":"KS"},
"geometry":{ "type": "Point", "coordinates": [-95.69693,37.709108]}},
{ "type": "Feature", "properties": {"Name":"Buhler city","State":"Kansas","State_Abbrev":"KS"},
"geometry":{ "type": "Point", "coordinates": [-97.770569,38.138426]}},
{ "type": "Feature", "properties": {"Name":"Bunker Hill city","State":"Kansas","State_Abbrev":"KS"},
"geometry":{ "type": "Point", "coordinates": [-98.698938,38.875298]}},
{ "type": "Feature", "properties": {"Name":"Burden city","State":"Kansas","State_Abbrev":"KS"},
"geometry":{ "type": "Point", "coordinates": [-96.755372,37.315609]}},
{ "type": "Feature", "properties": {"Name":"Burdett city","State":"Kansas","State_Abbrev":"KS"},
"geometry":{ "type": "Point", "coordinates": [-99.526452,38.193523]}},
{ "type": "Feature", "properties": {"Name":"Burdick CDP","State":"Kansas","State_Abbrev":"KS"},
"geometry":{ "type": "Point", "coordinates": [-96.847244,38.558943]}},
{ "type": "Feature", "properties": {"Name":"Burlingame city","State":"Kansas","State_Abbrev":"KS"},
"geometry":{ "type": "Point", "coordinates": [-95.835775,38.751864]}},
{ "type": "Feature", "properties": {"Name":"Burlington city","State":"Kansas","State_Abbrev":"KS"},
"geometry":{ "type": "Point", "coordinates": [-95.745428,38.193289]}},
{ "type": "Feature", "properties": {"Name":"Burns city","State":"Kansas","State_Abbrev":"KS"},
"geometry":{ "type": "Point", "coordinates": [-96.887668,38.089738]}},
{ "type": "Feature", "properties": {"Name":"Burr Oak city","State":"Kansas","State_Abbrev":"KS"},
"geometry":{ "type": "Point", "coordinates": [-98.305708,39.870347]}},
{ "type": "Feature", "properties": {"Name":"Burrton city","State":"Kansas","State_Abbrev":"KS"},
"geometry":{ "type": "Point", "coordinates": [-97.671452,38.023719]}},
{ "type": "Feature", "properties": {"Name":"Bushong city","State":"Kansas","State_Abbrev":"KS"},
"geometry":{ "type": "Point", "coordinates": [-96.256735,38.6428]}},
{ "type": "Feature", "properties": {"Name":"Bushton city","State":"Kansas","State_Abbrev":"KS"},
"geometry":{ "type": "Point", "coordinates": [-98.396003,38.512275]}},
{ "type": "Feature", "properties": {"Name":"Byers city","State":"Kansas","State_Abbrev":"KS"},
"geometry":{ "type": "Point", "coordinates": [-98.867055,37.787896]}},
{ "type": "Feature", "properties": {"Name":"Caldwell city","State":"Kansas","State_Abbrev":"KS"},
"geometry":{ "type": "Point", "coordinates": [-97.608868,37.035009]}},
{ "type": "Feature", "properties": {"Name":"Cambridge city","State":"Kansas","State_Abbrev":"KS"},
"geometry":{ "type": "Point", "coordinates": [-96.667166,37.317776]}},
{ "type": "Feature", "properties": {"Name":"Caney city","State":"Kansas","State_Abbrev":"KS"},
"geometry":{ "type": "Point", "coordinates": [-95.931931,37.013573]}},
{ "type": "Feature", "properties": {"Name":"Canton city","State":"Kansas","State_Abbrev":"KS"},
"geometry":{ "type": "Point", "coordinates": [-97.43005,38.385862]}},
{ "type": "Feature", "properties": {"Name":"Carbondale city","State":"Kansas","State_Abbrev":"KS"},
"geometry":{ "type": "Point", "coordinates": [-95.693154,38.821793]}},
{ "type": "Feature", "properties": {"Name":"Carlton city","State":"Kansas","State_Abbrev":"KS"},
"geometry":{ "type": "Point", "coordinates": [-97.293159,38.686663]}},
{ "type": "Feature", "properties": {"Name":"Cassoday city","State":"Kansas","State_Abbrev":"KS"},
"geometry":{ "type": "Point", "coordinates": [-96.638665,38.038665]}},
{ "type": "Feature", "properties": {"Name":"Catharine CDP","State":"Kansas","State_Abbrev":"KS"},
"geometry":{ "type": "Point", "coordinates": [-99.214353,38.930206]}},
{ "type": "Feature", "properties": {"Name":"Cawker City city","State":"Kansas","State_Abbrev":"KS"},
"geometry":{ "type": "Point", "coordinates": [-98.433107,39.509511]}},
{ "type": "Feature", "properties": {"Name":"Cedar city","State":"Kansas","State_Abbrev":"KS"},
"geometry":{ "type": "Point", "coordinates": [-98.940178,39.65712]}},
{ "type": "Feature", "properties": {"Name":"Cedar Point city","State":"Kansas","State_Abbrev":"KS"},
"geometry":{ "type": "Point", "coordinates": [-96.823743,38.260047]}},
{ "type": "Feature", "properties": {"Name":"Cedar Vale city","State":"Kansas","State_Abbrev":"KS"},
"geometry":{ "type": "Point", "coordinates": [-96.502623,37.105135]}},
{ "type": "Feature", "properties": {"Name":"Centerville CDP","State":"Kansas","State_Abbrev":"KS"},
"geometry":{ "type": "Point", "coordinates": [-95.015662,38.229623]}},
{ "type": "Feature", "properties": {"Name":"Centralia city","State":"Kansas","State_Abbrev":"KS"},
"geometry":{ "type": "Point", "coordinates": [-96.130955,39.724413]}},
{ "type": "Feature", "properties": {"Name":"Centropolis CDP","State":"Kansas","State_Abbrev":"KS"},
"geometry":{ "type": "Point", "coordinates": [-95.349447,38.719537]}},
{ "type": "Feature", "properties": {"Name":"Chanute city","State":"Kansas","State_Abbrev":"KS"},
"geometry":{ "type": "Point", "coordinates": [-95.464162,37.669661]}},
{ "type": "Feature", "properties": {"Name":"Chapman city","State":"Kansas","State_Abbrev":"KS"},
"geometry":{ "type": "Point", "coordinates": [-97.023258,38.974372]}},
{ "type": "Feature", "properties": {"Name":"Chase city","State":"Kansas","State_Abbrev":"KS"},
"geometry":{ "type": "Point", "coordinates": [-98.348666,38.35532]}},
{ "type": "Feature", "properties": {"Name":"Chautauqua city","State":"Kansas","State_Abbrev":"KS"},
"geometry":{ "type": "Point", "coordinates": [-96.177144,37.023897]}},
{ "type": "Feature", "properties": {"Name":"Cheney city","State":"Kansas","State_Abbrev":"KS"},
"geometry":{ "type": "Point", "coordinates": [-97.779716,37.635291]}},
{ "type": "Feature", "properties": {"Name":"Cherokee city","State":"Kansas","State_Abbrev":"KS"},
"geometry":{ "type": "Point", "coordinates": [-94.821338,37.345041]}},
{ "type": "Feature", "properties": {"Name":"Cherryvale city","State":"Kansas","State_Abbrev":"KS"},
"geometry":{ "type": "Point", "coordinates": [-95.553354,37.269148]}},
{ "type": "Feature", "properties": {"Name":"Chetopa city","State":"Kansas","State_Abbrev":"KS"},
"geometry":{ "type": "Point", "coordinates": [-95.092249,37.037437]}},
{ "type": "Feature", "properties": {"Name":"Chicopee CDP","State":"Kansas","State_Abbrev":"KS"},
"geometry":{ "type": "Point", "coordinates": [-94.743461,37.38341]}},
{ "type": "Feature", "properties": {"Name":"Cimarron city","State":"Kansas","State_Abbrev":"KS"},
"geometry":{ "type": "Point", "coordinates": [-100.345327,37.80971]}},
{ "type": "Feature", "properties": {"Name":"Circleville city","State":"Kansas","State_Abbrev":"KS"},
"geometry":{ "type": "Point", "coordinates": [-95.855674,39.509437]}},
{ "type": "Feature", "properties": {"Name":"Claflin city","State":"Kansas","State_Abbrev":"KS"},
"geometry":{ "type": "Point", "coordinates": [-98.536855,38.524577]}},
{ "type": "Feature", "properties": {"Name":"Clay Center city","State":"Kansas","State_Abbrev":"KS"},
"geometry":{ "type": "Point", "coordinates": [-97.127372,39.381182]}},
{ "type": "Feature", "properties": {"Name":"Clayton city","State":"Kansas","State_Abbrev":"KS"},
"geometry":{ "type": "Point", "coordinates": [-100.176484,39.736866]}},
{ "type": "Feature", "properties": {"Name":"Clearwater city","State":"Kansas","State_Abbrev":"KS"},
"geometry":{ "type": "Point", "coordinates": [-97.497507,37.509992]}},
{ "type": "Feature", "properties": {"Name":"Clifton city","State":"Kansas","State_Abbrev":"KS"},
"geometry":{ "type": "Point", "coordinates": [-97.280552,39.568095]}},
{ "type": "Feature", "properties": {"Name":"Climax city","State":"Kansas","State_Abbrev":"KS"},
"geometry":{ "type": "Point", "coordinates": [-96.224032,37.719168]}},
{ "type": "Feature", "properties": {"Name":"Clyde city","State":"Kansas","State_Abbrev":"KS"},
"geometry":{ "type": "Point", "coordinates": [-97.400212,39.59183]}},
{ "type": "Feature", "properties": {"Name":"Coats city","State":"Kansas","State_Abbrev":"KS"},
"geometry":{ "type": "Point", "coordinates": [-98.825338,37.51078]}},
{ "type": "Feature", "properties": {"Name":"Codell CDP","State":"Kansas","State_Abbrev":"KS"},
"geometry":{ "type": "Point", "coordinates": [-99.170123,39.195378]}},
{ "type": "Feature", "properties": {"Name":"Coffeyville city","State":"Kansas","State_Abbrev":"KS"},
"geometry":{ "type": "Point", "coordinates": [-95.65158,37.032717]}},
{ "type": "Feature", "properties": {"Name":"Colby city","State":"Kansas","State_Abbrev":"KS"},
"geometry":{ "type": "Point", "coordinates": [-101.045211,39.384801]}},
{ "type": "Feature", "properties": {"Name":"Coldwater city","State":"Kansas","State_Abbrev":"KS"},
"geometry":{ "type": "Point", "coordinates": [-99.3234,37.267543]}},
{ "type": "Feature", "properties": {"Name":"Collyer city","State":"Kansas","State_Abbrev":"KS"},
"geometry":{ "type": "Point", "coordinates": [-100.11826,39.037322]}},
{ "type": "Feature", "properties": {"Name":"Colony city","State":"Kansas","State_Abbrev":"KS"},
"geometry":{ "type": "Point", "coordinates": [-95.362225,38.072839]}},
{ "type": "Feature", "properties": {"Name":"Columbus city","State":"Kansas","State_Abbrev":"KS"},
"geometry":{ "type": "Point", "coordinates": [-94.844076,37.171614]}},
{ "type": "Feature", "properties": {"Name":"Colwich city","State":"Kansas","State_Abbrev":"KS"},
"geometry":{ "type": "Point", "coordinates": [-97.536277,37.78181]}},
{ "type": "Feature", "properties": {"Name":"Concordia city","State":"Kansas","State_Abbrev":"KS"},
"geometry":{ "type": "Point", "coordinates": [-97.646767,39.566865]}},
{ "type": "Feature", "properties": {"Name":"Conway Springs city","State":"Kansas","State_Abbrev":"KS"},
"geometry":{ "type": "Point", "coordinates": [-97.642942,37.389861]}},
{ "type": "Feature", "properties": {"Name":"Coolidge city","State":"Kansas","State_Abbrev":"KS"},
"geometry":{ "type": "Point", "coordinates": [-102.007819,38.041425]}},
{ "type": "Feature", "properties": {"Name":"Copeland city","State":"Kansas","State_Abbrev":"KS"},
"geometry":{ "type": "Point", "coordinates": [-100.628607,37.54024]}},
{ "type": "Feature", "properties": {"Name":"Corning city","State":"Kansas","State_Abbrev":"KS"},
"geometry":{ "type": "Point", "coordinates": [-96.028789,39.657089]}},
{ "type": "Feature", "properties": {"Name":"Cottonwood Falls city","State":"Kansas","State_Abbrev":"KS"},
"geometry":{ "type": "Point", "coordinates": [-96.542755,38.368211]}},
{ "type": "Feature", "properties": {"Name":"Council Grove city","State":"Kansas","State_Abbrev":"KS"},
"geometry":{ "type": "Point", "coordinates": [-96.491782,38.663149]}},
{ "type": "Feature", "properties": {"Name":"Courtland city","State":"Kansas","State_Abbrev":"KS"},
"geometry":{ "type": "Point", "coordinates": [-97.896159,39.783242]}},
{ "type": "Feature", "properties": {"Name":"Coyville city","State":"Kansas","State_Abbrev":"KS"},
"geometry":{ "type": "Point", "coordinates": [-95.895938,37.68724]}},
{ "type": "Feature", "properties": {"Name":"Crestline CDP","State":"Kansas","State_Abbrev":"KS"},
"geometry":{ "type": "Point", "coordinates": [-94.706448,37.170073]}},
{ "type": "Feature", "properties": {"Name":"Croweburg CDP","State":"Kansas","State_Abbrev":"KS"},
"geometry":{ "type": "Point", "coordinates": [-94.672342,37.55362]}},
{ "type": "Feature", "properties": {"Name":"Cuba city","State":"Kansas","State_Abbrev":"KS"},
"geometry":{ "type": "Point", "coordinates": [-97.457422,39.802346]}},
{ "type": "Feature", "properties": {"Name":"Cullison city","State":"Kansas","State_Abbrev":"KS"},
"geometry":{ "type": "Point", "coordinates": [-98.905266,37.630321]}},
{ "type": "Feature", "properties": {"Name":"Culver city","State":"Kansas","State_Abbrev":"KS"},
"geometry":{ "type": "Point", "coordinates": [-97.759078,38.970159]}},
{ "type": "Feature", "properties": {"Name":"Cunningham city","State":"Kansas","State_Abbrev":"KS"},
"geometry":{ "type": "Point", "coordinates": [-98.43113,37.644623]}},
{ "type": "Feature", "properties": {"Name":"Damar city","State":"Kansas","State_Abbrev":"KS"},
"geometry":{ "type": "Point", "coordinates": [-99.584459,39.319152]}},
{ "type": "Feature", "properties": {"Name":"Danville city","State":"Kansas","State_Abbrev":"KS"},
"geometry":{ "type": "Point", "coordinates": [-97.892071,37.285952]}},
{ "type": "Feature", "properties": {"Name":"Dearing city","State":"Kansas","State_Abbrev":"KS"},
"geometry":{ "type": "Point", "coordinates": [-95.695365,37.053363]}},
{ "type": "Feature", "properties": {"Name":"Deerfield city","State":"Kansas","State_Abbrev":"KS"},
"geometry":{ "type": "Point", "coordinates": [-101.133182,37.981869]}},
{ "type": "Feature", "properties": {"Name":"Delia city","State":"Kansas","State_Abbrev":"KS"},
"geometry":{ "type": "Point", "coordinates": [-95.964992,39.239365]}},
{ "type": "Feature", "properties": {"Name":"Delphos city","State":"Kansas","State_Abbrev":"KS"},
"geometry":{ "type": "Point", "coordinates": [-97.764852,39.274577]}},
{ "type": "Feature", "properties": {"Name":"Denison city","State":"Kansas","State_Abbrev":"KS"},
"geometry":{ "type": "Point", "coordinates": [-95.628451,39.393795]}},
{ "type": "Feature", "properties": {"Name":"Dennis CDP","State":"Kansas","State_Abbrev":"KS"},
"geometry":{ "type": "Point", "coordinates": [-95.4031,37.348635]}},
{ "type": "Feature", "properties": {"Name":"Denton city","State":"Kansas","State_Abbrev":"KS"},
"geometry":{ "type": "Point", "coordinates": [-95.269536,39.731933]}},
{ "type": "Feature", "properties": {"Name":"Derby city","State":"Kansas","State_Abbrev":"KS"},
"geometry":{ "type": "Point", "coordinates": [-97.255786,37.559559]}},
{ "type": "Feature", "properties": {"Name":"De Soto city","State":"Kansas","State_Abbrev":"KS"},
"geometry":{ "type": "Point", "coordinates": [-94.951141,38.972306]}},
{ "type": "Feature", "properties": {"Name":"Detroit CDP","State":"Kansas","State_Abbrev":"KS"},
"geometry":{ "type": "Point", "coordinates": [-97.126851,38.935999]}},
{ "type": "Feature", "properties": {"Name":"Devon CDP","State":"Kansas","State_Abbrev":"KS"},
"geometry":{ "type": "Point", "coordinates": [-94.815308,37.922248]}},
{ "type": "Feature", "properties": {"Name":"Dexter city","State":"Kansas","State_Abbrev":"KS"},
"geometry":{ "type": "Point", "coordinates": [-96.716039,37.179567]}},
{ "type": "Feature", "properties": {"Name":"Dighton city","State":"Kansas","State_Abbrev":"KS"},
"geometry":{ "type": "Point", "coordinates": [-100.466367,38.48101]}},
{ "type": "Feature", "properties": {"Name":"Dodge City city","State":"Kansas","State_Abbrev":"KS"},
"geometry":{ "type": "Point", "coordinates": [-100.018438,37.760677]}},
{ "type": "Feature", "properties": {"Name":"Dorrance city","State":"Kansas","State_Abbrev":"KS"},
"geometry":{ "type": "Point", "coordinates": [-98.590044,38.846891]}},
{ "type": "Feature", "properties": {"Name":"Douglass city","State":"Kansas","State_Abbrev":"KS"},
"geometry":{ "type": "Point", "coordinates": [-97.010456,37.516905]}},
{ "type": "Feature", "properties": {"Name":"Downs city","State":"Kansas","State_Abbrev":"KS"},
"geometry":{ "type": "Point", "coordinates": [-98.547305,39.50457]}},
{ "type": "Feature", "properties": {"Name":"Dresden city","State":"Kansas","State_Abbrev":"KS"},
"geometry":{ "type": "Point", "coordinates": [-100.41905,39.622762]}},
{ "type": "Feature", "properties": {"Name":"Dunlap city","State":"Kansas","State_Abbrev":"KS"},
"geometry":{ "type": "Point", "coordinates": [-96.367568,38.576286]}},
{ "type": "Feature", "properties": {"Name":"Durham city","State":"Kansas","State_Abbrev":"KS"},
"geometry":{ "type": "Point", "coordinates": [-97.226885,38.484456]}},
{ "type": "Feature", "properties": {"Name":"Dwight city","State":"Kansas","State_Abbrev":"KS"},
"geometry":{ "type": "Point", "coordinates": [-96.592181,38.845213]}},
{ "type": "Feature", "properties": {"Name":"Earlton city","State":"Kansas","State_Abbrev":"KS"},
"geometry":{ "type": "Point", "coordinates": [-95.469787,37.587421]}},
{ "type": "Feature", "properties": {"Name":"Eastborough city","State":"Kansas","State_Abbrev":"KS"},
"geometry":{ "type": "Point", "coordinates": [-97.258588,37.684623]}},
{ "type": "Feature", "properties": {"Name":"Easton city","State":"Kansas","State_Abbrev":"KS"},
"geometry":{ "type": "Point", "coordinates": [-95.117152,39.345548]}},
{ "type": "Feature", "properties": {"Name":"Eastshore CDP","State":"Kansas","State_Abbrev":"KS"},
"geometry":{ "type": "Point", "coordinates": [-97.06642,38.384506]}},
{ "type": "Feature", "properties": {"Name":"Edgerton city","State":"Kansas","State_Abbrev":"KS"},
"geometry":{ "type": "Point", "coordinates": [-94.943611,38.790773]}},
{ "type": "Feature", "properties": {"Name":"Edmond city","State":"Kansas","State_Abbrev":"KS"},
"geometry":{ "type": "Point", "coordinates": [-99.819865,39.627144]}},
{ "type": "Feature", "properties": {"Name":"Edna city","State":"Kansas","State_Abbrev":"KS"},
"geometry":{ "type": "Point", "coordinates": [-95.359175,37.058485]}},
{ "type": "Feature", "properties": {"Name":"Edson CDP","State":"Kansas","State_Abbrev":"KS"},
"geometry":{ "type": "Point", "coordinates": [-101.549499,39.33496]}},
{ "type": "Feature", "properties": {"Name":"Edwardsville city","State":"Kansas","State_Abbrev":"KS"},
"geometry":{ "type": "Point", "coordinates": [-94.818818,39.078168]}},
{ "type": "Feature", "properties": {"Name":"Effingham city","State":"Kansas","State_Abbrev":"KS"},
"geometry":{ "type": "Point", "coordinates": [-95.396919,39.522909]}},
{ "type": "Feature", "properties": {"Name":"Elbing city","State":"Kansas","State_Abbrev":"KS"},
"geometry":{ "type": "Point", "coordinates": [-97.128336,38.05341]}},
{ "type": "Feature", "properties": {"Name":"El Dorado city","State":"Kansas","State_Abbrev":"KS"},
"geometry":{ "type": "Point", "coordinates": [-96.861603,37.820459]}},
{ "type": "Feature", "properties": {"Name":"Elgin city","State":"Kansas","State_Abbrev":"KS"},
"geometry":{ "type": "Point", "coordinates": [-96.280647,37.001645]}},
{ "type": "Feature", "properties": {"Name":"Elk City city","State":"Kansas","State_Abbrev":"KS"},
"geometry":{ "type": "Point", "coordinates": [-95.910317,37.289083]}},
{ "type": "Feature", "properties": {"Name":"Elk Falls city","State":"Kansas","State_Abbrev":"KS"},
"geometry":{ "type": "Point", "coordinates": [-96.192904,37.372961]}},
{ "type": "Feature", "properties": {"Name":"Elkhart city","State":"Kansas","State_Abbrev":"KS"},
"geometry":{ "type": "Point", "coordinates": [-101.894418,37.003754]}},
{ "type": "Feature", "properties": {"Name":"Ellinwood city","State":"Kansas","State_Abbrev":"KS"},
"geometry":{ "type": "Point", "coordinates": [-98.583656,38.357359]}},
{ "type": "Feature", "properties": {"Name":"Ellis city","State":"Kansas","State_Abbrev":"KS"},
"geometry":{ "type": "Point", "coordinates": [-99.556791,38.934654]}},
{ "type": "Feature", "properties": {"Name":"Ellsworth city","State":"Kansas","State_Abbrev":"KS"},
"geometry":{ "type": "Point", "coordinates": [-98.228568,38.732638]}},
{ "type": "Feature", "properties": {"Name":"Elmdale city","State":"Kansas","State_Abbrev":"KS"},
"geometry":{ "type": "Point", "coordinates": [-96.645988,38.372965]}},
{ "type": "Feature", "properties": {"Name":"Elsmore city","State":"Kansas","State_Abbrev":"KS"},
"geometry":{ "type": "Point", "coordinates": [-95.149913,37.794175]}},
{ "type": "Feature", "properties": {"Name":"Elwood city","State":"Kansas","State_Abbrev":"KS"},
"geometry":{ "type": "Point", "coordinates": [-94.893411,39.751505]}},
{ "type": "Feature", "properties": {"Name":"Elyria CDP","State":"Kansas","State_Abbrev":"KS"},
"geometry":{ "type": "Point", "coordinates": [-97.633885,38.289582]}},
{ "type": "Feature", "properties": {"Name":"Emmett city","State":"Kansas","State_Abbrev":"KS"},
"geometry":{ "type": "Point", "coordinates": [-96.057609,39.307314]}},
{ "type": "Feature", "properties": {"Name":"Emporia city","State":"Kansas","State_Abbrev":"KS"},
"geometry":{ "type": "Point", "coordinates": [-96.192906,38.402869]}},
{ "type": "Feature", "properties": {"Name":"Englewood city","State":"Kansas","State_Abbrev":"KS"},
"geometry":{ "type": "Point", "coordinates": [-99.987616,37.040449]}},
{ "type": "Feature", "properties": {"Name":"Ensign city","State":"Kansas","State_Abbrev":"KS"},
"geometry":{ "type": "Point", "coordinates": [-100.232823,37.653118]}},
{ "type": "Feature", "properties": {"Name":"Enterprise city","State":"Kansas","State_Abbrev":"KS"},
"geometry":{ "type": "Point", "coordinates": [-97.116367,38.903403]}},
{ "type": "Feature", "properties": {"Name":"Erie city","State":"Kansas","State_Abbrev":"KS"},
"geometry":{ "type": "Point", "coordinates": [-95.241786,37.571658]}},
{ "type": "Feature", "properties": {"Name":"Esbon city","State":"Kansas","State_Abbrev":"KS"},
"geometry":{ "type": "Point", "coordinates": [-98.433716,39.821841]}},
{ "type": "Feature", "properties": {"Name":"Eskridge city","State":"Kansas","State_Abbrev":"KS"},
"geometry":{ "type": "Point", "coordinates": [-96.105262,38.859508]}},
{ "type": "Feature", "properties": {"Name":"Eudora city","State":"Kansas","State_Abbrev":"KS"},
"geometry":{ "type": "Point", "coordinates": [-95.094123,38.934664]}},
{ "type": "Feature", "properties": {"Name":"Eureka city","State":"Kansas","State_Abbrev":"KS"},
"geometry":{ "type": "Point", "coordinates": [-96.289001,37.826047]}},
{ "type": "Feature", "properties": {"Name":"Everest city","State":"Kansas","State_Abbrev":"KS"},
"geometry":{ "type": "Point", "coordinates": [-95.424757,39.676974]}},
{ "type": "Feature", "properties": {"Name":"Fairview city","State":"Kansas","State_Abbrev":"KS"},
"geometry":{ "type": "Point", "coordinates": [-95.728101,39.839579]}},
{ "type": "Feature", "properties": {"Name":"Fairway city","State":"Kansas","State_Abbrev":"KS"},
"geometry":{ "type": "Point", "coordinates": [-94.628718,39.024525]}},
{ "type": "Feature", "properties": {"Name":"Fall River city","State":"Kansas","State_Abbrev":"KS"},
"geometry":{ "type": "Point", "coordinates": [-96.028555,37.607772]}},
{ "type": "Feature", "properties": {"Name":"Falun CDP","State":"Kansas","State_Abbrev":"KS"},
"geometry":{ "type": "Point", "coordinates": [-97.751145,38.674449]}},
{ "type": "Feature", "properties": {"Name":"Farlington CDP","State":"Kansas","State_Abbrev":"KS"},
"geometry":{ "type": "Point", "coordinates": [-94.822662,37.615415]}},
{ "type": "Feature", "properties": {"Name":"Florence city","State":"Kansas","State_Abbrev":"KS"},
"geometry":{ "type": "Point", "coordinates": [-96.929155,38.243075]}},
{ "type": "Feature", "properties": {"Name":"Fontana city","State":"Kansas","State_Abbrev":"KS"},
"geometry":{ "type": "Point", "coordinates": [-94.844657,38.421515]}},
{ "type": "Feature", "properties": {"Name":"Ford city","State":"Kansas","State_Abbrev":"KS"},
"geometry":{ "type": "Point", "coordinates": [-99.753778,37.636652]}},
{ "type": "Feature", "properties": {"Name":"Formoso city","State":"Kansas","State_Abbrev":"KS"},
"geometry":{ "type": "Point", "coordinates": [-97.992873,39.77848]}},
{ "type": "Feature", "properties": {"Name":"Fort Dodge CDP","State":"Kansas","State_Abbrev":"KS"},
"geometry":{ "type": "Point", "coordinates": [-99.937003,37.730399]}},
{ "type": "Feature", "properties": {"Name":"Fort Riley CDP","State":"Kansas","State_Abbrev":"KS"},
"geometry":{ "type": "Point", "coordinates": [-96.812547,39.106344]}},
{ "type": "Feature", "properties": {"Name":"Fort Scott city","State":"Kansas","State_Abbrev":"KS"},
"geometry":{ "type": "Point", "coordinates": [-94.704141,37.828]}},
{ "type": "Feature", "properties": {"Name":"Fowler city","State":"Kansas","State_Abbrev":"KS"},
"geometry":{ "type": "Point", "coordinates": [-100.195793,37.383265]}},
{ "type": "Feature", "properties": {"Name":"Frankfort city","State":"Kansas","State_Abbrev":"KS"},
"geometry":{ "type": "Point", "coordinates": [-96.417807,39.704121]}},
{ "type": "Feature", "properties": {"Name":"Franklin CDP","State":"Kansas","State_Abbrev":"KS"},
"geometry":{ "type": "Point", "coordinates": [-94.696366,37.519979]}},
{ "type": "Feature", "properties": {"Name":"Frederick city","State":"Kansas","State_Abbrev":"KS"},
"geometry":{ "type": "Point", "coordinates": [-98.267582,38.512859]}},
{ "type": "Feature", "properties": {"Name":"Fredonia city","State":"Kansas","State_Abbrev":"KS"},
"geometry":{ "type": "Point", "coordinates": [-95.822348,37.533095]}},
{ "type": "Feature", "properties": {"Name":"Frontenac city","State":"Kansas","State_Abbrev":"KS"},
"geometry":{ "type": "Point", "coordinates": [-94.700771,37.458763]}},
{ "type": "Feature", "properties": {"Name":"Fulton city","State":"Kansas","State_Abbrev":"KS"},
"geometry":{ "type": "Point", "coordinates": [-94.719734,38.009842]}},
{ "type": "Feature", "properties": {"Name":"Furley CDP","State":"Kansas","State_Abbrev":"KS"},
"geometry":{ "type": "Point", "coordinates": [-97.211869,37.880071]}},
{ "type": "Feature", "properties": {"Name":"Galatia city","State":"Kansas","State_Abbrev":"KS"},
"geometry":{ "type": "Point", "coordinates": [-98.957757,38.641082]}},
{ "type": "Feature", "properties": {"Name":"Galena city","State":"Kansas","State_Abbrev":"KS"},
"geometry":{ "type": "Point", "coordinates": [-94.635517,37.075194]}},
{ "type": "Feature", "properties": {"Name":"Galesburg city","State":"Kansas","State_Abbrev":"KS"},
"geometry":{ "type": "Point", "coordinates": [-95.356398,37.472162]}},
{ "type": "Feature", "properties": {"Name":"Galva city","State":"Kansas","State_Abbrev":"KS"},
"geometry":{ "type": "Point", "coordinates": [-97.53808,38.383604]}},
{ "type": "Feature", "properties": {"Name":"Garden City city","State":"Kansas","State_Abbrev":"KS"},
"geometry":{ "type": "Point", "coordinates": [-100.851659,37.977022]}},
{ "type": "Feature", "properties": {"Name":"Garden Plain city","State":"Kansas","State_Abbrev":"KS"},
"geometry":{ "type": "Point", "coordinates": [-97.677288,37.66225]}},
{ "type": "Feature", "properties": {"Name":"Gardner city","State":"Kansas","State_Abbrev":"KS"},
"geometry":{ "type": "Point", "coordinates": [-94.929226,38.811467]}},
{ "type": "Feature", "properties": {"Name":"Garfield city","State":"Kansas","State_Abbrev":"KS"},
"geometry":{ "type": "Point", "coordinates": [-99.244542,38.077054]}},
{ "type": "Feature", "properties": {"Name":"Garland CDP","State":"Kansas","State_Abbrev":"KS"},
"geometry":{ "type": "Point", "coordinates": [-94.624384,37.730483]}},
{ "type": "Feature", "properties": {"Name":"Garnett city","State":"Kansas","State_Abbrev":"KS"},
"geometry":{ "type": "Point", "coordinates": [-95.241231,38.285873]}},
{ "type": "Feature", "properties": {"Name":"Gas city","State":"Kansas","State_Abbrev":"KS"},
"geometry":{ "type": "Point", "coordinates": [-95.344956,37.92257]}},
{ "type": "Feature", "properties": {"Name":"Gaylord city","State":"Kansas","State_Abbrev":"KS"},
"geometry":{ "type": "Point", "coordinates": [-98.847311,39.646268]}},
{ "type": "Feature", "properties": {"Name":"Gem city","State":"Kansas","State_Abbrev":"KS"},
"geometry":{ "type": "Point", "coordinates": [-100.897249,39.426]}},
{ "type": "Feature", "properties": {"Name":"Geneseo city","State":"Kansas","State_Abbrev":"KS"},
"geometry":{ "type": "Point", "coordinates": [-98.154473,38.51702]}},
{ "type": "Feature", "properties": {"Name":"Geuda Springs city","State":"Kansas","State_Abbrev":"KS"},
"geometry":{ "type": "Point", "coordinates": [-97.150447,37.111447]}},
{ "type": "Feature", "properties": {"Name":"Girard city","State":"Kansas","State_Abbrev":"KS"},
"geometry":{ "type": "Point", "coordinates": [-94.84552,37.508855]}},
{ "type": "Feature", "properties": {"Name":"Glade city","State":"Kansas","State_Abbrev":"KS"},
"geometry":{ "type": "Point", "coordinates": [-99.311557,39.683745]}},
{ "type": "Feature", "properties": {"Name":"Glasco city","State":"Kansas","State_Abbrev":"KS"},
"geometry":{ "type": "Point", "coordinates": [-97.836963,39.361]}},
{ "type": "Feature", "properties": {"Name":"Glen Elder city","State":"Kansas","State_Abbrev":"KS"},
"geometry":{ "type": "Point", "coordinates": [-98.30649,39.500166]}},
{ "type": "Feature", "properties": {"Name":"Goddard city","State":"Kansas","State_Abbrev":"KS"},
"geometry":{ "type": "Point", "coordinates": [-97.55972,37.671803]}},
{ "type": "Feature", "properties": {"Name":"Goessel city","State":"Kansas","State_Abbrev":"KS"},
"geometry":{ "type": "Point", "coordinates": [-97.345742,38.247072]}},
{ "type": "Feature", "properties": {"Name":"Goff city","State":"Kansas","State_Abbrev":"KS"},
"geometry":{ "type": "Point", "coordinates": [-95.931762,39.664116]}},
{ "type": "Feature", "properties": {"Name":"Goodland city","State":"Kansas","State_Abbrev":"KS"},
"geometry":{ "type": "Point", "coordinates": [-101.713819,39.348512]}},
{ "type": "Feature", "properties": {"Name":"Gorham city","State":"Kansas","State_Abbrev":"KS"},
"geometry":{ "type": "Point", "coordinates": [-99.023701,38.880676]}},
{ "type": "Feature", "properties": {"Name":"Gove City city","State":"Kansas","State_Abbrev":"KS"},
"geometry":{ "type": "Point", "coordinates": [-100.487071,38.959462]}},
{ "type": "Feature", "properties": {"Name":"Grainfield city","State":"Kansas","State_Abbrev":"KS"},
"geometry":{ "type": "Point", "coordinates": [-100.468369,39.114283]}},
{ "type": "Feature", "properties": {"Name":"Grandview Plaza city","State":"Kansas","State_Abbrev":"KS"},
"geometry":{ "type": "Point", "coordinates": [-96.792765,39.032811]}},
{ "type": "Feature", "properties": {"Name":"Grantville CDP","State":"Kansas","State_Abbrev":"KS"},
"geometry":{ "type": "Point", "coordinates": [-95.561169,39.080594]}},
{ "type": "Feature", "properties": {"Name":"Great Bend city","State":"Kansas","State_Abbrev":"KS"},
"geometry":{ "type": "Point", "coordinates": [-98.799514,38.359792]}},
{ "type": "Feature", "properties": {"Name":"Greeley city","State":"Kansas","State_Abbrev":"KS"},
"geometry":{ "type": "Point", "coordinates": [-95.126349,38.367374]}},
{ "type": "Feature", "properties": {"Name":"Greeley County unified government (balance)","State":"Kansas","State_Abbrev":"KS"},
"geometry":{ "type": "Point", "coordinates": [-101.806024,38.480413]}},
{ "type": "Feature", "properties": {"Name":"Green city","State":"Kansas","State_Abbrev":"KS"},
"geometry":{ "type": "Point", "coordinates": [-96.999896,39.430124]}},
{ "type": "Feature", "properties": {"Name":"Greenleaf city","State":"Kansas","State_Abbrev":"KS"},
"geometry":{ "type": "Point", "coordinates": [-96.979827,39.726706]}},
{ "type": "Feature", "properties": {"Name":"Greensburg city","State":"Kansas","State_Abbrev":"KS"},
"geometry":{ "type": "Point", "coordinates": [-99.289569,37.604875]}},
{ "type": "Feature", "properties": {"Name":"Greenwich CDP","State":"Kansas","State_Abbrev":"KS"},
"geometry":{ "type": "Point", "coordinates": [-97.203149,37.783374]}},
{ "type": "Feature", "properties": {"Name":"Grenola city","State":"Kansas","State_Abbrev":"KS"},
"geometry":{ "type": "Point", "coordinates": [-96.449671,37.350289]}},
{ "type": "Feature", "properties": {"Name":"Gridley city","State":"Kansas","State_Abbrev":"KS"},
"geometry":{ "type": "Point", "coordinates": [-95.881541,38.10105]}},
{ "type": "Feature", "properties": {"Name":"Grinnell city","State":"Kansas","State_Abbrev":"KS"},
"geometry":{ "type": "Point", "coordinates": [-100.631071,39.126617]}},
{ "type": "Feature", "properties": {"Name":"Gypsum city","State":"Kansas","State_Abbrev":"KS"},
"geometry":{ "type": "Point", "coordinates": [-97.426623,38.705775]}},
{ "type": "Feature", "properties": {"Name":"Haddam city","State":"Kansas","State_Abbrev":"KS"},
"geometry":{ "type": "Point", "coordinates": [-97.304262,39.855282]}},
{ "type": "Feature", "properties": {"Name":"Hallowell CDP","State":"Kansas","State_Abbrev":"KS"},
"geometry":{ "type": "Point", "coordinates": [-95.002735,37.173362]}},
{ "type": "Feature", "properties": {"Name":"Halstead city","State":"Kansas","State_Abbrev":"KS"},
"geometry":{ "type": "Point", "coordinates": [-97.510205,37.999984]}},
{ "type": "Feature", "properties": {"Name":"Hamilton city","State":"Kansas","State_Abbrev":"KS"},
"geometry":{ "type": "Point", "coordinates": [-96.163836,37.980583]}},
{ "type": "Feature", "properties": {"Name":"Hamlin city","State":"Kansas","State_Abbrev":"KS"},
"geometry":{ "type": "Point", "coordinates": [-95.62754,39.915513]}},
{ "type": "Feature", "properties": {"Name":"Hanover city","State":"Kansas","State_Abbrev":"KS"},
"geometry":{ "type": "Point", "coordinates": [-96.875067,39.89317]}},
{ "type": "Feature", "properties": {"Name":"Hanston city","State":"Kansas","State_Abbrev":"KS"},
"geometry":{ "type": "Point", "coordinates": [-99.712712,38.123008]}},
{ "type": "Feature", "properties": {"Name":"Hardtner city","State":"Kansas","State_Abbrev":"KS"},
"geometry":{ "type": "Point", "coordinates": [-98.649178,37.014417]}},
{ "type": "Feature", "properties": {"Name":"Harper city","State":"Kansas","State_Abbrev":"KS"},
"geometry":{ "type": "Point", "coordinates": [-98.027592,37.285072]}},
{ "type": "Feature", "properties": {"Name":"Harris CDP","State":"Kansas","State_Abbrev":"KS"},
"geometry":{ "type": "Point", "coordinates": [-95.447459,38.320836]}},
{ "type": "Feature", "properties": {"Name":"Hartford city","State":"Kansas","State_Abbrev":"KS"},
"geometry":{ "type": "Point", "coordinates": [-95.956649,38.308378]}},
{ "type": "Feature", "properties": {"Name":"Harveyville city","State":"Kansas","State_Abbrev":"KS"},
"geometry":{ "type": "Point", "coordinates": [-95.962523,38.789117]}},
{ "type": "Feature", "properties": {"Name":"Havana city","State":"Kansas","State_Abbrev":"KS"},
"geometry":{ "type": "Point", "coordinates": [-95.941917,37.092113]}},
{ "type": "Feature", "properties": {"Name":"Haven city","State":"Kansas","State_Abbrev":"KS"},
"geometry":{ "type": "Point", "coordinates": [-97.783094,37.901633]}},
{ "type": "Feature", "properties": {"Name":"Havensville city","State":"Kansas","State_Abbrev":"KS"},
"geometry":{ "type": "Point", "coordinates": [-96.076352,39.511228]}},
{ "type": "Feature", "properties": {"Name":"Haviland city","State":"Kansas","State_Abbrev":"KS"},
"geometry":{ "type": "Point", "coordinates": [-99.105821,37.617413]}},
{ "type": "Feature", "properties": {"Name":"Hays city","State":"Kansas","State_Abbrev":"KS"},
"geometry":{ "type": "Point", "coordinates": [-99.322225,38.882227]}},
{ "type": "Feature", "properties": {"Name":"Haysville city","State":"Kansas","State_Abbrev":"KS"},
"geometry":{ "type": "Point", "coordinates": [-97.353513,37.566059]}},
{ "type": "Feature", "properties": {"Name":"Hazelton city","State":"Kansas","State_Abbrev":"KS"},
"geometry":{ "type": "Point", "coordinates": [-98.401541,37.089447]}},
{ "type": "Feature", "properties": {"Name":"Healy CDP","State":"Kansas","State_Abbrev":"KS"},
"geometry":{ "type": "Point", "coordinates": [-100.61759,38.603042]}},
{ "type": "Feature", "properties": {"Name":"Hepler city","State":"Kansas","State_Abbrev":"KS"},
"geometry":{ "type": "Point", "coordinates": [-94.969967,37.663398]}},
{ "type": "Feature", "properties": {"Name":"Herington city","State":"Kansas","State_Abbrev":"KS"},
"geometry":{ "type": "Point", "coordinates": [-96.807236,38.696867]}},
{ "type": "Feature", "properties": {"Name":"Herkimer CDP","State":"Kansas","State_Abbrev":"KS"},
"geometry":{ "type": "Point", "coordinates": [-96.708932,39.892367]}},
{ "type": "Feature", "properties": {"Name":"Herndon city","State":"Kansas","State_Abbrev":"KS"},
"geometry":{ "type": "Point", "coordinates": [-100.786496,39.90916]}},
{ "type": "Feature", "properties": {"Name":"Hesston city","State":"Kansas","State_Abbrev":"KS"},
"geometry":{ "type": "Point", "coordinates": [-97.426984,38.140072]}},
{ "type": "Feature", "properties": {"Name":"Hiawatha city","State":"Kansas","State_Abbrev":"KS"},
"geometry":{ "type": "Point", "coordinates": [-95.537965,39.851686]}},
{ "type": "Feature", "properties": {"Name":"Highland city","State":"Kansas","State_Abbrev":"KS"},
"geometry":{ "type": "Point", "coordinates": [-95.265269,39.860407]}},
{ "type": "Feature", "properties": {"Name":"Hill City city","State":"Kansas","State_Abbrev":"KS"},
"geometry":{ "type": "Point", "coordinates": [-99.846041,39.367067]}},
{ "type": "Feature", "properties": {"Name":"Hillsboro city","State":"Kansas","State_Abbrev":"KS"},
"geometry":{ "type": "Point", "coordinates": [-97.199572,38.352652]}},
{ "type": "Feature", "properties": {"Name":"Hillsdale CDP","State":"Kansas","State_Abbrev":"KS"},
"geometry":{ "type": "Point", "coordinates": [-94.856905,38.661396]}},
{ "type": "Feature", "properties": {"Name":"Hoisington city","State":"Kansas","State_Abbrev":"KS"},
"geometry":{ "type": "Point", "coordinates": [-98.777375,38.518063]}},
{ "type": "Feature", "properties": {"Name":"Holcomb city","State":"Kansas","State_Abbrev":"KS"},
"geometry":{ "type": "Point", "coordinates": [-100.993619,37.985983]}},
{ "type": "Feature", "properties": {"Name":"Hollenberg city","State":"Kansas","State_Abbrev":"KS"},
"geometry":{ "type": "Point", "coordinates": [-96.991914,39.98105]}},
{ "type": "Feature", "properties": {"Name":"Holton city","State":"Kansas","State_Abbrev":"KS"},
"geometry":{ "type": "Point", "coordinates": [-95.732555,39.469861]}},
{ "type": "Feature", "properties": {"Name":"Holyrood city","State":"Kansas","State_Abbrev":"KS"},
"geometry":{ "type": "Point", "coordinates": [-98.411804,38.587234]}},
{ "type": "Feature", "properties": {"Name":"Home CDP","State":"Kansas","State_Abbrev":"KS"},
"geometry":{ "type": "Point", "coordinates": [-96.519378,39.841028]}},
{ "type": "Feature", "properties": {"Name":"Hope city","State":"Kansas","State_Abbrev":"KS"},
"geometry":{ "type": "Point", "coordinates": [-97.076496,38.691222]}},
{ "type": "Feature", "properties": {"Name":"Horace city","State":"Kansas","State_Abbrev":"KS"},
"geometry":{ "type": "Point", "coordinates": [-101.790499,38.476841]}},
{ "type": "Feature", "properties": {"Name":"Horton city","State":"Kansas","State_Abbrev":"KS"},
"geometry":{ "type": "Point", "coordinates": [-95.532532,39.663791]}},
{ "type": "Feature", "properties": {"Name":"Howard city","State":"Kansas","State_Abbrev":"KS"},
"geometry":{ "type": "Point", "coordinates": [-96.263043,37.469434]}},
{ "type": "Feature", "properties": {"Name":"Hoxie city","State":"Kansas","State_Abbrev":"KS"},
"geometry":{ "type": "Point", "coordinates": [-100.439844,39.355828]}},
{ "type": "Feature", "properties": {"Name":"Hoyt city","State":"Kansas","State_Abbrev":"KS"},
"geometry":{ "type": "Point", "coordinates": [-95.707921,39.249358]}},
{ "type": "Feature", "properties": {"Name":"Hudson city","State":"Kansas","State_Abbrev":"KS"},
"geometry":{ "type": "Point", "coordinates": [-98.660685,38.104878]}},
{ "type": "Feature", "properties": {"Name":"Hugoton city","State":"Kansas","State_Abbrev":"KS"},
"geometry":{ "type": "Point", "coordinates": [-101.344693,37.174515]}},
{ "type": "Feature", "properties": {"Name":"Humboldt city","State":"Kansas","State_Abbrev":"KS"},
"geometry":{ "type": "Point", "coordinates": [-95.436146,37.812392]}},
{ "type": "Feature", "properties": {"Name":"Hunnewell city","State":"Kansas","State_Abbrev":"KS"},
"geometry":{ "type": "Point", "coordinates": [-97.407613,37.004128]}},
{ "type": "Feature", "properties": {"Name":"Hunter city","State":"Kansas","State_Abbrev":"KS"},
"geometry":{ "type": "Point", "coordinates": [-98.396117,39.235043]}},
{ "type": "Feature", "properties": {"Name":"Huron city","State":"Kansas","State_Abbrev":"KS"},
"geometry":{ "type": "Point", "coordinates": [-95.351199,39.638233]}},
{ "type": "Feature", "properties": {"Name":"Hutchinson city","State":"Kansas","State_Abbrev":"KS"},
"geometry":{ "type": "Point", "coordinates": [-97.90952,38.067291]}},
{ "type": "Feature", "properties": {"Name":"Idana CDP","State":"Kansas","State_Abbrev":"KS"},
"geometry":{ "type": "Point", "coordinates": [-97.266409,39.361521]}},
{ "type": "Feature", "properties": {"Name":"Independence city","State":"Kansas","State_Abbrev":"KS"},
"geometry":{ "type": "Point", "coordinates": [-95.71363,37.232948]}},
{ "type": "Feature", "properties": {"Name":"Ingalls city","State":"Kansas","State_Abbrev":"KS"},
"geometry":{ "type": "Point", "coordinates": [-100.453323,37.828578]}},
{ "type": "Feature", "properties": {"Name":"Inman city","State":"Kansas","State_Abbrev":"KS"},
"geometry":{ "type": "Point", "coordinates": [-97.772212,38.232423]}},
{ "type": "Feature", "properties": {"Name":"Iola city","State":"Kansas","State_Abbrev":"KS"},
"geometry":{ "type": "Point", "coordinates": [-95.400669,37.927427]}},
{ "type": "Feature", "properties": {"Name":"Ionia CDP","State":"Kansas","State_Abbrev":"KS"},
"geometry":{ "type": "Point", "coordinates": [-98.343964,39.662632]}},
{ "type": "Feature", "properties": {"Name":"Isabel city","State":"Kansas","State_Abbrev":"KS"},
"geometry":{ "type": "Point", "coordinates": [-98.551517,37.467151]}},
{ "type": "Feature", "properties": {"Name":"Iuka city","State":"Kansas","State_Abbrev":"KS"},
"geometry":{ "type": "Point", "coordinates": [-98.732717,37.729006]}},
{ "type": "Feature", "properties": {"Name":"Jamestown city","State":"Kansas","State_Abbrev":"KS"},
"geometry":{ "type": "Point", "coordinates": [-97.861255,39.599548]}},
{ "type": "Feature", "properties": {"Name":"Jennings city","State":"Kansas","State_Abbrev":"KS"},
"geometry":{ "type": "Point", "coordinates": [-100.293208,39.680547]}},
{ "type": "Feature", "properties": {"Name":"Jetmore city","State":"Kansas","State_Abbrev":"KS"},
"geometry":{ "type": "Point", "coordinates": [-99.8847,37.98662]}},
{ "type": "Feature", "properties": {"Name":"Jewell city","State":"Kansas","State_Abbrev":"KS"},
"geometry":{ "type": "Point", "coordinates": [-98.152408,39.671551]}},
{ "type": "Feature", "properties": {"Name":"Johnson City city","State":"Kansas","State_Abbrev":"KS"},
"geometry":{ "type": "Point", "coordinates": [-101.744783,37.570442]}},
{ "type": "Feature", "properties": {"Name":"Junction City city","State":"Kansas","State_Abbrev":"KS"},
"geometry":{ "type": "Point", "coordinates": [-96.852271,39.02722]}},
{ "type": "Feature", "properties": {"Name":"Kanopolis city","State":"Kansas","State_Abbrev":"KS"},
"geometry":{ "type": "Point", "coordinates": [-98.158069,38.708111]}},
{ "type": "Feature", "properties": {"Name":"Kanorado city","State":"Kansas","State_Abbrev":"KS"},
"geometry":{ "type": "Point", "coordinates": [-102.037255,39.336542]}},
{ "type": "Feature", "properties": {"Name":"Kansas City city","State":"Kansas","State_Abbrev":"KS"},
"geometry":{ "type": "Point", "coordinates": [-94.741781,39.122539]}},
{ "type": "Feature", "properties": {"Name":"Keats CDP","State":"Kansas","State_Abbrev":"KS"},
"geometry":{ "type": "Point", "coordinates": [-96.707417,39.216782]}},
{ "type": "Feature", "properties": {"Name":"Kechi city","State":"Kansas","State_Abbrev":"KS"},
"geometry":{ "type": "Point", "coordinates": [-97.26646,37.794756]}},
{ "type": "Feature", "properties": {"Name":"Kelly CDP","State":"Kansas","State_Abbrev":"KS"},
"geometry":{ "type": "Point", "coordinates": [-96.000723,39.736844]}},
{ "type": "Feature", "properties": {"Name":"Kensington city","State":"Kansas","State_Abbrev":"KS"},
"geometry":{ "type": "Point", "coordinates": [-99.03285,39.766702]}},
{ "type": "Feature", "properties": {"Name":"Kickapoo Site 1 CDP","State":"Kansas","State_Abbrev":"KS"},
"geometry":{ "type": "Point", "coordinates": [-95.648428,39.714452]}},
{ "type": "Feature", "properties": {"Name":"Kickapoo Site 2 CDP","State":"Kansas","State_Abbrev":"KS"},
"geometry":{ "type": "Point", "coordinates": [-95.649533,39.702941]}},
{ "type": "Feature", "properties": {"Name":"Kickapoo Site 5 CDP","State":"Kansas","State_Abbrev":"KS"},
"geometry":{ "type": "Point", "coordinates": [-95.684199,39.673481]}},
{ "type": "Feature", "properties": {"Name":"Kickapoo Site 6 CDP","State":"Kansas","State_Abbrev":"KS"},
"geometry":{ "type": "Point", "coordinates": [-95.690494,39.691751]}},
{ "type": "Feature", "properties": {"Name":"Kickapoo Site 7 CDP","State":"Kansas","State_Abbrev":"KS"},
"geometry":{ "type": "Point", "coordinates": [-95.671328,39.689531]}},
{ "type": "Feature", "properties": {"Name":"Kickapoo Tribal Center CDP","State":"Kansas","State_Abbrev":"KS"},
"geometry":{ "type": "Point", "coordinates": [-95.645276,39.672245]}},
{ "type": "Feature", "properties": {"Name":"Kincaid city","State":"Kansas","State_Abbrev":"KS"},
"geometry":{ "type": "Point", "coordinates": [-95.156157,38.080732]}},
{ "type": "Feature", "properties": {"Name":"Kingman city","State":"Kansas","State_Abbrev":"KS"},
"geometry":{ "type": "Point", "coordinates": [-98.115993,37.647712]}},
{ "type": "Feature", "properties": {"Name":"Kinsley city","State":"Kansas","State_Abbrev":"KS"},
"geometry":{ "type": "Point", "coordinates": [-99.411407,37.922377]}},
{ "type": "Feature", "properties": {"Name":"Kiowa city","State":"Kansas","State_Abbrev":"KS"},
"geometry":{ "type": "Point", "coordinates": [-98.484819,37.017405]}},
{ "type": "Feature", "properties": {"Name":"Kipp CDP","State":"Kansas","State_Abbrev":"KS"},
"geometry":{ "type": "Point", "coordinates": [-97.456822,38.78499]}},
{ "type": "Feature", "properties": {"Name":"Kirwin city","State":"Kansas","State_Abbrev":"KS"},
"geometry":{ "type": "Point", "coordinates": [-99.12175,39.669807]}},
{ "type": "Feature", "properties": {"Name":"Kismet city","State":"Kansas","State_Abbrev":"KS"},
"geometry":{ "type": "Point", "coordinates": [-100.70166,37.204485]}},
{ "type": "Feature", "properties": {"Name":"Labette city","State":"Kansas","State_Abbrev":"KS"},
"geometry":{ "type": "Point", "coordinates": [-95.18355,37.230015]}},
{ "type": "Feature", "properties": {"Name":"La Crosse city","State":"Kansas","State_Abbrev":"KS"},
"geometry":{ "type": "Point", "coordinates": [-99.309498,38.531837]}},
{ "type": "Feature", "properties": {"Name":"La Cygne city","State":"Kansas","State_Abbrev":"KS"},
"geometry":{ "type": "Point", "coordinates": [-94.761793,38.347833]}},
{ "type": "Feature", "properties": {"Name":"Lafontaine CDP","State":"Kansas","State_Abbrev":"KS"},
"geometry":{ "type": "Point", "coordinates": [-95.842408,37.399839]}},
{ "type": "Feature", "properties": {"Name":"La Harpe city","State":"Kansas","State_Abbrev":"KS"},
"geometry":{ "type": "Point", "coordinates": [-95.30305,37.916446]}},
{ "type": "Feature", "properties": {"Name":"Lake City CDP","State":"Kansas","State_Abbrev":"KS"},
"geometry":{ "type": "Point", "coordinates": [-98.827864,37.356957]}},
{ "type": "Feature", "properties": {"Name":"Lake Quivira city","State":"Kansas","State_Abbrev":"KS"},
"geometry":{ "type": "Point", "coordinates": [-94.768526,39.04019]}},
{ "type": "Feature", "properties": {"Name":"Lakin city","State":"Kansas","State_Abbrev":"KS"},
"geometry":{ "type": "Point", "coordinates": [-101.258444,37.940016]}},
{ "type": "Feature", "properties": {"Name":"Lancaster city","State":"Kansas","State_Abbrev":"KS"},
"geometry":{ "type": "Point", "coordinates": [-95.303712,39.571159]}},
{ "type": "Feature", "properties": {"Name":"Lane city","State":"Kansas","State_Abbrev":"KS"},
"geometry":{ "type": "Point", "coordinates": [-95.082091,38.440047]}},
{ "type": "Feature", "properties": {"Name":"Langdon city","State":"Kansas","State_Abbrev":"KS"},
"geometry":{ "type": "Point", "coordinates": [-98.32418,37.853192]}},
{ "type": "Feature", "properties": {"Name":"Lansing city","State":"Kansas","State_Abbrev":"KS"},
"geometry":{ "type": "Point", "coordinates": [-94.89632,39.242592]}},
{ "type": "Feature", "properties": {"Name":"Larned city","State":"Kansas","State_Abbrev":"KS"},
"geometry":{ "type": "Point", "coordinates": [-99.101261,38.18339]}},
{ "type": "Feature", "properties": {"Name":"Latham city","State":"Kansas","State_Abbrev":"KS"},
"geometry":{ "type": "Point", "coordinates": [-96.642529,37.535587]}},
{ "type": "Feature", "properties": {"Name":"Latimer city","State":"Kansas","State_Abbrev":"KS"},
"geometry":{ "type": "Point", "coordinates": [-96.84596,38.738592]}},
{ "type": "Feature", "properties": {"Name":"Lawrence city","State":"Kansas","State_Abbrev":"KS"},
"geometry":{ "type": "Point", "coordinates": [-95.26293,38.960029]}},
{ "type": "Feature", "properties": {"Name":"Leavenworth city","State":"Kansas","State_Abbrev":"KS"},
"geometry":{ "type": "Point", "coordinates": [-94.925013,39.322717]}},
{ "type": "Feature", "properties": {"Name":"Leawood city","State":"Kansas","State_Abbrev":"KS"},
"geometry":{ "type": "Point", "coordinates": [-94.62524,38.907263]}},
{ "type": "Feature", "properties": {"Name":"Lebanon city","State":"Kansas","State_Abbrev":"KS"},
"geometry":{ "type": "Point", "coordinates": [-98.557294,39.810176]}},
{ "type": "Feature", "properties": {"Name":"Lebo city","State":"Kansas","State_Abbrev":"KS"},
"geometry":{ "type": "Point", "coordinates": [-95.862482,38.416179]}},
{ "type": "Feature", "properties": {"Name":"Lecompton city","State":"Kansas","State_Abbrev":"KS"},
"geometry":{ "type": "Point", "coordinates": [-95.395034,39.025851]}},
{ "type": "Feature", "properties": {"Name":"Lehigh city","State":"Kansas","State_Abbrev":"KS"},
"geometry":{ "type": "Point", "coordinates": [-97.30241,38.374407]}},
{ "type": "Feature", "properties": {"Name":"Lenexa city","State":"Kansas","State_Abbrev":"KS"},
"geometry":{ "type": "Point", "coordinates": [-94.803937,38.965268]}},
{ "type": "Feature", "properties": {"Name":"Lenora city","State":"Kansas","State_Abbrev":"KS"},
"geometry":{ "type": "Point", "coordinates": [-100.001406,39.610868]}},
{ "type": "Feature", "properties": {"Name":"Leon city","State":"Kansas","State_Abbrev":"KS"},
"geometry":{ "type": "Point", "coordinates": [-96.783768,37.689754]}},
{ "type": "Feature", "properties": {"Name":"Leona city","State":"Kansas","State_Abbrev":"KS"},
"geometry":{ "type": "Point", "coordinates": [-95.321367,39.785986]}},
{ "type": "Feature", "properties": {"Name":"Leonardville city","State":"Kansas","State_Abbrev":"KS"},
"geometry":{ "type": "Point", "coordinates": [-96.859679,39.364084]}},
{ "type": "Feature", "properties": {"Name":"Leoti city","State":"Kansas","State_Abbrev":"KS"},
"geometry":{ "type": "Point", "coordinates": [-101.357648,38.483388]}},
{ "type": "Feature", "properties": {"Name":"LeRoy city","State":"Kansas","State_Abbrev":"KS"},
"geometry":{ "type": "Point", "coordinates": [-95.63297,38.085957]}},
{ "type": "Feature", "properties": {"Name":"Levant CDP","State":"Kansas","State_Abbrev":"KS"},
"geometry":{ "type": "Point", "coordinates": [-101.194773,39.388111]}},
{ "type": "Feature", "properties": {"Name":"Lewis city","State":"Kansas","State_Abbrev":"KS"},
"geometry":{ "type": "Point", "coordinates": [-99.254671,37.937028]}},
{ "type": "Feature", "properties": {"Name":"Liberal city","State":"Kansas","State_Abbrev":"KS"},
"geometry":{ "type": "Point", "coordinates": [-100.927706,37.046108]}},
{ "type": "Feature", "properties": {"Name":"Liberty city","State":"Kansas","State_Abbrev":"KS"},
"geometry":{ "type": "Point", "coordinates": [-95.597674,37.156361]}},
{ "type": "Feature", "properties": {"Name":"Liebenthal city","State":"Kansas","State_Abbrev":"KS"},
"geometry":{ "type": "Point", "coordinates": [-99.320027,38.654479]}},
{ "type": "Feature", "properties": {"Name":"Lincoln Center city","State":"Kansas","State_Abbrev":"KS"},
"geometry":{ "type": "Point", "coordinates": [-98.146737,39.042955]}},
{ "type": "Feature", "properties": {"Name":"Lincolnville city","State":"Kansas","State_Abbrev":"KS"},
"geometry":{ "type": "Point", "coordinates": [-96.961481,38.494273]}},
{ "type": "Feature", "properties": {"Name":"Lindsborg city","State":"Kansas","State_Abbrev":"KS"},
"geometry":{ "type": "Point", "coordinates": [-97.674009,38.577142]}},
{ "type": "Feature", "properties": {"Name":"Linn city","State":"Kansas","State_Abbrev":"KS"},
"geometry":{ "type": "Point", "coordinates": [-97.086794,39.67929]}},
{ "type": "Feature", "properties": {"Name":"Linn Valley city","State":"Kansas","State_Abbrev":"KS"},
"geometry":{ "type": "Point", "coordinates": [-94.710899,38.375386]}},
{ "type": "Feature", "properties": {"Name":"Linwood city","State":"Kansas","State_Abbrev":"KS"},
"geometry":{ "type": "Point", "coordinates": [-95.037101,39.001999]}},
{ "type": "Feature", "properties": {"Name":"Little River city","State":"Kansas","State_Abbrev":"KS"},
"geometry":{ "type": "Point", "coordinates": [-98.014947,38.398214]}},
{ "type": "Feature", "properties": {"Name":"Logan city","State":"Kansas","State_Abbrev":"KS"},
"geometry":{ "type": "Point", "coordinates": [-99.567282,39.661656]}},
{ "type": "Feature", "properties": {"Name":"Lone Elm city","State":"Kansas","State_Abbrev":"KS"},
"geometry":{ "type": "Point", "coordinates": [-95.243056,38.079628]}},
{ "type": "Feature", "properties": {"Name":"Longford city","State":"Kansas","State_Abbrev":"KS"},
"geometry":{ "type": "Point", "coordinates": [-97.329074,39.172096]}},
{ "type": "Feature", "properties": {"Name":"Long Island city","State":"Kansas","State_Abbrev":"KS"},
"geometry":{ "type": "Point", "coordinates": [-99.533914,39.946121]}},
{ "type": "Feature", "properties": {"Name":"Longton city","State":"Kansas","State_Abbrev":"KS"},
"geometry":{ "type": "Point", "coordinates": [-96.081839,37.377463]}},
{ "type": "Feature", "properties": {"Name":"Lorraine city","State":"Kansas","State_Abbrev":"KS"},
"geometry":{ "type": "Point", "coordinates": [-98.317331,38.569049]}},
{ "type": "Feature", "properties": {"Name":"Lost Springs city","State":"Kansas","State_Abbrev":"KS"},
"geometry":{ "type": "Point", "coordinates": [-96.965767,38.566619]}},
{ "type": "Feature", "properties": {"Name":"Louisburg city","State":"Kansas","State_Abbrev":"KS"},
"geometry":{ "type": "Point", "coordinates": [-94.677082,38.620506]}},
{ "type": "Feature", "properties": {"Name":"Louisville city","State":"Kansas","State_Abbrev":"KS"},
"geometry":{ "type": "Point", "coordinates": [-96.314479,39.249865]}},
{ "type": "Feature", "properties": {"Name":"Lowell CDP","State":"Kansas","State_Abbrev":"KS"},
"geometry":{ "type": "Point", "coordinates": [-94.70267,37.051305]}},
{ "type": "Feature", "properties": {"Name":"Lucas city","State":"Kansas","State_Abbrev":"KS"},
"geometry":{ "type": "Point", "coordinates": [-98.537708,39.058653]}},
{ "type": "Feature", "properties": {"Name":"Ludell CDP","State":"Kansas","State_Abbrev":"KS"},
"geometry":{ "type": "Point", "coordinates": [-100.958426,39.856568]}},
{ "type": "Feature", "properties": {"Name":"Luray city","State":"Kansas","State_Abbrev":"KS"},
"geometry":{ "type": "Point", "coordinates": [-98.692151,39.114989]}},
{ "type": "Feature", "properties": {"Name":"Lyndon city","State":"Kansas","State_Abbrev":"KS"},
"geometry":{ "type": "Point", "coordinates": [-95.684424,38.611908]}},
{ "type": "Feature", "properties": {"Name":"Lyons city","State":"Kansas","State_Abbrev":"KS"},
"geometry":{ "type": "Point", "coordinates": [-98.204477,38.346219]}},
{ "type": "Feature", "properties": {"Name":"McConnell AFB CDP","State":"Kansas","State_Abbrev":"KS"},
"geometry":{ "type": "Point", "coordinates": [-97.258492,37.634437]}},
{ "type": "Feature", "properties": {"Name":"McCracken city","State":"Kansas","State_Abbrev":"KS"},
"geometry":{ "type": "Point", "coordinates": [-99.568446,38.582085]}},
{ "type": "Feature", "properties": {"Name":"McCune city","State":"Kansas","State_Abbrev":"KS"},
"geometry":{ "type": "Point", "coordinates": [-95.019203,37.353804]}},
{ "type": "Feature", "properties": {"Name":"McDonald city","State":"Kansas","State_Abbrev":"KS"},
"geometry":{ "type": "Point", "coordinates": [-101.370194,39.784746]}},
{ "type": "Feature", "properties": {"Name":"McFarland city","State":"Kansas","State_Abbrev":"KS"},
"geometry":{ "type": "Point", "coordinates": [-96.237983,39.054691]}},
{ "type": "Feature", "properties": {"Name":"Macksville city","State":"Kansas","State_Abbrev":"KS"},
"geometry":{ "type": "Point", "coordinates": [-98.968862,37.95723]}},
{ "type": "Feature", "properties": {"Name":"McLouth city","State":"Kansas","State_Abbrev":"KS"},
"geometry":{ "type": "Point", "coordinates": [-95.208614,39.196439]}},
{ "type": "Feature", "properties": {"Name":"McPherson city","State":"Kansas","State_Abbrev":"KS"},
"geometry":{ "type": "Point", "coordinates": [-97.660542,38.371214]}},
{ "type": "Feature", "properties": {"Name":"Madison city","State":"Kansas","State_Abbrev":"KS"},
"geometry":{ "type": "Point", "coordinates": [-96.13718,38.133558]}},
{ "type": "Feature", "properties": {"Name":"Mahaska city","State":"Kansas","State_Abbrev":"KS"},
"geometry":{ "type": "Point", "coordinates": [-97.353609,39.987269]}},
{ "type": "Feature", "properties": {"Name":"Maize city","State":"Kansas","State_Abbrev":"KS"},
"geometry":{ "type": "Point", "coordinates": [-97.459134,37.77486]}},
{ "type": "Feature", "properties": {"Name":"Manchester city","State":"Kansas","State_Abbrev":"KS"},
"geometry":{ "type": "Point", "coordinates": [-97.320156,39.093313]}},
{ "type": "Feature", "properties": {"Name":"Manhattan city","State":"Kansas","State_Abbrev":"KS"},
"geometry":{ "type": "Point", "coordinates": [-96.605864,39.188307]}},
{ "type": "Feature", "properties": {"Name":"Mankato city","State":"Kansas","State_Abbrev":"KS"},
"geometry":{ "type": "Point", "coordinates": [-98.208267,39.787339]}},
{ "type": "Feature", "properties": {"Name":"Manter city","State":"Kansas","State_Abbrev":"KS"},
"geometry":{ "type": "Point", "coordinates": [-101.883166,37.524515]}},
{ "type": "Feature", "properties": {"Name":"Maple Hill city","State":"Kansas","State_Abbrev":"KS"},
"geometry":{ "type": "Point", "coordinates": [-96.028015,39.085423]}},
{ "type": "Feature", "properties": {"Name":"Mapleton city","State":"Kansas","State_Abbrev":"KS"},
"geometry":{ "type": "Point", "coordinates": [-94.884081,38.015693]}},
{ "type": "Feature", "properties": {"Name":"Marienthal CDP","State":"Kansas","State_Abbrev":"KS"},
"geometry":{ "type": "Point", "coordinates": [-101.220035,38.48908]}},
{ "type": "Feature", "properties": {"Name":"Marion city","State":"Kansas","State_Abbrev":"KS"},
"geometry":{ "type": "Point", "coordinates": [-97.007777,38.353315]}},
{ "type": "Feature", "properties": {"Name":"Marquette city","State":"Kansas","State_Abbrev":"KS"},
"geometry":{ "type": "Point", "coordinates": [-97.834428,38.555844]}},
{ "type": "Feature", "properties": {"Name":"Marysville city","State":"Kansas","State_Abbrev":"KS"},
"geometry":{ "type": "Point", "coordinates": [-96.638878,39.84369]}},
{ "type": "Feature", "properties": {"Name":"Matfield Green city","State":"Kansas","State_Abbrev":"KS"},
"geometry":{ "type": "Point", "coordinates": [-96.562014,38.159651]}},
{ "type": "Feature", "properties": {"Name":"Mayetta city","State":"Kansas","State_Abbrev":"KS"},
"geometry":{ "type": "Point", "coordinates": [-95.721473,39.338598]}},
{ "type": "Feature", "properties": {"Name":"Mayfield city","State":"Kansas","State_Abbrev":"KS"},
"geometry":{ "type": "Point", "coordinates": [-97.540402,37.263088]}},
{ "type": "Feature", "properties": {"Name":"Meade city","State":"Kansas","State_Abbrev":"KS"},
"geometry":{ "type": "Point", "coordinates": [-100.343022,37.283612]}},
{ "type": "Feature", "properties": {"Name":"Medicine Lodge city","State":"Kansas","State_Abbrev":"KS"},
"geometry":{ "type": "Point", "coordinates": [-98.581185,37.285137]}},
{ "type": "Feature", "properties": {"Name":"Melvern city","State":"Kansas","State_Abbrev":"KS"},
"geometry":{ "type": "Point", "coordinates": [-95.637764,38.507339]}},
{ "type": "Feature", "properties": {"Name":"Menlo city","State":"Kansas","State_Abbrev":"KS"},
"geometry":{ "type": "Point", "coordinates": [-100.72425,39.356106]}},
{ "type": "Feature", "properties": {"Name":"Mentor CDP","State":"Kansas","State_Abbrev":"KS"},
"geometry":{ "type": "Point", "coordinates": [-97.597925,38.740665]}},
{ "type": "Feature", "properties": {"Name":"Meriden city","State":"Kansas","State_Abbrev":"KS"},
"geometry":{ "type": "Point", "coordinates": [-95.568127,39.189512]}},
{ "type": "Feature", "properties": {"Name":"Merriam city","State":"Kansas","State_Abbrev":"KS"},
"geometry":{ "type": "Point", "coordinates": [-94.693955,39.017607]}},
{ "type": "Feature", "properties": {"Name":"Milan city","State":"Kansas","State_Abbrev":"KS"},
"geometry":{ "type": "Point", "coordinates": [-97.673998,37.257474]}},
{ "type": "Feature", "properties": {"Name":"Mildred CDP","State":"Kansas","State_Abbrev":"KS"},
"geometry":{ "type": "Point", "coordinates": [-95.172299,38.024205]}},
{ "type": "Feature", "properties": {"Name":"Milford city","State":"Kansas","State_Abbrev":"KS"},
"geometry":{ "type": "Point", "coordinates": [-96.910427,39.172929]}},
{ "type": "Feature", "properties": {"Name":"Milton CDP","State":"Kansas","State_Abbrev":"KS"},
"geometry":{ "type": "Point", "coordinates": [-97.769393,37.443211]}},
{ "type": "Feature", "properties": {"Name":"Miltonvale city","State":"Kansas","State_Abbrev":"KS"},
"geometry":{ "type": "Point", "coordinates": [-97.452302,39.349571]}},
{ "type": "Feature", "properties": {"Name":"Minneapolis city","State":"Kansas","State_Abbrev":"KS"},
"geometry":{ "type": "Point", "coordinates": [-97.699655,39.124289]}},
{ "type": "Feature", "properties": {"Name":"Minneola city","State":"Kansas","State_Abbrev":"KS"},
"geometry":{ "type": "Point", "coordinates": [-100.013078,37.442029]}},
{ "type": "Feature", "properties": {"Name":"Mission city","State":"Kansas","State_Abbrev":"KS"},
"geometry":{ "type": "Point", "coordinates": [-94.656962,39.026774]}},
{ "type": "Feature", "properties": {"Name":"Mission Hills city","State":"Kansas","State_Abbrev":"KS"},
"geometry":{ "type": "Point", "coordinates": [-94.617552,39.014035]}},
{ "type": "Feature", "properties": {"Name":"Mission Woods city","State":"Kansas","State_Abbrev":"KS"},
"geometry":{ "type": "Point", "coordinates": [-94.610605,39.034188]}},
{ "type": "Feature", "properties": {"Name":"Moline city","State":"Kansas","State_Abbrev":"KS"},
"geometry":{ "type": "Point", "coordinates": [-96.302384,37.36365]}},
{ "type": "Feature", "properties": {"Name":"Montezuma city","State":"Kansas","State_Abbrev":"KS"},
"geometry":{ "type": "Point", "coordinates": [-100.450087,37.59242]}},
{ "type": "Feature", "properties": {"Name":"Mont Ida CDP","State":"Kansas","State_Abbrev":"KS"},
"geometry":{ "type": "Point", "coordinates": [-95.364009,38.216923]}},
{ "type": "Feature", "properties": {"Name":"Monument CDP","State":"Kansas","State_Abbrev":"KS"},
"geometry":{ "type": "Point", "coordinates": [-101.008059,39.104992]}},
{ "type": "Feature", "properties": {"Name":"Moran city","State":"Kansas","State_Abbrev":"KS"},
"geometry":{ "type": "Point", "coordinates": [-95.171429,37.916542]}},
{ "type": "Feature", "properties": {"Name":"Morganville city","State":"Kansas","State_Abbrev":"KS"},
"geometry":{ "type": "Point", "coordinates": [-97.203674,39.466715]}},
{ "type": "Feature", "properties": {"Name":"Morland city","State":"Kansas","State_Abbrev":"KS"},
"geometry":{ "type": "Point", "coordinates": [-100.074352,39.348999]}},
{ "type": "Feature", "properties": {"Name":"Morrill city","State":"Kansas","State_Abbrev":"KS"},
"geometry":{ "type": "Point", "coordinates": [-95.694323,39.929169]}},
{ "type": "Feature", "properties": {"Name":"Morrowville city","State":"Kansas","State_Abbrev":"KS"},
"geometry":{ "type": "Point", "coordinates": [-97.172769,39.845303]}},
{ "type": "Feature", "properties": {"Name":"Moscow city","State":"Kansas","State_Abbrev":"KS"},
"geometry":{ "type": "Point", "coordinates": [-101.206777,37.325106]}},
{ "type": "Feature", "properties": {"Name":"Mound City city","State":"Kansas","State_Abbrev":"KS"},
"geometry":{ "type": "Point", "coordinates": [-94.821245,38.139532]}},
{ "type": "Feature", "properties": {"Name":"Moundridge city","State":"Kansas","State_Abbrev":"KS"},
"geometry":{ "type": "Point", "coordinates": [-97.514802,38.201912]}},
{ "type": "Feature", "properties": {"Name":"Mound Valley city","State":"Kansas","State_Abbrev":"KS"},
"geometry":{ "type": "Point", "coordinates": [-95.404763,37.207018]}},
{ "type": "Feature", "properties": {"Name":"Mount Hope city","State":"Kansas","State_Abbrev":"KS"},
"geometry":{ "type": "Point", "coordinates": [-97.655168,37.872566]}},
{ "type": "Feature", "properties": {"Name":"Mulberry city","State":"Kansas","State_Abbrev":"KS"},
"geometry":{ "type": "Point", "coordinates": [-94.623442,37.556082]}},
{ "type": "Feature", "properties": {"Name":"Mullinville city","State":"Kansas","State_Abbrev":"KS"},
"geometry":{ "type": "Point", "coordinates": [-99.47556,37.588574]}},
{ "type": "Feature", "properties": {"Name":"Mulvane city","State":"Kansas","State_Abbrev":"KS"},
"geometry":{ "type": "Point", "coordinates": [-97.235365,37.476451]}},
{ "type": "Feature", "properties": {"Name":"Munden city","State":"Kansas","State_Abbrev":"KS"},
"geometry":{ "type": "Point", "coordinates": [-97.53845,39.912633]}},
{ "type": "Feature", "properties": {"Name":"Munjor CDP","State":"Kansas","State_Abbrev":"KS"},
"geometry":{ "type": "Point", "coordinates": [-99.267461,38.808856]}},
{ "type": "Feature", "properties": {"Name":"Murdock CDP","State":"Kansas","State_Abbrev":"KS"},
"geometry":{ "type": "Point", "coordinates": [-97.931648,37.611115]}},
{ "type": "Feature", "properties": {"Name":"Muscotah city","State":"Kansas","State_Abbrev":"KS"},
"geometry":{ "type": "Point", "coordinates": [-95.520419,39.553567]}},
{ "type": "Feature", "properties": {"Name":"Narka city","State":"Kansas","State_Abbrev":"KS"},
"geometry":{ "type": "Point", "coordinates": [-97.426729,39.959763]}},
{ "type": "Feature", "properties": {"Name":"Nashville city","State":"Kansas","State_Abbrev":"KS"},
"geometry":{ "type": "Point", "coordinates": [-98.422751,37.438445]}},
{ "type": "Feature", "properties": {"Name":"Natoma city","State":"Kansas","State_Abbrev":"KS"},
"geometry":{ "type": "Point", "coordinates": [-99.024156,39.188486]}},
{ "type": "Feature", "properties": {"Name":"Navarre CDP","State":"Kansas","State_Abbrev":"KS"},
"geometry":{ "type": "Point", "coordinates": [-97.107625,38.801711]}},
{ "type": "Feature", "properties": {"Name":"Neal CDP","State":"Kansas","State_Abbrev":"KS"},
"geometry":{ "type": "Point", "coordinates": [-96.080848,37.833753]}},
{ "type": "Feature", "properties": {"Name":"Neodesha city","State":"Kansas","State_Abbrev":"KS"},
"geometry":{ "type": "Point", "coordinates": [-95.684586,37.424177]}},
{ "type": "Feature", "properties": {"Name":"Neosho Falls city","State":"Kansas","State_Abbrev":"KS"},
"geometry":{ "type": "Point", "coordinates": [-95.555289,38.006009]}},
{ "type": "Feature", "properties": {"Name":"Neosho Rapids city","State":"Kansas","State_Abbrev":"KS"},
"geometry":{ "type": "Point", "coordinates": [-95.991856,38.368481]}},
{ "type": "Feature", "properties": {"Name":"Ness City city","State":"Kansas","State_Abbrev":"KS"},
"geometry":{ "type": "Point", "coordinates": [-99.904656,38.454055]}},
{ "type": "Feature", "properties": {"Name":"Netawaka city","State":"Kansas","State_Abbrev":"KS"},
"geometry":{ "type": "Point", "coordinates": [-95.718909,39.602967]}},
{ "type": "Feature", "properties": {"Name":"New Albany city","State":"Kansas","State_Abbrev":"KS"},
"geometry":{ "type": "Point", "coordinates": [-95.936288,37.567822]}},
{ "type": "Feature", "properties": {"Name":"Newbury CDP","State":"Kansas","State_Abbrev":"KS"},
"geometry":{ "type": "Point", "coordinates": [-96.174106,39.082363]}},
{ "type": "Feature", "properties": {"Name":"New Cambria city","State":"Kansas","State_Abbrev":"KS"},
"geometry":{ "type": "Point", "coordinates": [-97.506602,38.879046]}},
{ "type": "Feature", "properties": {"Name":"New Salem CDP","State":"Kansas","State_Abbrev":"KS"},
"geometry":{ "type": "Point", "coordinates": [-96.889719,37.314282]}},
{ "type": "Feature", "properties": {"Name":"New Strawn city","State":"Kansas","State_Abbrev":"KS"},
"geometry":{ "type": "Point", "coordinates": [-95.742731,38.264027]}},
{ "type": "Feature", "properties": {"Name":"Newton city","State":"Kansas","State_Abbrev":"KS"},
"geometry":{ "type": "Point", "coordinates": [-97.345018,38.037683]}},
{ "type": "Feature", "properties": {"Name":"Nickerson city","State":"Kansas","State_Abbrev":"KS"},
"geometry":{ "type": "Point", "coordinates": [-98.08826,38.148899]}},
{ "type": "Feature", "properties": {"Name":"Nicodemus CDP","State":"Kansas","State_Abbrev":"KS"},
"geometry":{ "type": "Point", "coordinates": [-99.613519,39.386144]}},
{ "type": "Feature", "properties": {"Name":"Niles CDP","State":"Kansas","State_Abbrev":"KS"},
"geometry":{ "type": "Point", "coordinates": [-97.457474,38.968842]}},
{ "type": "Feature", "properties": {"Name":"Niotaze city","State":"Kansas","State_Abbrev":"KS"},
"geometry":{ "type": "Point", "coordinates": [-96.014469,37.067346]}},
{ "type": "Feature", "properties": {"Name":"Norcatur city","State":"Kansas","State_Abbrev":"KS"},
"geometry":{ "type": "Point", "coordinates": [-100.188804,39.834753]}},
{ "type": "Feature", "properties": {"Name":"North Newton city","State":"Kansas","State_Abbrev":"KS"},
"geometry":{ "type": "Point", "coordinates": [-97.346315,38.077603]}},
{ "type": "Feature", "properties": {"Name":"Norton city","State":"Kansas","State_Abbrev":"KS"},
"geometry":{ "type": "Point", "coordinates": [-99.891596,39.836219]}},
{ "type": "Feature", "properties": {"Name":"Nortonville city","State":"Kansas","State_Abbrev":"KS"},
"geometry":{ "type": "Point", "coordinates": [-95.330042,39.415419]}},
{ "type": "Feature", "properties": {"Name":"Norway CDP","State":"Kansas","State_Abbrev":"KS"},
"geometry":{ "type": "Point", "coordinates": [-97.77377,39.696533]}},
{ "type": "Feature", "properties": {"Name":"Norwich city","State":"Kansas","State_Abbrev":"KS"},
"geometry":{ "type": "Point", "coordinates": [-97.847916,37.457242]}},
{ "type": "Feature", "properties": {"Name":"Oak Hill city","State":"Kansas","State_Abbrev":"KS"},
"geometry":{ "type": "Point", "coordinates": [-97.342954,39.246544]}},
{ "type": "Feature", "properties": {"Name":"Oaklawn-Sunview CDP","State":"Kansas","State_Abbrev":"KS"},
"geometry":{ "type": "Point", "coordinates": [-97.298464,37.608411]}},
{ "type": "Feature", "properties": {"Name":"Oakley city","State":"Kansas","State_Abbrev":"KS"},
"geometry":{ "type": "Point", "coordinates": [-100.844973,39.123456]}},
{ "type": "Feature", "properties": {"Name":"Oberlin city","State":"Kansas","State_Abbrev":"KS"},
"geometry":{ "type": "Point", "coordinates": [-100.530737,39.82304]}},
{ "type": "Feature", "properties": {"Name":"Odin CDP","State":"Kansas","State_Abbrev":"KS"},
"geometry":{ "type": "Point", "coordinates": [-98.616693,38.573005]}},
{ "type": "Feature", "properties": {"Name":"Offerle city","State":"Kansas","State_Abbrev":"KS"},
"geometry":{ "type": "Point", "coordinates": [-99.56035,37.890723]}},
{ "type": "Feature", "properties": {"Name":"Ogallah CDP","State":"Kansas","State_Abbrev":"KS"},
"geometry":{ "type": "Point", "coordinates": [-99.732583,38.994596]}},
{ "type": "Feature", "properties": {"Name":"Ogden city","State":"Kansas","State_Abbrev":"KS"},
"geometry":{ "type": "Point", "coordinates": [-96.702353,39.11092]}},
{ "type": "Feature", "properties": {"Name":"Oketo city","State":"Kansas","State_Abbrev":"KS"},
"geometry":{ "type": "Point", "coordinates": [-96.598951,39.96323]}},
{ "type": "Feature", "properties": {"Name":"Olathe city","State":"Kansas","State_Abbrev":"KS"},
"geometry":{ "type": "Point", "coordinates": [-94.820054,38.882031]}},
{ "type": "Feature", "properties": {"Name":"Olivet city","State":"Kansas","State_Abbrev":"KS"},
"geometry":{ "type": "Point", "coordinates": [-95.751276,38.481496]}},
{ "type": "Feature", "properties": {"Name":"Olmitz city","State":"Kansas","State_Abbrev":"KS"},
"geometry":{ "type": "Point", "coordinates": [-98.936644,38.516444]}},
{ "type": "Feature", "properties": {"Name":"Olpe city","State":"Kansas","State_Abbrev":"KS"},
"geometry":{ "type": "Point", "coordinates": [-96.165072,38.264738]}},
{ "type": "Feature", "properties": {"Name":"Olsburg city","State":"Kansas","State_Abbrev":"KS"},
"geometry":{ "type": "Point", "coordinates": [-96.615959,39.432095]}},
{ "type": "Feature", "properties": {"Name":"Onaga city","State":"Kansas","State_Abbrev":"KS"},
"geometry":{ "type": "Point", "coordinates": [-96.170241,39.489283]}},
{ "type": "Feature", "properties": {"Name":"Oneida city","State":"Kansas","State_Abbrev":"KS"},
"geometry":{ "type": "Point", "coordinates": [-95.93982,39.866799]}},
{ "type": "Feature", "properties": {"Name":"Opolis CDP","State":"Kansas","State_Abbrev":"KS"},
"geometry":{ "type": "Point", "coordinates": [-94.624352,37.348316]}},
{ "type": "Feature", "properties": {"Name":"Osage City city","State":"Kansas","State_Abbrev":"KS"},
"geometry":{ "type": "Point", "coordinates": [-95.821002,38.634098]}},
{ "type": "Feature", "properties": {"Name":"Osawatomie city","State":"Kansas","State_Abbrev":"KS"},
"geometry":{ "type": "Point", "coordinates": [-94.945895,38.49993]}},
{ "type": "Feature", "properties": {"Name":"Osborne city","State":"Kansas","State_Abbrev":"KS"},
"geometry":{ "type": "Point", "coordinates": [-98.699469,39.440452]}},
{ "type": "Feature", "properties": {"Name":"Oskaloosa city","State":"Kansas","State_Abbrev":"KS"},
"geometry":{ "type": "Point", "coordinates": [-95.314713,39.215988]}},
{ "type": "Feature", "properties": {"Name":"Oswego city","State":"Kansas","State_Abbrev":"KS"},
"geometry":{ "type": "Point", "coordinates": [-95.112052,37.167641]}},
{ "type": "Feature", "properties": {"Name":"Otis city","State":"Kansas","State_Abbrev":"KS"},
"geometry":{ "type": "Point", "coordinates": [-99.053498,38.5348]}},
{ "type": "Feature", "properties": {"Name":"Ottawa city","State":"Kansas","State_Abbrev":"KS"},
"geometry":{ "type": "Point", "coordinates": [-95.262777,38.60008]}},
{ "type": "Feature", "properties": {"Name":"Overbrook city","State":"Kansas","State_Abbrev":"KS"},
"geometry":{ "type": "Point", "coordinates": [-95.556967,38.779367]}},
{ "type": "Feature", "properties": {"Name":"Overland Park city","State":"Kansas","State_Abbrev":"KS"},
"geometry":{ "type": "Point", "coordinates": [-94.690584,38.889042]}},
{ "type": "Feature", "properties": {"Name":"Oxford city","State":"Kansas","State_Abbrev":"KS"},
"geometry":{ "type": "Point", "coordinates": [-97.169349,37.273704]}},
{ "type": "Feature", "properties": {"Name":"Ozawkie city","State":"Kansas","State_Abbrev":"KS"},
"geometry":{ "type": "Point", "coordinates": [-95.465837,39.235333]}},
{ "type": "Feature", "properties": {"Name":"Palco city","State":"Kansas","State_Abbrev":"KS"},
"geometry":{ "type": "Point", "coordinates": [-99.563541,39.25321]}},
{ "type": "Feature", "properties": {"Name":"Palmer city","State":"Kansas","State_Abbrev":"KS"},
"geometry":{ "type": "Point", "coordinates": [-97.140377,39.632875]}},
{ "type": "Feature", "properties": {"Name":"Paola city","State":"Kansas","State_Abbrev":"KS"},
"geometry":{ "type": "Point", "coordinates": [-94.860401,38.57893]}},
{ "type": "Feature", "properties": {"Name":"Paradise city","State":"Kansas","State_Abbrev":"KS"},
"geometry":{ "type": "Point", "coordinates": [-98.918444,39.114525]}},
{ "type": "Feature", "properties": {"Name":"Park city","State":"Kansas","State_Abbrev":"KS"},
"geometry":{ "type": "Point", "coordinates": [-100.361362,39.111786]}},
{ "type": "Feature", "properties": {"Name":"Park City city","State":"Kansas","State_Abbrev":"KS"},
"geometry":{ "type": "Point", "coordinates": [-97.325287,37.808385]}},
{ "type": "Feature", "properties": {"Name":"Parker city","State":"Kansas","State_Abbrev":"KS"},
"geometry":{ "type": "Point", "coordinates": [-94.989179,38.328646]}},
{ "type": "Feature", "properties": {"Name":"Parkerfield city","State":"Kansas","State_Abbrev":"KS"},
"geometry":{ "type": "Point", "coordinates": [-96.995578,37.067798]}},
{ "type": "Feature", "properties": {"Name":"Parkerville city","State":"Kansas","State_Abbrev":"KS"},
"geometry":{ "type": "Point", "coordinates": [-96.66092,38.763315]}},
{ "type": "Feature", "properties": {"Name":"Parsons city","State":"Kansas","State_Abbrev":"KS"},
"geometry":{ "type": "Point", "coordinates": [-95.264998,37.334013]}},
{ "type": "Feature", "properties": {"Name":"Partridge city","State":"Kansas","State_Abbrev":"KS"},
"geometry":{ "type": "Point", "coordinates": [-98.092259,37.966874]}},
{ "type": "Feature", "properties": {"Name":"Pawnee Rock city","State":"Kansas","State_Abbrev":"KS"},
"geometry":{ "type": "Point", "coordinates": [-98.98235,38.264941]}},
{ "type": "Feature", "properties": {"Name":"Paxico city","State":"Kansas","State_Abbrev":"KS"},
"geometry":{ "type": "Point", "coordinates": [-96.167021,39.068904]}},
{ "type": "Feature", "properties": {"Name":"Peabody city","State":"Kansas","State_Abbrev":"KS"},
"geometry":{ "type": "Point", "coordinates": [-97.104348,38.168306]}},
{ "type": "Feature", "properties": {"Name":"Peck CDP","State":"Kansas","State_Abbrev":"KS"},
"geometry":{ "type": "Point", "coordinates": [-97.36948,37.477724]}},
{ "type": "Feature", "properties": {"Name":"Penalosa city","State":"Kansas","State_Abbrev":"KS"},
"geometry":{ "type": "Point", "coordinates": [-98.320248,37.71565]}},
{ "type": "Feature", "properties": {"Name":"Perry city","State":"Kansas","State_Abbrev":"KS"},
"geometry":{ "type": "Point", "coordinates": [-95.387528,39.073876]}},
{ "type": "Feature", "properties": {"Name":"Peru city","State":"Kansas","State_Abbrev":"KS"},
"geometry":{ "type": "Point", "coordinates": [-96.096138,37.08033]}},
{ "type": "Feature", "properties": {"Name":"Phillipsburg city","State":"Kansas","State_Abbrev":"KS"},
"geometry":{ "type": "Point", "coordinates": [-99.320984,39.751228]}},
{ "type": "Feature", "properties": {"Name":"Piedmont CDP","State":"Kansas","State_Abbrev":"KS"},
"geometry":{ "type": "Point", "coordinates": [-96.379285,37.615291]}},
{ "type": "Feature", "properties": {"Name":"Pierceville CDP","State":"Kansas","State_Abbrev":"KS"},
"geometry":{ "type": "Point", "coordinates": [-100.676805,37.88241]}},
{ "type": "Feature", "properties": {"Name":"Pilsen CDP","State":"Kansas","State_Abbrev":"KS"},
"geometry":{ "type": "Point", "coordinates": [-97.034406,38.467952]}},
{ "type": "Feature", "properties": {"Name":"Piqua CDP","State":"Kansas","State_Abbrev":"KS"},
"geometry":{ "type": "Point", "coordinates": [-95.537682,37.921704]}},
{ "type": "Feature", "properties": {"Name":"Pittsburg city","State":"Kansas","State_Abbrev":"KS"},
"geometry":{ "type": "Point", "coordinates": [-94.69834,37.412576]}},
{ "type": "Feature", "properties": {"Name":"Plains city","State":"Kansas","State_Abbrev":"KS"},
"geometry":{ "type": "Point", "coordinates": [-100.589759,37.264239]}},
{ "type": "Feature", "properties": {"Name":"Plainville city","State":"Kansas","State_Abbrev":"KS"},
"geometry":{ "type": "Point", "coordinates": [-99.30085,39.234109]}},
{ "type": "Feature", "properties": {"Name":"Pleasanton city","State":"Kansas","State_Abbrev":"KS"},
"geometry":{ "type": "Point", "coordinates": [-94.705342,38.179417]}},
{ "type": "Feature", "properties": {"Name":"Plevna city","State":"Kansas","State_Abbrev":"KS"},
"geometry":{ "type": "Point", "coordinates": [-98.309592,37.97162]}},
{ "type": "Feature", "properties": {"Name":"Pomona city","State":"Kansas","State_Abbrev":"KS"},
"geometry":{ "type": "Point", "coordinates": [-95.454439,38.611184]}},
{ "type": "Feature", "properties": {"Name":"Portis city","State":"Kansas","State_Abbrev":"KS"},
"geometry":{ "type": "Point", "coordinates": [-98.691582,39.563743]}},
{ "type": "Feature", "properties": {"Name":"Potwin city","State":"Kansas","State_Abbrev":"KS"},
"geometry":{ "type": "Point", "coordinates": [-97.01835,37.938624]}},
{ "type": "Feature", "properties": {"Name":"Powhattan city","State":"Kansas","State_Abbrev":"KS"},
"geometry":{ "type": "Point", "coordinates": [-95.634011,39.761734]}},
{ "type": "Feature", "properties": {"Name":"Prairie View city","State":"Kansas","State_Abbrev":"KS"},
"geometry":{ "type": "Point", "coordinates": [-99.573294,39.831989]}},
{ "type": "Feature", "properties": {"Name":"Prairie Village city","State":"Kansas","State_Abbrev":"KS"},
"geometry":{ "type": "Point", "coordinates": [-94.636195,38.986835]}},
{ "type": "Feature", "properties": {"Name":"Pratt city","State":"Kansas","State_Abbrev":"KS"},
"geometry":{ "type": "Point", "coordinates": [-98.765936,37.698576]}},
{ "type": "Feature", "properties": {"Name":"Prescott city","State":"Kansas","State_Abbrev":"KS"},
"geometry":{ "type": "Point", "coordinates": [-94.692512,38.063122]}},
{ "type": "Feature", "properties": {"Name":"Preston city","State":"Kansas","State_Abbrev":"KS"},
"geometry":{ "type": "Point", "coordinates": [-98.557787,37.758445]}},
{ "type": "Feature", "properties": {"Name":"Pretty Prairie city","State":"Kansas","State_Abbrev":"KS"},
"geometry":{ "type": "Point", "coordinates": [-98.022482,37.780063]}},
{ "type": "Feature", "properties": {"Name":"Princeton city","State":"Kansas","State_Abbrev":"KS"},
"geometry":{ "type": "Point", "coordinates": [-95.270092,38.486239]}},
{ "type": "Feature", "properties": {"Name":"Protection city","State":"Kansas","State_Abbrev":"KS"},
"geometry":{ "type": "Point", "coordinates": [-99.480775,37.200391]}},
{ "type": "Feature", "properties": {"Name":"Quenemo city","State":"Kansas","State_Abbrev":"KS"},
"geometry":{ "type": "Point", "coordinates": [-95.526614,38.580223]}},
{ "type": "Feature", "properties": {"Name":"Quinter city","State":"Kansas","State_Abbrev":"KS"},
"geometry":{ "type": "Point", "coordinates": [-100.234742,39.066626]}},
{ "type": "Feature", "properties": {"Name":"Radium city","State":"Kansas","State_Abbrev":"KS"},
"geometry":{ "type": "Point", "coordinates": [-98.894475,38.173812]}},
{ "type": "Feature", "properties": {"Name":"Radley CDP","State":"Kansas","State_Abbrev":"KS"},
"geometry":{ "type": "Point", "coordinates": [-94.762042,37.484928]}},
{ "type": "Feature", "properties": {"Name":"Ramona city","State":"Kansas","State_Abbrev":"KS"},
"geometry":{ "type": "Point", "coordinates": [-97.063699,38.597867]}},
{ "type": "Feature", "properties": {"Name":"Randall city","State":"Kansas","State_Abbrev":"KS"},
"geometry":{ "type": "Point", "coordinates": [-98.045572,39.641613]}},
{ "type": "Feature", "properties": {"Name":"Randolph city","State":"Kansas","State_Abbrev":"KS"},
"geometry":{ "type": "Point", "coordinates": [-96.759431,39.429359]}},
{ "type": "Feature", "properties": {"Name":"Ransom city","State":"Kansas","State_Abbrev":"KS"},
"geometry":{ "type": "Point", "coordinates": [-99.932724,38.636525]}},
{ "type": "Feature", "properties": {"Name":"Rantoul city","State":"Kansas","State_Abbrev":"KS"},
"geometry":{ "type": "Point", "coordinates": [-95.100897,38.548394]}},
{ "type": "Feature", "properties": {"Name":"Raymond city","State":"Kansas","State_Abbrev":"KS"},
"geometry":{ "type": "Point", "coordinates": [-98.414314,38.277972]}},
{ "type": "Feature", "properties": {"Name":"Reading city","State":"Kansas","State_Abbrev":"KS"},
"geometry":{ "type": "Point", "coordinates": [-95.957377,38.519149]}},
{ "type": "Feature", "properties": {"Name":"Redfield city","State":"Kansas","State_Abbrev":"KS"},
"geometry":{ "type": "Point", "coordinates": [-94.881987,37.836556]}},
{ "type": "Feature", "properties": {"Name":"Republic city","State":"Kansas","State_Abbrev":"KS"},
"geometry":{ "type": "Point", "coordinates": [-97.824472,39.923935]}},
{ "type": "Feature", "properties": {"Name":"Reserve city","State":"Kansas","State_Abbrev":"KS"},
"geometry":{ "type": "Point", "coordinates": [-95.565145,39.97696]}},
{ "type": "Feature", "properties": {"Name":"Rexford city","State":"Kansas","State_Abbrev":"KS"},
"geometry":{ "type": "Point", "coordinates": [-100.743906,39.470415]}},
{ "type": "Feature", "properties": {"Name":"Richfield city","State":"Kansas","State_Abbrev":"KS"},
"geometry":{ "type": "Point", "coordinates": [-101.782786,37.265276]}},
{ "type": "Feature", "properties": {"Name":"Richmond city","State":"Kansas","State_Abbrev":"KS"},
"geometry":{ "type": "Point", "coordinates": [-95.251949,38.400333]}},
{ "type": "Feature", "properties": {"Name":"Riley city","State":"Kansas","State_Abbrev":"KS"},
"geometry":{ "type": "Point", "coordinates": [-96.827775,39.299222]}},
{ "type": "Feature", "properties": {"Name":"Ringo CDP","State":"Kansas","State_Abbrev":"KS"},
"geometry":{ "type": "Point", "coordinates": [-94.769887,37.506274]}},
{ "type": "Feature", "properties": {"Name":"Riverton CDP","State":"Kansas","State_Abbrev":"KS"},
"geometry":{ "type": "Point", "coordinates": [-94.70697,37.073242]}},
{ "type": "Feature", "properties": {"Name":"Robinson city","State":"Kansas","State_Abbrev":"KS"},
"geometry":{ "type": "Point", "coordinates": [-95.411582,39.815538]}},
{ "type": "Feature", "properties": {"Name":"Rock CDP","State":"Kansas","State_Abbrev":"KS"},
"geometry":{ "type": "Point", "coordinates": [-97.007062,37.441789]}},
{ "type": "Feature", "properties": {"Name":"Roeland Park city","State":"Kansas","State_Abbrev":"KS"},
"geometry":{ "type": "Point", "coordinates": [-94.637409,39.035854]}},
{ "type": "Feature", "properties": {"Name":"Rolla city","State":"Kansas","State_Abbrev":"KS"},
"geometry":{ "type": "Point", "coordinates": [-101.63183,37.117929]}},
{ "type": "Feature", "properties": {"Name":"Rosalia CDP","State":"Kansas","State_Abbrev":"KS"},
"geometry":{ "type": "Point", "coordinates": [-96.625002,37.815847]}},
{ "type": "Feature", "properties": {"Name":"Rose Hill city","State":"Kansas","State_Abbrev":"KS"},
"geometry":{ "type": "Point", "coordinates": [-97.136044,37.570271]}},
{ "type": "Feature", "properties": {"Name":"Roseland city","State":"Kansas","State_Abbrev":"KS"},
"geometry":{ "type": "Point", "coordinates": [-94.843845,37.280487]}},
{ "type": "Feature", "properties": {"Name":"Rossville city","State":"Kansas","State_Abbrev":"KS"},
"geometry":{ "type": "Point", "coordinates": [-95.949624,39.135799]}},
{ "type": "Feature", "properties": {"Name":"Roxbury CDP","State":"Kansas","State_Abbrev":"KS"},
"geometry":{ "type": "Point", "coordinates": [-97.427721,38.550549]}},
{ "type": "Feature", "properties": {"Name":"Rozel city","State":"Kansas","State_Abbrev":"KS"},
"geometry":{ "type": "Point", "coordinates": [-99.403253,38.195387]}},
{ "type": "Feature", "properties": {"Name":"Rush Center city","State":"Kansas","State_Abbrev":"KS"},
"geometry":{ "type": "Point", "coordinates": [-99.310798,38.46488]}},
{ "type": "Feature", "properties": {"Name":"Russell city","State":"Kansas","State_Abbrev":"KS"},
"geometry":{ "type": "Point", "coordinates": [-98.851392,38.887455]}},
{ "type": "Feature", "properties": {"Name":"Russell Springs city","State":"Kansas","State_Abbrev":"KS"},
"geometry":{ "type": "Point", "coordinates": [-101.17574,38.912778]}},
{ "type": "Feature", "properties": {"Name":"Sabetha city","State":"Kansas","State_Abbrev":"KS"},
"geometry":{ "type": "Point", "coordinates": [-95.792832,39.910228]}},
{ "type": "Feature", "properties": {"Name":"St. Benedict CDP","State":"Kansas","State_Abbrev":"KS"},
"geometry":{ "type": "Point", "coordinates": [-96.102919,39.892851]}},
{ "type": "Feature", "properties": {"Name":"St. Francis city","State":"Kansas","State_Abbrev":"KS"},
"geometry":{ "type": "Point", "coordinates": [-101.801428,39.771479]}},
{ "type": "Feature", "properties": {"Name":"St. George city","State":"Kansas","State_Abbrev":"KS"},
"geometry":{ "type": "Point", "coordinates": [-96.418284,39.192606]}},
{ "type": "Feature", "properties": {"Name":"St. John city","State":"Kansas","State_Abbrev":"KS"},
"geometry":{ "type": "Point", "coordinates": [-98.761071,38.000024]}},
{ "type": "Feature", "properties": {"Name":"St. Marks CDP","State":"Kansas","State_Abbrev":"KS"},
"geometry":{ "type": "Point", "coordinates": [-97.55908,37.7393]}},
{ "type": "Feature", "properties": {"Name":"St. Marys city","State":"Kansas","State_Abbrev":"KS"},
"geometry":{ "type": "Point", "coordinates": [-96.064174,39.194168]}},
{ "type": "Feature", "properties": {"Name":"St. Paul city","State":"Kansas","State_Abbrev":"KS"},
"geometry":{ "type": "Point", "coordinates": [-95.174091,37.51841]}},
{ "type": "Feature", "properties": {"Name":"Salina city","State":"Kansas","State_Abbrev":"KS"},
"geometry":{ "type": "Point", "coordinates": [-97.614477,38.813085]}},
{ "type": "Feature", "properties": {"Name":"Satanta city","State":"Kansas","State_Abbrev":"KS"},
"geometry":{ "type": "Point", "coordinates": [-100.988021,37.437774]}},
{ "type": "Feature", "properties": {"Name":"Savonburg city","State":"Kansas","State_Abbrev":"KS"},
"geometry":{ "type": "Point", "coordinates": [-95.141834,37.749136]}},
{ "type": "Feature", "properties": {"Name":"Sawyer city","State":"Kansas","State_Abbrev":"KS"},
"geometry":{ "type": "Point", "coordinates": [-98.682951,37.498457]}},
{ "type": "Feature", "properties": {"Name":"Scammon city","State":"Kansas","State_Abbrev":"KS"},
"geometry":{ "type": "Point", "coordinates": [-94.823556,37.279173]}},
{ "type": "Feature", "properties": {"Name":"Scandia city","State":"Kansas","State_Abbrev":"KS"},
"geometry":{ "type": "Point", "coordinates": [-97.784001,39.796886]}},
{ "type": "Feature", "properties": {"Name":"Schoenchen city","State":"Kansas","State_Abbrev":"KS"},
"geometry":{ "type": "Point", "coordinates": [-99.332255,38.712895]}},
{ "type": "Feature", "properties": {"Name":"Scott City city","State":"Kansas","State_Abbrev":"KS"},
"geometry":{ "type": "Point", "coordinates": [-100.903053,38.478872]}},
{ "type": "Feature", "properties": {"Name":"Scottsville city","State":"Kansas","State_Abbrev":"KS"},
"geometry":{ "type": "Point", "coordinates": [-97.952304,39.542577]}},
{ "type": "Feature", "properties": {"Name":"Scranton city","State":"Kansas","State_Abbrev":"KS"},
"geometry":{ "type": "Point", "coordinates": [-95.74109,38.778028]}},
{ "type": "Feature", "properties": {"Name":"Sedan city","State":"Kansas","State_Abbrev":"KS"},
"geometry":{ "type": "Point", "coordinates": [-96.184825,37.128456]}},
{ "type": "Feature", "properties": {"Name":"Sedgwick city","State":"Kansas","State_Abbrev":"KS"},
"geometry":{ "type": "Point", "coordinates": [-97.420164,37.918059]}},
{ "type": "Feature", "properties": {"Name":"Selden city","State":"Kansas","State_Abbrev":"KS"},
"geometry":{ "type": "Point", "coordinates": [-100.567185,39.541447]}},
{ "type": "Feature", "properties": {"Name":"Seneca city","State":"Kansas","State_Abbrev":"KS"},
"geometry":{ "type": "Point", "coordinates": [-96.069608,39.837998]}},
{ "type": "Feature", "properties": {"Name":"Severance city","State":"Kansas","State_Abbrev":"KS"},
"geometry":{ "type": "Point", "coordinates": [-95.249236,39.766819]}},
{ "type": "Feature", "properties": {"Name":"Severy city","State":"Kansas","State_Abbrev":"KS"},
"geometry":{ "type": "Point", "coordinates": [-96.227525,37.621955]}},
{ "type": "Feature", "properties": {"Name":"Seward city","State":"Kansas","State_Abbrev":"KS"},
"geometry":{ "type": "Point", "coordinates": [-98.794281,38.177828]}},
{ "type": "Feature", "properties": {"Name":"Shallow Water CDP","State":"Kansas","State_Abbrev":"KS"},
"geometry":{ "type": "Point", "coordinates": [-100.910446,38.373774]}},
{ "type": "Feature", "properties": {"Name":"Sharon city","State":"Kansas","State_Abbrev":"KS"},
"geometry":{ "type": "Point", "coordinates": [-98.417669,37.249734]}},
{ "type": "Feature", "properties": {"Name":"Sharon Springs city","State":"Kansas","State_Abbrev":"KS"},
"geometry":{ "type": "Point", "coordinates": [-101.751163,38.894334]}},
{ "type": "Feature", "properties": {"Name":"Shawnee city","State":"Kansas","State_Abbrev":"KS"},
"geometry":{ "type": "Point", "coordinates": [-94.805801,39.017488]}},
{ "type": "Feature", "properties": {"Name":"Silverdale CDP","State":"Kansas","State_Abbrev":"KS"},
"geometry":{ "type": "Point", "coordinates": [-96.901749,37.042394]}},
{ "type": "Feature", "properties": {"Name":"Silver Lake city","State":"Kansas","State_Abbrev":"KS"},
"geometry":{ "type": "Point", "coordinates": [-95.856655,39.099849]}},
{ "type": "Feature", "properties": {"Name":"Simpson city","State":"Kansas","State_Abbrev":"KS"},
"geometry":{ "type": "Point", "coordinates": [-97.934005,39.386038]}},
{ "type": "Feature", "properties": {"Name":"Smith Center city","State":"Kansas","State_Abbrev":"KS"},
"geometry":{ "type": "Point", "coordinates": [-98.783474,39.773939]}},
{ "type": "Feature", "properties": {"Name":"Smolan city","State":"Kansas","State_Abbrev":"KS"},
"geometry":{ "type": "Point", "coordinates": [-97.684352,38.738116]}},
{ "type": "Feature", "properties": {"Name":"Soldier city","State":"Kansas","State_Abbrev":"KS"},
"geometry":{ "type": "Point", "coordinates": [-95.965584,39.537227]}},
{ "type": "Feature", "properties": {"Name":"Solomon city","State":"Kansas","State_Abbrev":"KS"},
"geometry":{ "type": "Point", "coordinates": [-97.369235,38.921471]}},
{ "type": "Feature", "properties": {"Name":"Somerset CDP","State":"Kansas","State_Abbrev":"KS"},
"geometry":{ "type": "Point", "coordinates": [-94.779367,38.604854]}},
{ "type": "Feature", "properties": {"Name":"South Haven city","State":"Kansas","State_Abbrev":"KS"},
"geometry":{ "type": "Point", "coordinates": [-97.401264,37.049495]}},
{ "type": "Feature", "properties": {"Name":"South Hutchinson city","State":"Kansas","State_Abbrev":"KS"},
"geometry":{ "type": "Point", "coordinates": [-97.944845,38.023082]}},
{ "type": "Feature", "properties": {"Name":"South Mound CDP","State":"Kansas","State_Abbrev":"KS"},
"geometry":{ "type": "Point", "coordinates": [-95.219853,37.436028]}},
{ "type": "Feature", "properties": {"Name":"Spearville city","State":"Kansas","State_Abbrev":"KS"},
"geometry":{ "type": "Point", "coordinates": [-99.754714,37.848067]}},
{ "type": "Feature", "properties": {"Name":"Speed city","State":"Kansas","State_Abbrev":"KS"},
"geometry":{ "type": "Point", "coordinates": [-99.42099,39.676325]}},
{ "type": "Feature", "properties": {"Name":"Spivey city","State":"Kansas","State_Abbrev":"KS"},
"geometry":{ "type": "Point", "coordinates": [-98.165734,37.44839]}},
{ "type": "Feature", "properties": {"Name":"Spring Hill city","State":"Kansas","State_Abbrev":"KS"},
"geometry":{ "type": "Point", "coordinates": [-94.820976,38.756685]}},
{ "type": "Feature", "properties": {"Name":"Stafford city","State":"Kansas","State_Abbrev":"KS"},
"geometry":{ "type": "Point", "coordinates": [-98.599332,37.962372]}},
{ "type": "Feature", "properties": {"Name":"Stark city","State":"Kansas","State_Abbrev":"KS"},
"geometry":{ "type": "Point", "coordinates": [-95.144108,37.68972]}},
{ "type": "Feature", "properties": {"Name":"Sterling city","State":"Kansas","State_Abbrev":"KS"},
"geometry":{ "type": "Point", "coordinates": [-98.206463,38.209293]}},
{ "type": "Feature", "properties": {"Name":"Stockton city","State":"Kansas","State_Abbrev":"KS"},
"geometry":{ "type": "Point", "coordinates": [-99.276399,39.425124]}},
{ "type": "Feature", "properties": {"Name":"Strong City city","State":"Kansas","State_Abbrev":"KS"},
"geometry":{ "type": "Point", "coordinates": [-96.536666,38.395431]}},
{ "type": "Feature", "properties": {"Name":"Stuttgart CDP","State":"Kansas","State_Abbrev":"KS"},
"geometry":{ "type": "Point", "coordinates": [-99.454667,39.799521]}},
{ "type": "Feature", "properties": {"Name":"Sublette city","State":"Kansas","State_Abbrev":"KS"},
"geometry":{ "type": "Point", "coordinates": [-100.846492,37.482226]}},
{ "type": "Feature", "properties": {"Name":"Summerfield city","State":"Kansas","State_Abbrev":"KS"},
"geometry":{ "type": "Point", "coordinates": [-96.349293,39.99687]}},
{ "type": "Feature", "properties": {"Name":"Sun City city","State":"Kansas","State_Abbrev":"KS"},
"geometry":{ "type": "Point", "coordinates": [-98.916813,37.378518]}},
{ "type": "Feature", "properties": {"Name":"Susank city","State":"Kansas","State_Abbrev":"KS"},
"geometry":{ "type": "Point", "coordinates": [-98.774491,38.640677]}},
{ "type": "Feature", "properties": {"Name":"Sycamore CDP","State":"Kansas","State_Abbrev":"KS"},
"geometry":{ "type": "Point", "coordinates": [-95.715476,37.318641]}},
{ "type": "Feature", "properties": {"Name":"Sylvan Grove city","State":"Kansas","State_Abbrev":"KS"},
"geometry":{ "type": "Point", "coordinates": [-98.394369,39.012291]}},
{ "type": "Feature", "properties": {"Name":"Sylvia city","State":"Kansas","State_Abbrev":"KS"},
"geometry":{ "type": "Point", "coordinates": [-98.408674,37.95887]}},
{ "type": "Feature", "properties": {"Name":"Syracuse city","State":"Kansas","State_Abbrev":"KS"},
"geometry":{ "type": "Point", "coordinates": [-101.796759,37.953578]}},
{ "type": "Feature", "properties": {"Name":"Talmage CDP","State":"Kansas","State_Abbrev":"KS"},
"geometry":{ "type": "Point", "coordinates": [-97.259713,39.026891]}},
{ "type": "Feature", "properties": {"Name":"Tampa city","State":"Kansas","State_Abbrev":"KS"},
"geometry":{ "type": "Point", "coordinates": [-97.154181,38.548087]}},
{ "type": "Feature", "properties": {"Name":"Tecumseh CDP","State":"Kansas","State_Abbrev":"KS"},
"geometry":{ "type": "Point", "coordinates": [-95.57965,39.034955]}},
{ "type": "Feature", "properties": {"Name":"Tescott city","State":"Kansas","State_Abbrev":"KS"},
"geometry":{ "type": "Point", "coordinates": [-97.878286,39.01297]}},
{ "type": "Feature", "properties": {"Name":"Thayer city","State":"Kansas","State_Abbrev":"KS"},
"geometry":{ "type": "Point", "coordinates": [-95.47674,37.489012]}},
{ "type": "Feature", "properties": {"Name":"The Highlands city","State":"Kansas","State_Abbrev":"KS"},
"geometry":{ "type": "Point", "coordinates": [-97.949637,38.165949]}},
{ "type": "Feature", "properties": {"Name":"Timken city","State":"Kansas","State_Abbrev":"KS"},
"geometry":{ "type": "Point", "coordinates": [-99.177998,38.473175]}},
{ "type": "Feature", "properties": {"Name":"Tipton city","State":"Kansas","State_Abbrev":"KS"},
"geometry":{ "type": "Point", "coordinates": [-98.470904,39.33951]}},
{ "type": "Feature", "properties": {"Name":"Tonganoxie city","State":"Kansas","State_Abbrev":"KS"},
"geometry":{ "type": "Point", "coordinates": [-95.07909,39.10789]}},
{ "type": "Feature", "properties": {"Name":"Topeka city","State":"Kansas","State_Abbrev":"KS"},
"geometry":{ "type": "Point", "coordinates": [-95.694825,39.03468]}},
{ "type": "Feature", "properties": {"Name":"Toronto city","State":"Kansas","State_Abbrev":"KS"},
"geometry":{ "type": "Point", "coordinates": [-95.949752,37.798525]}},
{ "type": "Feature", "properties": {"Name":"Towanda city","State":"Kansas","State_Abbrev":"KS"},
"geometry":{ "type": "Point", "coordinates": [-96.993066,37.792511]}},
{ "type": "Feature", "properties": {"Name":"Tribune city","State":"Kansas","State_Abbrev":"KS"},
"geometry":{ "type": "Point", "coordinates": [-101.754525,38.472037]}},
{ "type": "Feature", "properties": {"Name":"Troy city","State":"Kansas","State_Abbrev":"KS"},
"geometry":{ "type": "Point", "coordinates": [-95.094088,39.785178]}},
{ "type": "Feature", "properties": {"Name":"Turon city","State":"Kansas","State_Abbrev":"KS"},
"geometry":{ "type": "Point", "coordinates": [-98.42775,37.807537]}},
{ "type": "Feature", "properties": {"Name":"Tyro city","State":"Kansas","State_Abbrev":"KS"},
"geometry":{ "type": "Point", "coordinates": [-95.824277,37.038569]}},
{ "type": "Feature", "properties": {"Name":"Udall city","State":"Kansas","State_Abbrev":"KS"},
"geometry":{ "type": "Point", "coordinates": [-97.117673,37.389028]}},
{ "type": "Feature", "properties": {"Name":"Ulysses city","State":"Kansas","State_Abbrev":"KS"},
"geometry":{ "type": "Point", "coordinates": [-101.354864,37.577342]}},
{ "type": "Feature", "properties": {"Name":"Uniontown city","State":"Kansas","State_Abbrev":"KS"},
"geometry":{ "type": "Point", "coordinates": [-94.975688,37.847198]}},
{ "type": "Feature", "properties": {"Name":"Urbana CDP","State":"Kansas","State_Abbrev":"KS"},
"geometry":{ "type": "Point", "coordinates": [-95.399858,37.557959]}},
{ "type": "Feature", "properties": {"Name":"Utica city","State":"Kansas","State_Abbrev":"KS"},
"geometry":{ "type": "Point", "coordinates": [-100.169767,38.642705]}},
{ "type": "Feature", "properties": {"Name":"Valley Center city","State":"Kansas","State_Abbrev":"KS"},
"geometry":{ "type": "Point", "coordinates": [-97.36495,37.833615]}},
{ "type": "Feature", "properties": {"Name":"Valley Falls city","State":"Kansas","State_Abbrev":"KS"},
"geometry":{ "type": "Point", "coordinates": [-95.461198,39.339329]}},
{ "type": "Feature", "properties": {"Name":"Vassar CDP","State":"Kansas","State_Abbrev":"KS"},
"geometry":{ "type": "Point", "coordinates": [-95.610011,38.648597]}},
{ "type": "Feature", "properties": {"Name":"Vermillion city","State":"Kansas","State_Abbrev":"KS"},
"geometry":{ "type": "Point", "coordinates": [-96.265066,39.718858]}},
{ "type": "Feature", "properties": {"Name":"Victoria city","State":"Kansas","State_Abbrev":"KS"},
"geometry":{ "type": "Point", "coordinates": [-99.147397,38.853758]}},
{ "type": "Feature", "properties": {"Name":"Vining city","State":"Kansas","State_Abbrev":"KS"},
"geometry":{ "type": "Point", "coordinates": [-97.293613,39.567319]}},
{ "type": "Feature", "properties": {"Name":"Viola city","State":"Kansas","State_Abbrev":"KS"},
"geometry":{ "type": "Point", "coordinates": [-97.644393,37.482855]}},
{ "type": "Feature", "properties": {"Name":"Virgil city","State":"Kansas","State_Abbrev":"KS"},
"geometry":{ "type": "Point", "coordinates": [-96.011209,37.9805]}},
{ "type": "Feature", "properties": {"Name":"Wabaunsee CDP","State":"Kansas","State_Abbrev":"KS"},
"geometry":{ "type": "Point", "coordinates": [-96.342309,39.143642]}},
{ "type": "Feature", "properties": {"Name":"Wakarusa CDP","State":"Kansas","State_Abbrev":"KS"},
"geometry":{ "type": "Point", "coordinates": [-95.70491,38.893829]}},
{ "type": "Feature", "properties": {"Name":"WaKeeney city","State":"Kansas","State_Abbrev":"KS"},
"geometry":{ "type": "Point", "coordinates": [-99.881455,39.023449]}},
{ "type": "Feature", "properties": {"Name":"Wakefield city","State":"Kansas","State_Abbrev":"KS"},
"geometry":{ "type": "Point", "coordinates": [-97.018779,39.21639]}},
{ "type": "Feature", "properties": {"Name":"Waldo city","State":"Kansas","State_Abbrev":"KS"},
"geometry":{ "type": "Point", "coordinates": [-98.798325,39.120026]}},
{ "type": "Feature", "properties": {"Name":"Waldron city","State":"Kansas","State_Abbrev":"KS"},
"geometry":{ "type": "Point", "coordinates": [-98.182545,37.001753]}},
{ "type": "Feature", "properties": {"Name":"Wallace city","State":"Kansas","State_Abbrev":"KS"},
"geometry":{ "type": "Point", "coordinates": [-101.593016,38.912663]}},
{ "type": "Feature", "properties": {"Name":"Walnut city","State":"Kansas","State_Abbrev":"KS"},
"geometry":{ "type": "Point", "coordinates": [-95.074138,37.603628]}},
{ "type": "Feature", "properties": {"Name":"Walton city","State":"Kansas","State_Abbrev":"KS"},
"geometry":{ "type": "Point", "coordinates": [-97.258257,38.118663]}},
{ "type": "Feature", "properties": {"Name":"Wamego city","State":"Kansas","State_Abbrev":"KS"},
"geometry":{ "type": "Point", "coordinates": [-96.310126,39.205263]}},
{ "type": "Feature", "properties": {"Name":"Washington city","State":"Kansas","State_Abbrev":"KS"},
"geometry":{ "type": "Point", "coordinates": [-97.048422,39.815798]}},
{ "type": "Feature", "properties": {"Name":"Waterville city","State":"Kansas","State_Abbrev":"KS"},
"geometry":{ "type": "Point", "coordinates": [-96.746774,39.691738]}},
{ "type": "Feature", "properties": {"Name":"Wathena city","State":"Kansas","State_Abbrev":"KS"},
"geometry":{ "type": "Point", "coordinates": [-94.927518,39.761058]}},
{ "type": "Feature", "properties": {"Name":"Waverly city","State":"Kansas","State_Abbrev":"KS"},
"geometry":{ "type": "Point", "coordinates": [-95.605082,38.395809]}},
{ "type": "Feature", "properties": {"Name":"Wayside CDP","State":"Kansas","State_Abbrev":"KS"},
"geometry":{ "type": "Point", "coordinates": [-95.870237,37.126402]}},
{ "type": "Feature", "properties": {"Name":"Webber city","State":"Kansas","State_Abbrev":"KS"},
"geometry":{ "type": "Point", "coordinates": [-98.035063,39.934371]}},
{ "type": "Feature", "properties": {"Name":"Weir city","State":"Kansas","State_Abbrev":"KS"},
"geometry":{ "type": "Point", "coordinates": [-94.774468,37.309594]}},
{ "type": "Feature", "properties": {"Name":"Welda CDP","State":"Kansas","State_Abbrev":"KS"},
"geometry":{ "type": "Point", "coordinates": [-95.291643,38.172177]}},
{ "type": "Feature", "properties": {"Name":"Wellington city","State":"Kansas","State_Abbrev":"KS"},
"geometry":{ "type": "Point", "coordinates": [-97.406672,37.278109]}},
{ "type": "Feature", "properties": {"Name":"Wells CDP","State":"Kansas","State_Abbrev":"KS"},
"geometry":{ "type": "Point", "coordinates": [-97.551183,39.139086]}},
{ "type": "Feature", "properties": {"Name":"Wellsville city","State":"Kansas","State_Abbrev":"KS"},
"geometry":{ "type": "Point", "coordinates": [-95.077862,38.717662]}},
{ "type": "Feature", "properties": {"Name":"Weskan CDP","State":"Kansas","State_Abbrev":"KS"},
"geometry":{ "type": "Point", "coordinates": [-101.968141,38.865253]}},
{ "type": "Feature", "properties": {"Name":"West Mineral city","State":"Kansas","State_Abbrev":"KS"},
"geometry":{ "type": "Point", "coordinates": [-94.926801,37.283906]}},
{ "type": "Feature", "properties": {"Name":"Westmoreland city","State":"Kansas","State_Abbrev":"KS"},
"geometry":{ "type": "Point", "coordinates": [-96.41367,39.39416]}},
{ "type": "Feature", "properties": {"Name":"Westphalia city","State":"Kansas","State_Abbrev":"KS"},
"geometry":{ "type": "Point", "coordinates": [-95.490351,38.182184]}},
{ "type": "Feature", "properties": {"Name":"Westwood city","State":"Kansas","State_Abbrev":"KS"},
"geometry":{ "type": "Point", "coordinates": [-94.61558,39.039379]}},
{ "type": "Feature", "properties": {"Name":"Westwood Hills city","State":"Kansas","State_Abbrev":"KS"},
"geometry":{ "type": "Point", "coordinates": [-94.609664,39.038905]}},
{ "type": "Feature", "properties": {"Name":"Wetmore city","State":"Kansas","State_Abbrev":"KS"},
"geometry":{ "type": "Point", "coordinates": [-95.811378,39.63558]}},
{ "type": "Feature", "properties": {"Name":"Wheaton city","State":"Kansas","State_Abbrev":"KS"},
"geometry":{ "type": "Point", "coordinates": [-96.318574,39.502205]}},
{ "type": "Feature", "properties": {"Name":"White City city","State":"Kansas","State_Abbrev":"KS"},
"geometry":{ "type": "Point", "coordinates": [-96.734992,38.793344]}},
{ "type": "Feature", "properties": {"Name":"White Cloud city","State":"Kansas","State_Abbrev":"KS"},
"geometry":{ "type": "Point", "coordinates": [-95.299039,39.974342]}},
{ "type": "Feature", "properties": {"Name":"Whitewater city","State":"Kansas","State_Abbrev":"KS"},
"geometry":{ "type": "Point", "coordinates": [-97.146028,37.96356]}},
{ "type": "Feature", "properties": {"Name":"Whiting city","State":"Kansas","State_Abbrev":"KS"},
"geometry":{ "type": "Point", "coordinates": [-95.6112,39.587874]}},
{ "type": "Feature", "properties": {"Name":"Wichita city","State":"Kansas","State_Abbrev":"KS"},
"geometry":{ "type": "Point", "coordinates": [-97.345836,37.690638]}},
{ "type": "Feature", "properties": {"Name":"Willard city","State":"Kansas","State_Abbrev":"KS"},
"geometry":{ "type": "Point", "coordinates": [-95.942916,39.094061]}},
{ "type": "Feature", "properties": {"Name":"Williamsburg city","State":"Kansas","State_Abbrev":"KS"},
"geometry":{ "type": "Point", "coordinates": [-95.467501,38.481056]}},
{ "type": "Feature", "properties": {"Name":"Williamstown CDP","State":"Kansas","State_Abbrev":"KS"},
"geometry":{ "type": "Point", "coordinates": [-95.332323,39.064201]}},
{ "type": "Feature", "properties": {"Name":"Willis city","State":"Kansas","State_Abbrev":"KS"},
"geometry":{ "type": "Point", "coordinates": [-95.505789,39.722642]}},
{ "type": "Feature", "properties": {"Name":"Willowbrook city","State":"Kansas","State_Abbrev":"KS"},
"geometry":{ "type": "Point", "coordinates": [-97.991932,38.10117]}},
{ "type": "Feature", "properties": {"Name":"Wilmore city","State":"Kansas","State_Abbrev":"KS"},
"geometry":{ "type": "Point", "coordinates": [-99.210197,37.335036]}},
{ "type": "Feature", "properties": {"Name":"Wilroads Gardens CDP","State":"Kansas","State_Abbrev":"KS"},
"geometry":{ "type": "Point", "coordinates": [-99.926841,37.715279]}},
{ "type": "Feature", "properties": {"Name":"Wilsey city","State":"Kansas","State_Abbrev":"KS"},
"geometry":{ "type": "Point", "coordinates": [-96.676455,38.635718]}},
{ "type": "Feature", "properties": {"Name":"Wilson city","State":"Kansas","State_Abbrev":"KS"},
"geometry":{ "type": "Point", "coordinates": [-98.474923,38.825332]}},
{ "type": "Feature", "properties": {"Name":"Winchester city","State":"Kansas","State_Abbrev":"KS"},
"geometry":{ "type": "Point", "coordinates": [-95.26916,39.32272]}},
{ "type": "Feature", "properties": {"Name":"Windom city","State":"Kansas","State_Abbrev":"KS"},
"geometry":{ "type": "Point", "coordinates": [-97.910165,38.384134]}},
{ "type": "Feature", "properties": {"Name":"Winfield city","State":"Kansas","State_Abbrev":"KS"},
"geometry":{ "type": "Point", "coordinates": [-96.979674,37.242774]}},
{ "type": "Feature", "properties": {"Name":"Winona city","State":"Kansas","State_Abbrev":"KS"},
"geometry":{ "type": "Point", "coordinates": [-101.244927,39.061717]}},
{ "type": "Feature", "properties": {"Name":"Woodbine city","State":"Kansas","State_Abbrev":"KS"},
"geometry":{ "type": "Point", "coordinates": [-96.959307,38.795602]}},
{ "type": "Feature", "properties": {"Name":"Woodruff CDP","State":"Kansas","State_Abbrev":"KS"},
"geometry":{ "type": "Point", "coordinates": [-99.431559,39.987637]}},
{ "type": "Feature", "properties": {"Name":"Woodston city","State":"Kansas","State_Abbrev":"KS"},
"geometry":{ "type": "Point", "coordinates": [-99.098307,39.453885]}},
{ "type": "Feature", "properties": {"Name":"Wright CDP","State":"Kansas","State_Abbrev":"KS"},
"geometry":{ "type": "Point", "coordinates": [-99.890469,37.775286]}},
{ "type": "Feature", "properties": {"Name":"Yale CDP","State":"Kansas","State_Abbrev":"KS"},
"geometry":{ "type": "Point", "coordinates": [-94.647355,37.4894]}},
{ "type": "Feature", "properties": {"Name":"Yates Center city","State":"Kansas","State_Abbrev":"KS"},
"geometry":{ "type": "Point", "coordinates": [-95.75481,37.867484]}},
{ "type": "Feature", "properties": {"Name":"Yoder CDP","State":"Kansas","State_Abbrev":"KS"},
"geometry":{ "type": "Point", "coordinates": [-97.86811,37.945462]}},
{ "type": "Feature", "properties": {"Name":"Zeandale CDP","State":"Kansas","State_Abbrev":"KS"},
"geometry":{ "type": "Point", "coordinates": [-96.427893,39.162791]}},
{ "type": "Feature", "properties": {"Name":"Zenda city","State":"Kansas","State_Abbrev":"KS"},
"geometry":{ "type": "Point", "coordinates": [-98.281996,37.444077]}},
{ "type": "Feature", "properties": {"Name":"Zurich city","State":"Kansas","State_Abbrev":"KS"},
"geometry":{ "type": "Point", "coordinates": [-99.4347,39.232265]}}]}
