{"type":"FeatureCollection","features":[
{ "type": "Feature", "properties": {"Name":"Adairville city","State":"Kentucky","State_Abbrev":"KY"},
"geometry":{ "type": "Point", "coordinates": [-86.858204,36.67504]}},
{ "type": "Feature", "properties": {"Name":"Ages CDP","State":"Kentucky","State_Abbrev":"KY"},
"geometry":{ "type": "Point", "coordinates": [-83.241591,36.859361]}},
{ "type": "Feature", "properties": {"Name":"Albany city","State":"Kentucky","State_Abbrev":"KY"},
"geometry":{ "type": "Point", "coordinates": [-85.135489,36.690546]}},
{ "type": "Feature", "properties": {"Name":"Alexandria city","State":"Kentucky","State_Abbrev":"KY"},
"geometry":{ "type": "Point", "coordinates": [-84.384601,38.967818]}},
{ "type": "Feature", "properties": {"Name":"Allen city","State":"Kentucky","State_Abbrev":"KY"},
"geometry":{ "type": "Point", "coordinates": [-82.729063,37.61157]}},
{ "type": "Feature", "properties": {"Name":"Allensville CDP","State":"Kentucky","State_Abbrev":"KY"},
"geometry":{ "type": "Point", "coordinates": [-87.068586,36.717032]}},
{ "type": "Feature", "properties": {"Name":"Anchorage city","State":"Kentucky","State_Abbrev":"KY"},
"geometry":{ "type": "Point", "coordinates": [-85.537633,38.269786]}},
{ "type": "Feature", "properties": {"Name":"Annville CDP","State":"Kentucky","State_Abbrev":"KY"},
"geometry":{ "type": "Point", "coordinates": [-83.962758,37.331655]}},
{ "type": "Feature", "properties": {"Name":"Anthoston CDP","State":"Kentucky","State_Abbrev":"KY"},
"geometry":{ "type": "Point", "coordinates": [-87.528404,37.755117]}},
{ "type": "Feature", "properties": {"Name":"Arjay CDP","State":"Kentucky","State_Abbrev":"KY"},
"geometry":{ "type": "Point", "coordinates": [-83.642083,36.806136]}},
{ "type": "Feature", "properties": {"Name":"Arlington city","State":"Kentucky","State_Abbrev":"KY"},
"geometry":{ "type": "Point", "coordinates": [-89.013153,36.789805]}},
{ "type": "Feature", "properties": {"Name":"Artemus CDP","State":"Kentucky","State_Abbrev":"KY"},
"geometry":{ "type": "Point", "coordinates": [-83.84,36.837512]}},
{ "type": "Feature", "properties": {"Name":"Ashland city","State":"Kentucky","State_Abbrev":"KY"},
"geometry":{ "type": "Point", "coordinates": [-82.645081,38.459492]}},
{ "type": "Feature", "properties": {"Name":"Auburn city","State":"Kentucky","State_Abbrev":"KY"},
"geometry":{ "type": "Point", "coordinates": [-86.709646,36.864533]}},
{ "type": "Feature", "properties": {"Name":"Audubon Park city","State":"Kentucky","State_Abbrev":"KY"},
"geometry":{ "type": "Point", "coordinates": [-85.727013,38.205002]}},
{ "type": "Feature", "properties": {"Name":"Augusta city","State":"Kentucky","State_Abbrev":"KY"},
"geometry":{ "type": "Point", "coordinates": [-84.000201,38.77262]}},
{ "type": "Feature", "properties": {"Name":"Auxier CDP","State":"Kentucky","State_Abbrev":"KY"},
"geometry":{ "type": "Point", "coordinates": [-82.767631,37.734988]}},
{ "type": "Feature", "properties": {"Name":"Bancroft city","State":"Kentucky","State_Abbrev":"KY"},
"geometry":{ "type": "Point", "coordinates": [-85.610396,38.286423]}},
{ "type": "Feature", "properties": {"Name":"Bandana CDP","State":"Kentucky","State_Abbrev":"KY"},
"geometry":{ "type": "Point", "coordinates": [-88.942121,37.144901]}},
{ "type": "Feature", "properties": {"Name":"Barbourmeade city","State":"Kentucky","State_Abbrev":"KY"},
"geometry":{ "type": "Point", "coordinates": [-85.600914,38.298579]}},
{ "type": "Feature", "properties": {"Name":"Barbourville city","State":"Kentucky","State_Abbrev":"KY"},
"geometry":{ "type": "Point", "coordinates": [-83.883225,36.865741]}},
{ "type": "Feature", "properties": {"Name":"Bardstown city","State":"Kentucky","State_Abbrev":"KY"},
"geometry":{ "type": "Point", "coordinates": [-85.455345,37.817665]}},
{ "type": "Feature", "properties": {"Name":"Bardwell city","State":"Kentucky","State_Abbrev":"KY"},
"geometry":{ "type": "Point", "coordinates": [-89.008943,36.875352]}},
{ "type": "Feature", "properties": {"Name":"Barlow city","State":"Kentucky","State_Abbrev":"KY"},
"geometry":{ "type": "Point", "coordinates": [-89.044991,37.05079]}},
{ "type": "Feature", "properties": {"Name":"Beattyville city","State":"Kentucky","State_Abbrev":"KY"},
"geometry":{ "type": "Point", "coordinates": [-83.70688,37.586809]}},
{ "type": "Feature", "properties": {"Name":"Beaver Dam city","State":"Kentucky","State_Abbrev":"KY"},
"geometry":{ "type": "Point", "coordinates": [-86.873606,37.403758]}},
{ "type": "Feature", "properties": {"Name":"Bedford city","State":"Kentucky","State_Abbrev":"KY"},
"geometry":{ "type": "Point", "coordinates": [-85.317138,38.596242]}},
{ "type": "Feature", "properties": {"Name":"Beech Grove CDP","State":"Kentucky","State_Abbrev":"KY"},
"geometry":{ "type": "Point", "coordinates": [-87.387256,37.62126]}},
{ "type": "Feature", "properties": {"Name":"Beechmont CDP","State":"Kentucky","State_Abbrev":"KY"},
"geometry":{ "type": "Point", "coordinates": [-87.039144,37.169309]}},
{ "type": "Feature", "properties": {"Name":"Beechwood Village city","State":"Kentucky","State_Abbrev":"KY"},
"geometry":{ "type": "Point", "coordinates": [-85.629554,38.25668]}},
{ "type": "Feature", "properties": {"Name":"Belfry CDP","State":"Kentucky","State_Abbrev":"KY"},
"geometry":{ "type": "Point", "coordinates": [-82.268434,37.619408]}},
{ "type": "Feature", "properties": {"Name":"Bellefonte city","State":"Kentucky","State_Abbrev":"KY"},
"geometry":{ "type": "Point", "coordinates": [-82.69032,38.498682]}},
{ "type": "Feature", "properties": {"Name":"Bellemeade city","State":"Kentucky","State_Abbrev":"KY"},
"geometry":{ "type": "Point", "coordinates": [-85.591026,38.25098]}},
{ "type": "Feature", "properties": {"Name":"Belleview CDP","State":"Kentucky","State_Abbrev":"KY"},
"geometry":{ "type": "Point", "coordinates": [-84.826847,38.981315]}},
{ "type": "Feature", "properties": {"Name":"Bellevue city","State":"Kentucky","State_Abbrev":"KY"},
"geometry":{ "type": "Point", "coordinates": [-84.477492,39.101248]}},
{ "type": "Feature", "properties": {"Name":"Bellewood city","State":"Kentucky","State_Abbrev":"KY"},
"geometry":{ "type": "Point", "coordinates": [-85.659376,38.260825]}},
{ "type": "Feature", "properties": {"Name":"Benham city","State":"Kentucky","State_Abbrev":"KY"},
"geometry":{ "type": "Point", "coordinates": [-82.951756,36.964197]}},
{ "type": "Feature", "properties": {"Name":"Benton city","State":"Kentucky","State_Abbrev":"KY"},
"geometry":{ "type": "Point", "coordinates": [-88.36165,36.848003]}},
{ "type": "Feature", "properties": {"Name":"Berea city","State":"Kentucky","State_Abbrev":"KY"},
"geometry":{ "type": "Point", "coordinates": [-84.294502,37.589296]}},
{ "type": "Feature", "properties": {"Name":"Berry city","State":"Kentucky","State_Abbrev":"KY"},
"geometry":{ "type": "Point", "coordinates": [-84.381661,38.518409]}},
{ "type": "Feature", "properties": {"Name":"Betsy Layne CDP","State":"Kentucky","State_Abbrev":"KY"},
"geometry":{ "type": "Point", "coordinates": [-82.62473,37.552007]}},
{ "type": "Feature", "properties": {"Name":"Big Clifty CDP","State":"Kentucky","State_Abbrev":"KY"},
"geometry":{ "type": "Point", "coordinates": [-86.15097,37.544999]}},
{ "type": "Feature", "properties": {"Name":"Blackey city","State":"Kentucky","State_Abbrev":"KY"},
"geometry":{ "type": "Point", "coordinates": [-82.985603,37.137159]}},
{ "type": "Feature", "properties": {"Name":"Blaine city","State":"Kentucky","State_Abbrev":"KY"},
"geometry":{ "type": "Point", "coordinates": [-82.843245,38.025213]}},
{ "type": "Feature", "properties": {"Name":"Blandville city","State":"Kentucky","State_Abbrev":"KY"},
"geometry":{ "type": "Point", "coordinates": [-88.963573,36.945955]}},
{ "type": "Feature", "properties": {"Name":"Bloomfield city","State":"Kentucky","State_Abbrev":"KY"},
"geometry":{ "type": "Point", "coordinates": [-85.315553,37.913637]}},
{ "type": "Feature", "properties": {"Name":"Blue Ridge Manor city","State":"Kentucky","State_Abbrev":"KY"},
"geometry":{ "type": "Point", "coordinates": [-85.564699,38.243407]}},
{ "type": "Feature", "properties": {"Name":"Bonnieville city","State":"Kentucky","State_Abbrev":"KY"},
"geometry":{ "type": "Point", "coordinates": [-85.901509,37.377687]}},
{ "type": "Feature", "properties": {"Name":"Booneville city","State":"Kentucky","State_Abbrev":"KY"},
"geometry":{ "type": "Point", "coordinates": [-83.682773,37.473465]}},
{ "type": "Feature", "properties": {"Name":"Boston CDP","State":"Kentucky","State_Abbrev":"KY"},
"geometry":{ "type": "Point", "coordinates": [-85.687244,37.781189]}},
{ "type": "Feature", "properties": {"Name":"Bowling Green city","State":"Kentucky","State_Abbrev":"KY"},
"geometry":{ "type": "Point", "coordinates": [-86.438461,36.970917]}},
{ "type": "Feature", "properties": {"Name":"Bradfordsville city","State":"Kentucky","State_Abbrev":"KY"},
"geometry":{ "type": "Point", "coordinates": [-85.145042,37.494725]}},
{ "type": "Feature", "properties": {"Name":"Brandenburg city","State":"Kentucky","State_Abbrev":"KY"},
"geometry":{ "type": "Point", "coordinates": [-86.180328,37.996955]}},
{ "type": "Feature", "properties": {"Name":"Breckinridge Center CDP","State":"Kentucky","State_Abbrev":"KY"},
"geometry":{ "type": "Point", "coordinates": [-87.865417,37.6833]}},
{ "type": "Feature", "properties": {"Name":"Bremen city","State":"Kentucky","State_Abbrev":"KY"},
"geometry":{ "type": "Point", "coordinates": [-87.222204,37.363729]}},
{ "type": "Feature", "properties": {"Name":"Briarwood city","State":"Kentucky","State_Abbrev":"KY"},
"geometry":{ "type": "Point", "coordinates": [-85.592483,38.278087]}},
{ "type": "Feature", "properties": {"Name":"Brodhead city","State":"Kentucky","State_Abbrev":"KY"},
"geometry":{ "type": "Point", "coordinates": [-84.416616,37.406538]}},
{ "type": "Feature", "properties": {"Name":"Broeck Pointe city","State":"Kentucky","State_Abbrev":"KY"},
"geometry":{ "type": "Point", "coordinates": [-85.585145,38.295908]}},
{ "type": "Feature", "properties": {"Name":"Bromley city","State":"Kentucky","State_Abbrev":"KY"},
"geometry":{ "type": "Point", "coordinates": [-84.561327,39.077713]}},
{ "type": "Feature", "properties": {"Name":"Brooks CDP","State":"Kentucky","State_Abbrev":"KY"},
"geometry":{ "type": "Point", "coordinates": [-85.716504,38.06653]}},
{ "type": "Feature", "properties": {"Name":"Brooksville city","State":"Kentucky","State_Abbrev":"KY"},
"geometry":{ "type": "Point", "coordinates": [-84.06532,38.679432]}},
{ "type": "Feature", "properties": {"Name":"Brownsboro Farm city","State":"Kentucky","State_Abbrev":"KY"},
"geometry":{ "type": "Point", "coordinates": [-85.593025,38.303624]}},
{ "type": "Feature", "properties": {"Name":"Brownsboro Village city","State":"Kentucky","State_Abbrev":"KY"},
"geometry":{ "type": "Point", "coordinates": [-85.665854,38.262917]}},
{ "type": "Feature", "properties": {"Name":"Brownsville city","State":"Kentucky","State_Abbrev":"KY"},
"geometry":{ "type": "Point", "coordinates": [-86.265255,37.194914]}},
{ "type": "Feature", "properties": {"Name":"Buckhorn city","State":"Kentucky","State_Abbrev":"KY"},
"geometry":{ "type": "Point", "coordinates": [-83.469802,37.34661]}},
{ "type": "Feature", "properties": {"Name":"Buckner CDP","State":"Kentucky","State_Abbrev":"KY"},
"geometry":{ "type": "Point", "coordinates": [-85.452558,38.389919]}},
{ "type": "Feature", "properties": {"Name":"Buffalo CDP","State":"Kentucky","State_Abbrev":"KY"},
"geometry":{ "type": "Point", "coordinates": [-85.698986,37.506995]}},
{ "type": "Feature", "properties": {"Name":"Burgin city","State":"Kentucky","State_Abbrev":"KY"},
"geometry":{ "type": "Point", "coordinates": [-84.760655,37.757493]}},
{ "type": "Feature", "properties": {"Name":"Burkesville city","State":"Kentucky","State_Abbrev":"KY"},
"geometry":{ "type": "Point", "coordinates": [-85.364614,36.790074]}},
{ "type": "Feature", "properties": {"Name":"Burlington CDP","State":"Kentucky","State_Abbrev":"KY"},
"geometry":{ "type": "Point", "coordinates": [-84.721647,39.02229]}},
{ "type": "Feature", "properties": {"Name":"Burna CDP","State":"Kentucky","State_Abbrev":"KY"},
"geometry":{ "type": "Point", "coordinates": [-88.35788,37.244806]}},
{ "type": "Feature", "properties": {"Name":"Burnside city","State":"Kentucky","State_Abbrev":"KY"},
"geometry":{ "type": "Point", "coordinates": [-84.643673,37.004307]}},
{ "type": "Feature", "properties": {"Name":"Butler city","State":"Kentucky","State_Abbrev":"KY"},
"geometry":{ "type": "Point", "coordinates": [-84.371242,38.787476]}},
{ "type": "Feature", "properties": {"Name":"Cadiz city","State":"Kentucky","State_Abbrev":"KY"},
"geometry":{ "type": "Point", "coordinates": [-87.817206,36.861544]}},
{ "type": "Feature", "properties": {"Name":"Calhoun city","State":"Kentucky","State_Abbrev":"KY"},
"geometry":{ "type": "Point", "coordinates": [-87.259037,37.540312]}},
{ "type": "Feature", "properties": {"Name":"California city","State":"Kentucky","State_Abbrev":"KY"},
"geometry":{ "type": "Point", "coordinates": [-84.263563,38.918418]}},
{ "type": "Feature", "properties": {"Name":"Calvert City city","State":"Kentucky","State_Abbrev":"KY"},
"geometry":{ "type": "Point", "coordinates": [-88.395537,37.046422]}},
{ "type": "Feature", "properties": {"Name":"Camargo city","State":"Kentucky","State_Abbrev":"KY"},
"geometry":{ "type": "Point", "coordinates": [-83.888489,37.999694]}},
{ "type": "Feature", "properties": {"Name":"Cambridge city","State":"Kentucky","State_Abbrev":"KY"},
"geometry":{ "type": "Point", "coordinates": [-85.616975,38.221736]}},
{ "type": "Feature", "properties": {"Name":"Campbellsburg city","State":"Kentucky","State_Abbrev":"KY"},
"geometry":{ "type": "Point", "coordinates": [-85.231708,38.513715]}},
{ "type": "Feature", "properties": {"Name":"Campbellsville city","State":"Kentucky","State_Abbrev":"KY"},
"geometry":{ "type": "Point", "coordinates": [-85.352238,37.34392]}},
{ "type": "Feature", "properties": {"Name":"Campton city","State":"Kentucky","State_Abbrev":"KY"},
"geometry":{ "type": "Point", "coordinates": [-83.547241,37.735161]}},
{ "type": "Feature", "properties": {"Name":"Caneyville city","State":"Kentucky","State_Abbrev":"KY"},
"geometry":{ "type": "Point", "coordinates": [-86.499732,37.42298]}},
{ "type": "Feature", "properties": {"Name":"Cannonsburg CDP","State":"Kentucky","State_Abbrev":"KY"},
"geometry":{ "type": "Point", "coordinates": [-82.696428,38.380841]}},
{ "type": "Feature", "properties": {"Name":"Carlisle city","State":"Kentucky","State_Abbrev":"KY"},
"geometry":{ "type": "Point", "coordinates": [-84.03337,38.315787]}},
{ "type": "Feature", "properties": {"Name":"Carrollton city","State":"Kentucky","State_Abbrev":"KY"},
"geometry":{ "type": "Point", "coordinates": [-85.165764,38.679621]}},
{ "type": "Feature", "properties": {"Name":"Carrsville city","State":"Kentucky","State_Abbrev":"KY"},
"geometry":{ "type": "Point", "coordinates": [-88.375361,37.398039]}},
{ "type": "Feature", "properties": {"Name":"Catlettsburg city","State":"Kentucky","State_Abbrev":"KY"},
"geometry":{ "type": "Point", "coordinates": [-82.603017,38.417041]}},
{ "type": "Feature", "properties": {"Name":"Cave City city","State":"Kentucky","State_Abbrev":"KY"},
"geometry":{ "type": "Point", "coordinates": [-85.964426,37.139504]}},
{ "type": "Feature", "properties": {"Name":"Cawood CDP","State":"Kentucky","State_Abbrev":"KY"},
"geometry":{ "type": "Point", "coordinates": [-83.232515,36.79156]}},
{ "type": "Feature", "properties": {"Name":"Cayce CDP","State":"Kentucky","State_Abbrev":"KY"},
"geometry":{ "type": "Point", "coordinates": [-89.034252,36.559202]}},
{ "type": "Feature", "properties": {"Name":"Cecilia CDP","State":"Kentucky","State_Abbrev":"KY"},
"geometry":{ "type": "Point", "coordinates": [-85.948848,37.661742]}},
{ "type": "Feature", "properties": {"Name":"Centertown city","State":"Kentucky","State_Abbrev":"KY"},
"geometry":{ "type": "Point", "coordinates": [-86.995962,37.417761]}},
{ "type": "Feature", "properties": {"Name":"Central City city","State":"Kentucky","State_Abbrev":"KY"},
"geometry":{ "type": "Point", "coordinates": [-87.128988,37.296777]}},
{ "type": "Feature", "properties": {"Name":"Cerulean CDP","State":"Kentucky","State_Abbrev":"KY"},
"geometry":{ "type": "Point", "coordinates": [-87.714515,36.95137]}},
{ "type": "Feature", "properties": {"Name":"Chaplin CDP","State":"Kentucky","State_Abbrev":"KY"},
"geometry":{ "type": "Point", "coordinates": [-85.220977,37.899121]}},
{ "type": "Feature", "properties": {"Name":"Clarkson city","State":"Kentucky","State_Abbrev":"KY"},
"geometry":{ "type": "Point", "coordinates": [-86.227045,37.492904]}},
{ "type": "Feature", "properties": {"Name":"Claryville CDP","State":"Kentucky","State_Abbrev":"KY"},
"geometry":{ "type": "Point", "coordinates": [-84.409519,38.914]}},
{ "type": "Feature", "properties": {"Name":"Clay city","State":"Kentucky","State_Abbrev":"KY"},
"geometry":{ "type": "Point", "coordinates": [-87.820311,37.47586]}},
{ "type": "Feature", "properties": {"Name":"Clay City city","State":"Kentucky","State_Abbrev":"KY"},
"geometry":{ "type": "Point", "coordinates": [-83.929701,37.86076]}},
{ "type": "Feature", "properties": {"Name":"Cleaton CDP","State":"Kentucky","State_Abbrev":"KY"},
"geometry":{ "type": "Point", "coordinates": [-87.09063,37.251421]}},
{ "type": "Feature", "properties": {"Name":"Clinton city","State":"Kentucky","State_Abbrev":"KY"},
"geometry":{ "type": "Point", "coordinates": [-88.994089,36.665793]}},
{ "type": "Feature", "properties": {"Name":"Cloverport city","State":"Kentucky","State_Abbrev":"KY"},
"geometry":{ "type": "Point", "coordinates": [-86.630159,37.830913]}},
{ "type": "Feature", "properties": {"Name":"Coal Run Village city","State":"Kentucky","State_Abbrev":"KY"},
"geometry":{ "type": "Point", "coordinates": [-82.554398,37.532973]}},
{ "type": "Feature", "properties": {"Name":"Coldiron CDP","State":"Kentucky","State_Abbrev":"KY"},
"geometry":{ "type": "Point", "coordinates": [-83.452879,36.828288]}},
{ "type": "Feature", "properties": {"Name":"Cold Spring city","State":"Kentucky","State_Abbrev":"KY"},
"geometry":{ "type": "Point", "coordinates": [-84.434455,39.015632]}},
{ "type": "Feature", "properties": {"Name":"Coldstream city","State":"Kentucky","State_Abbrev":"KY"},
"geometry":{ "type": "Point", "coordinates": [-85.526321,38.314275]}},
{ "type": "Feature", "properties": {"Name":"Columbia city","State":"Kentucky","State_Abbrev":"KY"},
"geometry":{ "type": "Point", "coordinates": [-85.307537,37.103437]}},
{ "type": "Feature", "properties": {"Name":"Columbus city","State":"Kentucky","State_Abbrev":"KY"},
"geometry":{ "type": "Point", "coordinates": [-89.101907,36.759751]}},
{ "type": "Feature", "properties": {"Name":"Combs CDP","State":"Kentucky","State_Abbrev":"KY"},
"geometry":{ "type": "Point", "coordinates": [-83.215709,37.269213]}},
{ "type": "Feature", "properties": {"Name":"Concord city","State":"Kentucky","State_Abbrev":"KY"},
"geometry":{ "type": "Point", "coordinates": [-83.492079,38.688146]}},
{ "type": "Feature", "properties": {"Name":"Corbin city","State":"Kentucky","State_Abbrev":"KY"},
"geometry":{ "type": "Point", "coordinates": [-84.10079,36.931584]}},
{ "type": "Feature", "properties": {"Name":"Corinth city","State":"Kentucky","State_Abbrev":"KY"},
"geometry":{ "type": "Point", "coordinates": [-84.608194,38.499633]}},
{ "type": "Feature", "properties": {"Name":"Corydon city","State":"Kentucky","State_Abbrev":"KY"},
"geometry":{ "type": "Point", "coordinates": [-87.706652,37.739611]}},
{ "type": "Feature", "properties": {"Name":"Covington city","State":"Kentucky","State_Abbrev":"KY"},
"geometry":{ "type": "Point", "coordinates": [-84.519648,39.035109]}},
{ "type": "Feature", "properties": {"Name":"Coxton CDP","State":"Kentucky","State_Abbrev":"KY"},
"geometry":{ "type": "Point", "coordinates": [-83.270906,36.858625]}},
{ "type": "Feature", "properties": {"Name":"Crab Orchard city","State":"Kentucky","State_Abbrev":"KY"},
"geometry":{ "type": "Point", "coordinates": [-84.507019,37.462313]}},
{ "type": "Feature", "properties": {"Name":"Crayne CDP","State":"Kentucky","State_Abbrev":"KY"},
"geometry":{ "type": "Point", "coordinates": [-88.086164,37.282626]}},
{ "type": "Feature", "properties": {"Name":"Creekside city","State":"Kentucky","State_Abbrev":"KY"},
"geometry":{ "type": "Point", "coordinates": [-85.570017,38.291516]}},
{ "type": "Feature", "properties": {"Name":"Crescent Springs city","State":"Kentucky","State_Abbrev":"KY"},
"geometry":{ "type": "Point", "coordinates": [-84.57982,39.056162]}},
{ "type": "Feature", "properties": {"Name":"Crestview city","State":"Kentucky","State_Abbrev":"KY"},
"geometry":{ "type": "Point", "coordinates": [-84.415616,39.024615]}},
{ "type": "Feature", "properties": {"Name":"Crestview Hills city","State":"Kentucky","State_Abbrev":"KY"},
"geometry":{ "type": "Point", "coordinates": [-84.569906,39.024344]}},
{ "type": "Feature", "properties": {"Name":"Crestwood city","State":"Kentucky","State_Abbrev":"KY"},
"geometry":{ "type": "Point", "coordinates": [-85.477656,38.343668]}},
{ "type": "Feature", "properties": {"Name":"Crittenden city","State":"Kentucky","State_Abbrev":"KY"},
"geometry":{ "type": "Point", "coordinates": [-84.601918,38.788501]}},
{ "type": "Feature", "properties": {"Name":"Crofton city","State":"Kentucky","State_Abbrev":"KY"},
"geometry":{ "type": "Point", "coordinates": [-87.483496,37.047926]}},
{ "type": "Feature", "properties": {"Name":"Crossgate city","State":"Kentucky","State_Abbrev":"KY"},
"geometry":{ "type": "Point", "coordinates": [-85.629606,38.279274]}},
{ "type": "Feature", "properties": {"Name":"Cumberland city","State":"Kentucky","State_Abbrev":"KY"},
"geometry":{ "type": "Point", "coordinates": [-82.996098,36.986971]}},
{ "type": "Feature", "properties": {"Name":"Cunningham CDP","State":"Kentucky","State_Abbrev":"KY"},
"geometry":{ "type": "Point", "coordinates": [-88.887199,36.912289]}},
{ "type": "Feature", "properties": {"Name":"Curdsville CDP","State":"Kentucky","State_Abbrev":"KY"},
"geometry":{ "type": "Point", "coordinates": [-87.332439,37.736065]}},
{ "type": "Feature", "properties": {"Name":"Cynthiana city","State":"Kentucky","State_Abbrev":"KY"},
"geometry":{ "type": "Point", "coordinates": [-84.301757,38.382954]}},
{ "type": "Feature", "properties": {"Name":"Danville city","State":"Kentucky","State_Abbrev":"KY"},
"geometry":{ "type": "Point", "coordinates": [-84.776793,37.642067]}},
{ "type": "Feature", "properties": {"Name":"Dawson Springs city","State":"Kentucky","State_Abbrev":"KY"},
"geometry":{ "type": "Point", "coordinates": [-87.688598,37.17424]}},
{ "type": "Feature", "properties": {"Name":"Dayton city","State":"Kentucky","State_Abbrev":"KY"},
"geometry":{ "type": "Point", "coordinates": [-84.46284,39.112308]}},
{ "type": "Feature", "properties": {"Name":"Dexter CDP","State":"Kentucky","State_Abbrev":"KY"},
"geometry":{ "type": "Point", "coordinates": [-88.295999,36.7394]}},
{ "type": "Feature", "properties": {"Name":"Diablock CDP","State":"Kentucky","State_Abbrev":"KY"},
"geometry":{ "type": "Point", "coordinates": [-83.170957,37.228549]}},
{ "type": "Feature", "properties": {"Name":"Dixon city","State":"Kentucky","State_Abbrev":"KY"},
"geometry":{ "type": "Point", "coordinates": [-87.688432,37.513677]}},
{ "type": "Feature", "properties": {"Name":"Doe Valley CDP","State":"Kentucky","State_Abbrev":"KY"},
"geometry":{ "type": "Point", "coordinates": [-86.107918,37.976261]}},
{ "type": "Feature", "properties": {"Name":"Douglass Hills city","State":"Kentucky","State_Abbrev":"KY"},
"geometry":{ "type": "Point", "coordinates": [-85.553202,38.23609]}},
{ "type": "Feature", "properties": {"Name":"Dover city","State":"Kentucky","State_Abbrev":"KY"},
"geometry":{ "type": "Point", "coordinates": [-83.888348,38.75669]}},
{ "type": "Feature", "properties": {"Name":"Drakesboro city","State":"Kentucky","State_Abbrev":"KY"},
"geometry":{ "type": "Point", "coordinates": [-87.049945,37.217302]}},
{ "type": "Feature", "properties": {"Name":"Druid Hills city","State":"Kentucky","State_Abbrev":"KY"},
"geometry":{ "type": "Point", "coordinates": [-85.661769,38.264936]}},
{ "type": "Feature", "properties": {"Name":"Dry Ridge city","State":"Kentucky","State_Abbrev":"KY"},
"geometry":{ "type": "Point", "coordinates": [-84.600215,38.685414]}},
{ "type": "Feature", "properties": {"Name":"Dunmor CDP","State":"Kentucky","State_Abbrev":"KY"},
"geometry":{ "type": "Point", "coordinates": [-86.986018,37.076178]}},
{ "type": "Feature", "properties": {"Name":"Dwale CDP","State":"Kentucky","State_Abbrev":"KY"},
"geometry":{ "type": "Point", "coordinates": [-82.731295,37.626668]}},
{ "type": "Feature", "properties": {"Name":"Earlington city","State":"Kentucky","State_Abbrev":"KY"},
"geometry":{ "type": "Point", "coordinates": [-87.506135,37.275163]}},
{ "type": "Feature", "properties": {"Name":"East Bernstadt CDP","State":"Kentucky","State_Abbrev":"KY"},
"geometry":{ "type": "Point", "coordinates": [-84.129211,37.192677]}},
{ "type": "Feature", "properties": {"Name":"Eddyville city","State":"Kentucky","State_Abbrev":"KY"},
"geometry":{ "type": "Point", "coordinates": [-88.074945,37.077409]}},
{ "type": "Feature", "properties": {"Name":"Edgewood city","State":"Kentucky","State_Abbrev":"KY"},
"geometry":{ "type": "Point", "coordinates": [-84.55988,39.008725]}},
{ "type": "Feature", "properties": {"Name":"Edmonton city","State":"Kentucky","State_Abbrev":"KY"},
"geometry":{ "type": "Point", "coordinates": [-85.622284,36.985237]}},
{ "type": "Feature", "properties": {"Name":"Ekron city","State":"Kentucky","State_Abbrev":"KY"},
"geometry":{ "type": "Point", "coordinates": [-86.176395,37.930252]}},
{ "type": "Feature", "properties": {"Name":"Elizabethtown city","State":"Kentucky","State_Abbrev":"KY"},
"geometry":{ "type": "Point", "coordinates": [-85.878881,37.704002]}},
{ "type": "Feature", "properties": {"Name":"Elizaville CDP","State":"Kentucky","State_Abbrev":"KY"},
"geometry":{ "type": "Point", "coordinates": [-83.820152,38.41498]}},
{ "type": "Feature", "properties": {"Name":"Elk Creek CDP","State":"Kentucky","State_Abbrev":"KY"},
"geometry":{ "type": "Point", "coordinates": [-85.37163,38.115191]}},
{ "type": "Feature", "properties": {"Name":"Elkhorn City city","State":"Kentucky","State_Abbrev":"KY"},
"geometry":{ "type": "Point", "coordinates": [-82.352334,37.3203]}},
{ "type": "Feature", "properties": {"Name":"Elkton city","State":"Kentucky","State_Abbrev":"KY"},
"geometry":{ "type": "Point", "coordinates": [-87.161139,36.816081]}},
{ "type": "Feature", "properties": {"Name":"Elsmere city","State":"Kentucky","State_Abbrev":"KY"},
"geometry":{ "type": "Point", "coordinates": [-84.60188,38.99367]}},
{ "type": "Feature", "properties": {"Name":"Eminence city","State":"Kentucky","State_Abbrev":"KY"},
"geometry":{ "type": "Point", "coordinates": [-85.176904,38.363687]}},
{ "type": "Feature", "properties": {"Name":"Emlyn CDP","State":"Kentucky","State_Abbrev":"KY"},
"geometry":{ "type": "Point", "coordinates": [-84.141922,36.699271]}},
{ "type": "Feature", "properties": {"Name":"Erlanger city","State":"Kentucky","State_Abbrev":"KY"},
"geometry":{ "type": "Point", "coordinates": [-84.600135,39.039429]}},
{ "type": "Feature", "properties": {"Name":"Eubank city","State":"Kentucky","State_Abbrev":"KY"},
"geometry":{ "type": "Point", "coordinates": [-84.652572,37.278412]}},
{ "type": "Feature", "properties": {"Name":"Evarts city","State":"Kentucky","State_Abbrev":"KY"},
"geometry":{ "type": "Point", "coordinates": [-83.192506,36.865066]}},
{ "type": "Feature", "properties": {"Name":"Ewing city","State":"Kentucky","State_Abbrev":"KY"},
"geometry":{ "type": "Point", "coordinates": [-83.862066,38.427754]}},
{ "type": "Feature", "properties": {"Name":"Ezel CDP","State":"Kentucky","State_Abbrev":"KY"},
"geometry":{ "type": "Point", "coordinates": [-83.443528,37.891396]}},
{ "type": "Feature", "properties": {"Name":"Fairfield city","State":"Kentucky","State_Abbrev":"KY"},
"geometry":{ "type": "Point", "coordinates": [-85.386124,37.931209]}},
{ "type": "Feature", "properties": {"Name":"Fairview CDP","State":"Kentucky","State_Abbrev":"KY"},
"geometry":{ "type": "Point", "coordinates": [-87.310768,36.842226]}},
{ "type": "Feature", "properties": {"Name":"Fairview city","State":"Kentucky","State_Abbrev":"KY"},
"geometry":{ "type": "Point", "coordinates": [-84.483353,38.999132]}},
{ "type": "Feature", "properties": {"Name":"Falmouth city","State":"Kentucky","State_Abbrev":"KY"},
"geometry":{ "type": "Point", "coordinates": [-84.330855,38.671796]}},
{ "type": "Feature", "properties": {"Name":"Fancy Farm CDP","State":"Kentucky","State_Abbrev":"KY"},
"geometry":{ "type": "Point", "coordinates": [-88.793673,36.800734]}},
{ "type": "Feature", "properties": {"Name":"Farley CDP","State":"Kentucky","State_Abbrev":"KY"},
"geometry":{ "type": "Point", "coordinates": [-88.572895,37.039997]}},
{ "type": "Feature", "properties": {"Name":"Farmers CDP","State":"Kentucky","State_Abbrev":"KY"},
"geometry":{ "type": "Point", "coordinates": [-83.542951,38.137206]}},
{ "type": "Feature", "properties": {"Name":"Farmington CDP","State":"Kentucky","State_Abbrev":"KY"},
"geometry":{ "type": "Point", "coordinates": [-88.528572,36.669248]}},
{ "type": "Feature", "properties": {"Name":"Ferguson city","State":"Kentucky","State_Abbrev":"KY"},
"geometry":{ "type": "Point", "coordinates": [-84.598642,37.062755]}},
{ "type": "Feature", "properties": {"Name":"Fincastle city","State":"Kentucky","State_Abbrev":"KY"},
"geometry":{ "type": "Point", "coordinates": [-85.541468,38.308194]}},
{ "type": "Feature", "properties": {"Name":"Flat Lick CDP","State":"Kentucky","State_Abbrev":"KY"},
"geometry":{ "type": "Point", "coordinates": [-83.761607,36.834463]}},
{ "type": "Feature", "properties": {"Name":"Flatwoods city","State":"Kentucky","State_Abbrev":"KY"},
"geometry":{ "type": "Point", "coordinates": [-82.719299,38.523148]}},
{ "type": "Feature", "properties": {"Name":"Fleming-Neon city","State":"Kentucky","State_Abbrev":"KY"},
"geometry":{ "type": "Point", "coordinates": [-82.703315,37.199025]}},
{ "type": "Feature", "properties": {"Name":"Flemingsburg city","State":"Kentucky","State_Abbrev":"KY"},
"geometry":{ "type": "Point", "coordinates": [-83.740487,38.424568]}},
{ "type": "Feature", "properties": {"Name":"Florence city","State":"Kentucky","State_Abbrev":"KY"},
"geometry":{ "type": "Point", "coordinates": [-84.648186,38.993405]}},
{ "type": "Feature", "properties": {"Name":"Fordsville city","State":"Kentucky","State_Abbrev":"KY"},
"geometry":{ "type": "Point", "coordinates": [-86.718345,37.634843]}},
{ "type": "Feature", "properties": {"Name":"Forest Hills city","State":"Kentucky","State_Abbrev":"KY"},
"geometry":{ "type": "Point", "coordinates": [-85.585637,38.216769]}},
{ "type": "Feature", "properties": {"Name":"Fort Campbell North CDP","State":"Kentucky","State_Abbrev":"KY"},
"geometry":{ "type": "Point", "coordinates": [-87.47648,36.663198]}},
{ "type": "Feature", "properties": {"Name":"Fort Knox CDP","State":"Kentucky","State_Abbrev":"KY"},
"geometry":{ "type": "Point", "coordinates": [-85.967151,37.891641]}},
{ "type": "Feature", "properties": {"Name":"Fort Mitchell city","State":"Kentucky","State_Abbrev":"KY"},
"geometry":{ "type": "Point", "coordinates": [-84.556154,39.045546]}},
{ "type": "Feature", "properties": {"Name":"Fort Thomas city","State":"Kentucky","State_Abbrev":"KY"},
"geometry":{ "type": "Point", "coordinates": [-84.457111,39.082436]}},
{ "type": "Feature", "properties": {"Name":"Fort Wright city","State":"Kentucky","State_Abbrev":"KY"},
"geometry":{ "type": "Point", "coordinates": [-84.536071,39.045754]}},
{ "type": "Feature", "properties": {"Name":"Fountain Run city","State":"Kentucky","State_Abbrev":"KY"},
"geometry":{ "type": "Point", "coordinates": [-85.956233,36.726047]}},
{ "type": "Feature", "properties": {"Name":"Fox Chase city","State":"Kentucky","State_Abbrev":"KY"},
"geometry":{ "type": "Point", "coordinates": [-85.69063,38.045029]}},
{ "type": "Feature", "properties": {"Name":"Francisville CDP","State":"Kentucky","State_Abbrev":"KY"},
"geometry":{ "type": "Point", "coordinates": [-84.727714,39.10675]}},
{ "type": "Feature", "properties": {"Name":"Frankfort city","State":"Kentucky","State_Abbrev":"KY"},
"geometry":{ "type": "Point", "coordinates": [-84.865877,38.194966]}},
{ "type": "Feature", "properties": {"Name":"Franklin city","State":"Kentucky","State_Abbrev":"KY"},
"geometry":{ "type": "Point", "coordinates": [-86.557576,36.718029]}},
{ "type": "Feature", "properties": {"Name":"Fredonia city","State":"Kentucky","State_Abbrev":"KY"},
"geometry":{ "type": "Point", "coordinates": [-88.061725,37.20783]}},
{ "type": "Feature", "properties": {"Name":"Freeburn CDP","State":"Kentucky","State_Abbrev":"KY"},
"geometry":{ "type": "Point", "coordinates": [-82.151368,37.561957]}},
{ "type": "Feature", "properties": {"Name":"Frenchburg city","State":"Kentucky","State_Abbrev":"KY"},
"geometry":{ "type": "Point", "coordinates": [-83.622852,37.953412]}},
{ "type": "Feature", "properties": {"Name":"Fulton city","State":"Kentucky","State_Abbrev":"KY"},
"geometry":{ "type": "Point", "coordinates": [-88.882391,36.514477]}},
{ "type": "Feature", "properties": {"Name":"Gamaliel city","State":"Kentucky","State_Abbrev":"KY"},
"geometry":{ "type": "Point", "coordinates": [-85.793521,36.640297]}},
{ "type": "Feature", "properties": {"Name":"Garrison CDP","State":"Kentucky","State_Abbrev":"KY"},
"geometry":{ "type": "Point", "coordinates": [-83.181911,38.606721]}},
{ "type": "Feature", "properties": {"Name":"Georgetown city","State":"Kentucky","State_Abbrev":"KY"},
"geometry":{ "type": "Point", "coordinates": [-84.534921,38.260181]}},
{ "type": "Feature", "properties": {"Name":"Germantown city","State":"Kentucky","State_Abbrev":"KY"},
"geometry":{ "type": "Point", "coordinates": [-83.964156,38.655922]}},
{ "type": "Feature", "properties": {"Name":"Ghent city","State":"Kentucky","State_Abbrev":"KY"},
"geometry":{ "type": "Point", "coordinates": [-85.063734,38.732485]}},
{ "type": "Feature", "properties": {"Name":"Gilbertsville CDP","State":"Kentucky","State_Abbrev":"KY"},
"geometry":{ "type": "Point", "coordinates": [-88.310973,37.024782]}},
{ "type": "Feature", "properties": {"Name":"Glasgow city","State":"Kentucky","State_Abbrev":"KY"},
"geometry":{ "type": "Point", "coordinates": [-85.925876,37.004842]}},
{ "type": "Feature", "properties": {"Name":"Glencoe city","State":"Kentucky","State_Abbrev":"KY"},
"geometry":{ "type": "Point", "coordinates": [-84.823276,38.72499]}},
{ "type": "Feature", "properties": {"Name":"Glenview city","State":"Kentucky","State_Abbrev":"KY"},
"geometry":{ "type": "Point", "coordinates": [-85.652127,38.301619]}},
{ "type": "Feature", "properties": {"Name":"Glenview Hills city","State":"Kentucky","State_Abbrev":"KY"},
"geometry":{ "type": "Point", "coordinates": [-85.638332,38.295174]}},
{ "type": "Feature", "properties": {"Name":"Glenview Manor city","State":"Kentucky","State_Abbrev":"KY"},
"geometry":{ "type": "Point", "coordinates": [-85.633199,38.290719]}},
{ "type": "Feature", "properties": {"Name":"Goose Creek city","State":"Kentucky","State_Abbrev":"KY"},
"geometry":{ "type": "Point", "coordinates": [-85.589562,38.293409]}},
{ "type": "Feature", "properties": {"Name":"Goshen city","State":"Kentucky","State_Abbrev":"KY"},
"geometry":{ "type": "Point", "coordinates": [-85.58372,38.403427]}},
{ "type": "Feature", "properties": {"Name":"Gracey CDP","State":"Kentucky","State_Abbrev":"KY"},
"geometry":{ "type": "Point", "coordinates": [-87.663697,36.879411]}},
{ "type": "Feature", "properties": {"Name":"Grand Rivers city","State":"Kentucky","State_Abbrev":"KY"},
"geometry":{ "type": "Point", "coordinates": [-88.23184,37.004736]}},
{ "type": "Feature", "properties": {"Name":"Gratz city","State":"Kentucky","State_Abbrev":"KY"},
"geometry":{ "type": "Point", "coordinates": [-84.946449,38.47342]}},
{ "type": "Feature", "properties": {"Name":"Graymoor-Devondale city","State":"Kentucky","State_Abbrev":"KY"},
"geometry":{ "type": "Point", "coordinates": [-85.616647,38.273241]}},
{ "type": "Feature", "properties": {"Name":"Grayson city","State":"Kentucky","State_Abbrev":"KY"},
"geometry":{ "type": "Point", "coordinates": [-82.935811,38.333895]}},
{ "type": "Feature", "properties": {"Name":"Greensburg city","State":"Kentucky","State_Abbrev":"KY"},
"geometry":{ "type": "Point", "coordinates": [-85.49335,37.259499]}},
{ "type": "Feature", "properties": {"Name":"Green Spring city","State":"Kentucky","State_Abbrev":"KY"},
"geometry":{ "type": "Point", "coordinates": [-85.614555,38.316691]}},
{ "type": "Feature", "properties": {"Name":"Greenup city","State":"Kentucky","State_Abbrev":"KY"},
"geometry":{ "type": "Point", "coordinates": [-82.826295,38.571798]}},
{ "type": "Feature", "properties": {"Name":"Greenville city","State":"Kentucky","State_Abbrev":"KY"},
"geometry":{ "type": "Point", "coordinates": [-87.177572,37.210487]}},
{ "type": "Feature", "properties": {"Name":"Guthrie city","State":"Kentucky","State_Abbrev":"KY"},
"geometry":{ "type": "Point", "coordinates": [-87.171473,36.651281]}},
{ "type": "Feature", "properties": {"Name":"Hanson city","State":"Kentucky","State_Abbrev":"KY"},
"geometry":{ "type": "Point", "coordinates": [-87.480694,37.418766]}},
{ "type": "Feature", "properties": {"Name":"Hardin city","State":"Kentucky","State_Abbrev":"KY"},
"geometry":{ "type": "Point", "coordinates": [-88.302175,36.76506]}},
{ "type": "Feature", "properties": {"Name":"Hardinsburg city","State":"Kentucky","State_Abbrev":"KY"},
"geometry":{ "type": "Point", "coordinates": [-86.450842,37.771444]}},
{ "type": "Feature", "properties": {"Name":"Hardyville CDP","State":"Kentucky","State_Abbrev":"KY"},
"geometry":{ "type": "Point", "coordinates": [-85.793336,37.254159]}},
{ "type": "Feature", "properties": {"Name":"Harlan city","State":"Kentucky","State_Abbrev":"KY"},
"geometry":{ "type": "Point", "coordinates": [-83.319484,36.841269]}},
{ "type": "Feature", "properties": {"Name":"Harrodsburg city","State":"Kentucky","State_Abbrev":"KY"},
"geometry":{ "type": "Point", "coordinates": [-84.848781,37.768072]}},
{ "type": "Feature", "properties": {"Name":"Hartford city","State":"Kentucky","State_Abbrev":"KY"},
"geometry":{ "type": "Point", "coordinates": [-86.889849,37.45338]}},
{ "type": "Feature", "properties": {"Name":"Hawesville city","State":"Kentucky","State_Abbrev":"KY"},
"geometry":{ "type": "Point", "coordinates": [-86.755526,37.892121]}},
{ "type": "Feature", "properties": {"Name":"Hazard city","State":"Kentucky","State_Abbrev":"KY"},
"geometry":{ "type": "Point", "coordinates": [-83.198235,37.260506]}},
{ "type": "Feature", "properties": {"Name":"Hazel city","State":"Kentucky","State_Abbrev":"KY"},
"geometry":{ "type": "Point", "coordinates": [-88.325254,36.505471]}},
{ "type": "Feature", "properties": {"Name":"Hazel Green CDP","State":"Kentucky","State_Abbrev":"KY"},
"geometry":{ "type": "Point", "coordinates": [-83.419791,37.802792]}},
{ "type": "Feature", "properties": {"Name":"Hebron CDP","State":"Kentucky","State_Abbrev":"KY"},
"geometry":{ "type": "Point", "coordinates": [-84.708281,39.063817]}},
{ "type": "Feature", "properties": {"Name":"Hebron Estates city","State":"Kentucky","State_Abbrev":"KY"},
"geometry":{ "type": "Point", "coordinates": [-85.668132,38.050051]}},
{ "type": "Feature", "properties": {"Name":"Henderson city","State":"Kentucky","State_Abbrev":"KY"},
"geometry":{ "type": "Point", "coordinates": [-87.580971,37.838416]}},
{ "type": "Feature", "properties": {"Name":"Hendron CDP","State":"Kentucky","State_Abbrev":"KY"},
"geometry":{ "type": "Point", "coordinates": [-88.645602,37.033087]}},
{ "type": "Feature", "properties": {"Name":"Heritage Creek city","State":"Kentucky","State_Abbrev":"KY"},
"geometry":{ "type": "Point", "coordinates": [-85.609209,38.090735]}},
{ "type": "Feature", "properties": {"Name":"Hickman city","State":"Kentucky","State_Abbrev":"KY"},
"geometry":{ "type": "Point", "coordinates": [-89.184029,36.566636]}},
{ "type": "Feature", "properties": {"Name":"Hickory CDP","State":"Kentucky","State_Abbrev":"KY"},
"geometry":{ "type": "Point", "coordinates": [-88.647909,36.81737]}},
{ "type": "Feature", "properties": {"Name":"Hickory Hill city","State":"Kentucky","State_Abbrev":"KY"},
"geometry":{ "type": "Point", "coordinates": [-85.567875,38.287707]}},
{ "type": "Feature", "properties": {"Name":"High Bridge CDP","State":"Kentucky","State_Abbrev":"KY"},
"geometry":{ "type": "Point", "coordinates": [-84.704372,37.831885]}},
{ "type": "Feature", "properties": {"Name":"Highland Heights city","State":"Kentucky","State_Abbrev":"KY"},
"geometry":{ "type": "Point", "coordinates": [-84.45658,39.035525]}},
{ "type": "Feature", "properties": {"Name":"Hills and Dales city","State":"Kentucky","State_Abbrev":"KY"},
"geometry":{ "type": "Point", "coordinates": [-85.623978,38.300236]}},
{ "type": "Feature", "properties": {"Name":"Hillview city","State":"Kentucky","State_Abbrev":"KY"},
"geometry":{ "type": "Point", "coordinates": [-85.696525,38.06198]}},
{ "type": "Feature", "properties": {"Name":"Hindman city","State":"Kentucky","State_Abbrev":"KY"},
"geometry":{ "type": "Point", "coordinates": [-82.981897,37.334999]}},
{ "type": "Feature", "properties": {"Name":"Hiseville CDP","State":"Kentucky","State_Abbrev":"KY"},
"geometry":{ "type": "Point", "coordinates": [-85.815432,37.10007]}},
{ "type": "Feature", "properties": {"Name":"Hodgenville city","State":"Kentucky","State_Abbrev":"KY"},
"geometry":{ "type": "Point", "coordinates": [-85.731155,37.563367]}},
{ "type": "Feature", "properties": {"Name":"Hollow Creek city","State":"Kentucky","State_Abbrev":"KY"},
"geometry":{ "type": "Point", "coordinates": [-85.624468,38.152645]}},
{ "type": "Feature", "properties": {"Name":"Hollyvilla city","State":"Kentucky","State_Abbrev":"KY"},
"geometry":{ "type": "Point", "coordinates": [-85.748111,38.092771]}},
{ "type": "Feature", "properties": {"Name":"Hopkinsville city","State":"Kentucky","State_Abbrev":"KY"},
"geometry":{ "type": "Point", "coordinates": [-87.473544,36.839284]}},
{ "type": "Feature", "properties": {"Name":"Horse Cave city","State":"Kentucky","State_Abbrev":"KY"},
"geometry":{ "type": "Point", "coordinates": [-85.91719,37.169795]}},
{ "type": "Feature", "properties": {"Name":"Houston Acres city","State":"Kentucky","State_Abbrev":"KY"},
"geometry":{ "type": "Point", "coordinates": [-85.614484,38.214826]}},
{ "type": "Feature", "properties": {"Name":"Hunters Hollow city","State":"Kentucky","State_Abbrev":"KY"},
"geometry":{ "type": "Point", "coordinates": [-85.6933,38.078357]}},
{ "type": "Feature", "properties": {"Name":"Hurstbourne city","State":"Kentucky","State_Abbrev":"KY"},
"geometry":{ "type": "Point", "coordinates": [-85.591435,38.239385]}},
{ "type": "Feature", "properties": {"Name":"Hurstbourne Acres city","State":"Kentucky","State_Abbrev":"KY"},
"geometry":{ "type": "Point", "coordinates": [-85.590655,38.220205]}},
{ "type": "Feature", "properties": {"Name":"Hustonville city","State":"Kentucky","State_Abbrev":"KY"},
"geometry":{ "type": "Point", "coordinates": [-84.814112,37.479949]}},
{ "type": "Feature", "properties": {"Name":"Hyden city","State":"Kentucky","State_Abbrev":"KY"},
"geometry":{ "type": "Point", "coordinates": [-83.375755,37.156789]}},
{ "type": "Feature", "properties": {"Name":"Independence city","State":"Kentucky","State_Abbrev":"KY"},
"geometry":{ "type": "Point", "coordinates": [-84.547372,38.957442]}},
{ "type": "Feature", "properties": {"Name":"Indian Hills city","State":"Kentucky","State_Abbrev":"KY"},
"geometry":{ "type": "Point", "coordinates": [-85.670877,38.288218]}},
{ "type": "Feature", "properties": {"Name":"Inez city","State":"Kentucky","State_Abbrev":"KY"},
"geometry":{ "type": "Point", "coordinates": [-82.539801,37.869342]}},
{ "type": "Feature", "properties": {"Name":"Ironville CDP","State":"Kentucky","State_Abbrev":"KY"},
"geometry":{ "type": "Point", "coordinates": [-82.6986,38.457474]}},
{ "type": "Feature", "properties": {"Name":"Irvine city","State":"Kentucky","State_Abbrev":"KY"},
"geometry":{ "type": "Point", "coordinates": [-83.968343,37.696432]}},
{ "type": "Feature", "properties": {"Name":"Irvington city","State":"Kentucky","State_Abbrev":"KY"},
"geometry":{ "type": "Point", "coordinates": [-86.285528,37.878074]}},
{ "type": "Feature", "properties": {"Name":"Island city","State":"Kentucky","State_Abbrev":"KY"},
"geometry":{ "type": "Point", "coordinates": [-87.147199,37.44258]}},
{ "type": "Feature", "properties": {"Name":"Jackson city","State":"Kentucky","State_Abbrev":"KY"},
"geometry":{ "type": "Point", "coordinates": [-83.376244,37.565446]}},
{ "type": "Feature", "properties": {"Name":"Jamestown city","State":"Kentucky","State_Abbrev":"KY"},
"geometry":{ "type": "Point", "coordinates": [-85.06443,36.990587]}},
{ "type": "Feature", "properties": {"Name":"Jeff CDP","State":"Kentucky","State_Abbrev":"KY"},
"geometry":{ "type": "Point", "coordinates": [-83.138459,37.210779]}},
{ "type": "Feature", "properties": {"Name":"Jeffersontown city","State":"Kentucky","State_Abbrev":"KY"},
"geometry":{ "type": "Point", "coordinates": [-85.569661,38.205547]}},
{ "type": "Feature", "properties": {"Name":"Jeffersonville city","State":"Kentucky","State_Abbrev":"KY"},
"geometry":{ "type": "Point", "coordinates": [-83.85546,37.974536]}},
{ "type": "Feature", "properties": {"Name":"Jenkins city","State":"Kentucky","State_Abbrev":"KY"},
"geometry":{ "type": "Point", "coordinates": [-82.647968,37.169495]}},
{ "type": "Feature", "properties": {"Name":"Junction City city","State":"Kentucky","State_Abbrev":"KY"},
"geometry":{ "type": "Point", "coordinates": [-84.78929,37.585247]}},
{ "type": "Feature", "properties": {"Name":"Keene city","State":"Kentucky","State_Abbrev":"KY"},
"geometry":{ "type": "Point", "coordinates": [-84.642798,37.942173]}},
{ "type": "Feature", "properties": {"Name":"Kenton Vale city","State":"Kentucky","State_Abbrev":"KY"},
"geometry":{ "type": "Point", "coordinates": [-84.519894,39.051436]}},
{ "type": "Feature", "properties": {"Name":"Kenvir CDP","State":"Kentucky","State_Abbrev":"KY"},
"geometry":{ "type": "Point", "coordinates": [-83.153816,36.853131]}},
{ "type": "Feature", "properties": {"Name":"Kevil city","State":"Kentucky","State_Abbrev":"KY"},
"geometry":{ "type": "Point", "coordinates": [-88.882921,37.084213]}},
{ "type": "Feature", "properties": {"Name":"Kingsley city","State":"Kentucky","State_Abbrev":"KY"},
"geometry":{ "type": "Point", "coordinates": [-85.672657,38.221933]}},
{ "type": "Feature", "properties": {"Name":"Knottsville CDP","State":"Kentucky","State_Abbrev":"KY"},
"geometry":{ "type": "Point", "coordinates": [-86.911503,37.772971]}},
{ "type": "Feature", "properties": {"Name":"Kuttawa city","State":"Kentucky","State_Abbrev":"KY"},
"geometry":{ "type": "Point", "coordinates": [-88.114389,37.060467]}},
{ "type": "Feature", "properties": {"Name":"La Center city","State":"Kentucky","State_Abbrev":"KY"},
"geometry":{ "type": "Point", "coordinates": [-88.975058,37.074919]}},
{ "type": "Feature", "properties": {"Name":"LaFayette city","State":"Kentucky","State_Abbrev":"KY"},
"geometry":{ "type": "Point", "coordinates": [-87.658132,36.660214]}},
{ "type": "Feature", "properties": {"Name":"La Grange city","State":"Kentucky","State_Abbrev":"KY"},
"geometry":{ "type": "Point", "coordinates": [-85.376804,38.397251]}},
{ "type": "Feature", "properties": {"Name":"Lakeside Park city","State":"Kentucky","State_Abbrev":"KY"},
"geometry":{ "type": "Point", "coordinates": [-84.566756,39.034204]}},
{ "type": "Feature", "properties": {"Name":"Lakeview Heights city","State":"Kentucky","State_Abbrev":"KY"},
"geometry":{ "type": "Point", "coordinates": [-83.504312,38.152026]}},
{ "type": "Feature", "properties": {"Name":"Lancaster city","State":"Kentucky","State_Abbrev":"KY"},
"geometry":{ "type": "Point", "coordinates": [-84.583209,37.614373]}},
{ "type": "Feature", "properties": {"Name":"Langdon Place city","State":"Kentucky","State_Abbrev":"KY"},
"geometry":{ "type": "Point", "coordinates": [-85.58492,38.286552]}},
{ "type": "Feature", "properties": {"Name":"Lawrenceburg city","State":"Kentucky","State_Abbrev":"KY"},
"geometry":{ "type": "Point", "coordinates": [-84.904701,38.033873]}},
{ "type": "Feature", "properties": {"Name":"Lebanon city","State":"Kentucky","State_Abbrev":"KY"},
"geometry":{ "type": "Point", "coordinates": [-85.258938,37.569638]}},
{ "type": "Feature", "properties": {"Name":"Lebanon Junction city","State":"Kentucky","State_Abbrev":"KY"},
"geometry":{ "type": "Point", "coordinates": [-85.722355,37.835239]}},
{ "type": "Feature", "properties": {"Name":"Ledbetter CDP","State":"Kentucky","State_Abbrev":"KY"},
"geometry":{ "type": "Point", "coordinates": [-88.496814,37.052414]}},
{ "type": "Feature", "properties": {"Name":"Leitchfield city","State":"Kentucky","State_Abbrev":"KY"},
"geometry":{ "type": "Point", "coordinates": [-86.284687,37.48624]}},
{ "type": "Feature", "properties": {"Name":"Lewisburg city","State":"Kentucky","State_Abbrev":"KY"},
"geometry":{ "type": "Point", "coordinates": [-86.950188,36.98723]}},
{ "type": "Feature", "properties": {"Name":"Lewisport city","State":"Kentucky","State_Abbrev":"KY"},
"geometry":{ "type": "Point", "coordinates": [-86.902816,37.930668]}},
{ "type": "Feature", "properties": {"Name":"Lexington-Fayette urban county","State":"Kentucky","State_Abbrev":"KY"},
"geometry":{ "type": "Point", "coordinates": [-84.458272,38.040678]}},
{ "type": "Feature", "properties": {"Name":"Liberty city","State":"Kentucky","State_Abbrev":"KY"},
"geometry":{ "type": "Point", "coordinates": [-84.930487,37.317988]}},
{ "type": "Feature", "properties": {"Name":"Lincolnshire city","State":"Kentucky","State_Abbrev":"KY"},
"geometry":{ "type": "Point", "coordinates": [-85.62156,38.223784]}},
{ "type": "Feature", "properties": {"Name":"Livermore city","State":"Kentucky","State_Abbrev":"KY"},
"geometry":{ "type": "Point", "coordinates": [-87.134135,37.492045]}},
{ "type": "Feature", "properties": {"Name":"Livingston city","State":"Kentucky","State_Abbrev":"KY"},
"geometry":{ "type": "Point", "coordinates": [-84.215093,37.29718]}},
{ "type": "Feature", "properties": {"Name":"London city","State":"Kentucky","State_Abbrev":"KY"},
"geometry":{ "type": "Point", "coordinates": [-84.081679,37.109952]}},
{ "type": "Feature", "properties": {"Name":"Loretto city","State":"Kentucky","State_Abbrev":"KY"},
"geometry":{ "type": "Point", "coordinates": [-85.393147,37.642039]}},
{ "type": "Feature", "properties": {"Name":"Louisa city","State":"Kentucky","State_Abbrev":"KY"},
"geometry":{ "type": "Point", "coordinates": [-82.61517,38.111611]}},
{ "type": "Feature", "properties": {"Name":"Louisville city","State":"Kentucky","State_Abbrev":"KY"},
"geometry":{ "type": "Point", "coordinates": [-85.740614,38.224728]}},
{ "type": "Feature", "properties": {"Name":"Louisville/Jefferson County metro government (balance)","State":"Kentucky","State_Abbrev":"KY"},
"geometry":{ "type": "Point", "coordinates": [-85.647377,38.165376]}},
{ "type": "Feature", "properties": {"Name":"Lovelaceville CDP","State":"Kentucky","State_Abbrev":"KY"},
"geometry":{ "type": "Point", "coordinates": [-88.832446,36.967427]}},
{ "type": "Feature", "properties": {"Name":"Lowes CDP","State":"Kentucky","State_Abbrev":"KY"},
"geometry":{ "type": "Point", "coordinates": [-88.766366,36.882838]}},
{ "type": "Feature", "properties": {"Name":"Loyall city","State":"Kentucky","State_Abbrev":"KY"},
"geometry":{ "type": "Point", "coordinates": [-83.349013,36.851937]}},
{ "type": "Feature", "properties": {"Name":"Ludlow city","State":"Kentucky","State_Abbrev":"KY"},
"geometry":{ "type": "Point", "coordinates": [-84.548476,39.088749]}},
{ "type": "Feature", "properties": {"Name":"Lynch city","State":"Kentucky","State_Abbrev":"KY"},
"geometry":{ "type": "Point", "coordinates": [-82.914259,36.964178]}},
{ "type": "Feature", "properties": {"Name":"Lyndon city","State":"Kentucky","State_Abbrev":"KY"},
"geometry":{ "type": "Point", "coordinates": [-85.587871,38.263001]}},
{ "type": "Feature", "properties": {"Name":"Lynnview city","State":"Kentucky","State_Abbrev":"KY"},
"geometry":{ "type": "Point", "coordinates": [-85.711215,38.179135]}},
{ "type": "Feature", "properties": {"Name":"McCarr CDP","State":"Kentucky","State_Abbrev":"KY"},
"geometry":{ "type": "Point", "coordinates": [-82.170574,37.61778]}},
{ "type": "Feature", "properties": {"Name":"McDowell CDP","State":"Kentucky","State_Abbrev":"KY"},
"geometry":{ "type": "Point", "coordinates": [-82.728012,37.46017]}},
{ "type": "Feature", "properties": {"Name":"Maceo CDP","State":"Kentucky","State_Abbrev":"KY"},
"geometry":{ "type": "Point", "coordinates": [-86.993641,37.85631]}},
{ "type": "Feature", "properties": {"Name":"McHenry city","State":"Kentucky","State_Abbrev":"KY"},
"geometry":{ "type": "Point", "coordinates": [-86.922694,37.377828]}},
{ "type": "Feature", "properties": {"Name":"McKee city","State":"Kentucky","State_Abbrev":"KY"},
"geometry":{ "type": "Point", "coordinates": [-83.985628,37.430203]}},
{ "type": "Feature", "properties": {"Name":"McKinney CDP","State":"Kentucky","State_Abbrev":"KY"},
"geometry":{ "type": "Point", "coordinates": [-84.758653,37.453318]}},
{ "type": "Feature", "properties": {"Name":"Mackville city","State":"Kentucky","State_Abbrev":"KY"},
"geometry":{ "type": "Point", "coordinates": [-85.069651,37.734077]}},
{ "type": "Feature", "properties": {"Name":"McRoberts CDP","State":"Kentucky","State_Abbrev":"KY"},
"geometry":{ "type": "Point", "coordinates": [-82.667983,37.221077]}},
{ "type": "Feature", "properties": {"Name":"Madisonville city","State":"Kentucky","State_Abbrev":"KY"},
"geometry":{ "type": "Point", "coordinates": [-87.503475,37.341036]}},
{ "type": "Feature", "properties": {"Name":"Magnolia CDP","State":"Kentucky","State_Abbrev":"KY"},
"geometry":{ "type": "Point", "coordinates": [-85.734686,37.45654]}},
{ "type": "Feature", "properties": {"Name":"Manchester city","State":"Kentucky","State_Abbrev":"KY"},
"geometry":{ "type": "Point", "coordinates": [-83.763792,37.148067]}},
{ "type": "Feature", "properties": {"Name":"Manitou CDP","State":"Kentucky","State_Abbrev":"KY"},
"geometry":{ "type": "Point", "coordinates": [-87.575537,37.37395]}},
{ "type": "Feature", "properties": {"Name":"Manor Creek city","State":"Kentucky","State_Abbrev":"KY"},
"geometry":{ "type": "Point", "coordinates": [-85.588201,38.297913]}},
{ "type": "Feature", "properties": {"Name":"Marion city","State":"Kentucky","State_Abbrev":"KY"},
"geometry":{ "type": "Point", "coordinates": [-88.081244,37.331666]}},
{ "type": "Feature", "properties": {"Name":"Marrowbone CDP","State":"Kentucky","State_Abbrev":"KY"},
"geometry":{ "type": "Point", "coordinates": [-85.503116,36.834803]}},
{ "type": "Feature", "properties": {"Name":"Martin city","State":"Kentucky","State_Abbrev":"KY"},
"geometry":{ "type": "Point", "coordinates": [-82.760342,37.566755]}},
{ "type": "Feature", "properties": {"Name":"Maryhill Estates city","State":"Kentucky","State_Abbrev":"KY"},
"geometry":{ "type": "Point", "coordinates": [-85.653229,38.266379]}},
{ "type": "Feature", "properties": {"Name":"Masonville CDP","State":"Kentucky","State_Abbrev":"KY"},
"geometry":{ "type": "Point", "coordinates": [-87.056086,37.672112]}},
{ "type": "Feature", "properties": {"Name":"Massac CDP","State":"Kentucky","State_Abbrev":"KY"},
"geometry":{ "type": "Point", "coordinates": [-88.686155,37.032071]}},
{ "type": "Feature", "properties": {"Name":"Mayfield city","State":"Kentucky","State_Abbrev":"KY"},
"geometry":{ "type": "Point", "coordinates": [-88.644491,36.737459]}},
{ "type": "Feature", "properties": {"Name":"Mayking CDP","State":"Kentucky","State_Abbrev":"KY"},
"geometry":{ "type": "Point", "coordinates": [-82.774607,37.136254]}},
{ "type": "Feature", "properties": {"Name":"Mays Lick CDP","State":"Kentucky","State_Abbrev":"KY"},
"geometry":{ "type": "Point", "coordinates": [-83.846142,38.51977]}},
{ "type": "Feature", "properties": {"Name":"Maysville city","State":"Kentucky","State_Abbrev":"KY"},
"geometry":{ "type": "Point", "coordinates": [-83.792961,38.650015]}},
{ "type": "Feature", "properties": {"Name":"Maytown CDP","State":"Kentucky","State_Abbrev":"KY"},
"geometry":{ "type": "Point", "coordinates": [-82.801483,37.533495]}},
{ "type": "Feature", "properties": {"Name":"Meadowbrook Farm city","State":"Kentucky","State_Abbrev":"KY"},
"geometry":{ "type": "Point", "coordinates": [-85.574311,38.278271]}},
{ "type": "Feature", "properties": {"Name":"Meadow Vale city","State":"Kentucky","State_Abbrev":"KY"},
"geometry":{ "type": "Point", "coordinates": [-85.572513,38.283323]}},
{ "type": "Feature", "properties": {"Name":"Meadowview Estates city","State":"Kentucky","State_Abbrev":"KY"},
"geometry":{ "type": "Point", "coordinates": [-85.635321,38.222685]}},
{ "type": "Feature", "properties": {"Name":"Melbourne city","State":"Kentucky","State_Abbrev":"KY"},
"geometry":{ "type": "Point", "coordinates": [-84.370706,39.031927]}},
{ "type": "Feature", "properties": {"Name":"Mentor city","State":"Kentucky","State_Abbrev":"KY"},
"geometry":{ "type": "Point", "coordinates": [-84.248201,38.890848]}},
{ "type": "Feature", "properties": {"Name":"Middlesborough city","State":"Kentucky","State_Abbrev":"KY"},
"geometry":{ "type": "Point", "coordinates": [-83.722453,36.613468]}},
{ "type": "Feature", "properties": {"Name":"Middletown city","State":"Kentucky","State_Abbrev":"KY"},
"geometry":{ "type": "Point", "coordinates": [-85.520741,38.242082]}},
{ "type": "Feature", "properties": {"Name":"Midway city","State":"Kentucky","State_Abbrev":"KY"},
"geometry":{ "type": "Point", "coordinates": [-84.686144,38.146461]}},
{ "type": "Feature", "properties": {"Name":"Millersburg city","State":"Kentucky","State_Abbrev":"KY"},
"geometry":{ "type": "Point", "coordinates": [-84.143153,38.305154]}},
{ "type": "Feature", "properties": {"Name":"Millstone CDP","State":"Kentucky","State_Abbrev":"KY"},
"geometry":{ "type": "Point", "coordinates": [-82.749749,37.163373]}},
{ "type": "Feature", "properties": {"Name":"Milton city","State":"Kentucky","State_Abbrev":"KY"},
"geometry":{ "type": "Point", "coordinates": [-85.380318,38.72226]}},
{ "type": "Feature", "properties": {"Name":"Mockingbird Valley city","State":"Kentucky","State_Abbrev":"KY"},
"geometry":{ "type": "Point", "coordinates": [-85.679309,38.270389]}},
{ "type": "Feature", "properties": {"Name":"Monterey city","State":"Kentucky","State_Abbrev":"KY"},
"geometry":{ "type": "Point", "coordinates": [-84.871441,38.4248]}},
{ "type": "Feature", "properties": {"Name":"Monticello city","State":"Kentucky","State_Abbrev":"KY"},
"geometry":{ "type": "Point", "coordinates": [-84.851327,36.841142]}},
{ "type": "Feature", "properties": {"Name":"Moorland city","State":"Kentucky","State_Abbrev":"KY"},
"geometry":{ "type": "Point", "coordinates": [-85.580252,38.272402]}},
{ "type": "Feature", "properties": {"Name":"Morehead city","State":"Kentucky","State_Abbrev":"KY"},
"geometry":{ "type": "Point", "coordinates": [-83.449072,38.190026]}},
{ "type": "Feature", "properties": {"Name":"Morganfield city","State":"Kentucky","State_Abbrev":"KY"},
"geometry":{ "type": "Point", "coordinates": [-87.881394,37.688895]}},
{ "type": "Feature", "properties": {"Name":"Morgantown city","State":"Kentucky","State_Abbrev":"KY"},
"geometry":{ "type": "Point", "coordinates": [-86.700155,37.21741]}},
{ "type": "Feature", "properties": {"Name":"Mortons Gap city","State":"Kentucky","State_Abbrev":"KY"},
"geometry":{ "type": "Point", "coordinates": [-87.467543,37.2422]}},
{ "type": "Feature", "properties": {"Name":"Moseleyville CDP","State":"Kentucky","State_Abbrev":"KY"},
"geometry":{ "type": "Point", "coordinates": [-87.19565,37.679486]}},
{ "type": "Feature", "properties": {"Name":"Mount Olivet city","State":"Kentucky","State_Abbrev":"KY"},
"geometry":{ "type": "Point", "coordinates": [-84.033867,38.530874]}},
{ "type": "Feature", "properties": {"Name":"Mount Sterling city","State":"Kentucky","State_Abbrev":"KY"},
"geometry":{ "type": "Point", "coordinates": [-83.948822,38.065465]}},
{ "type": "Feature", "properties": {"Name":"Mount Vernon city","State":"Kentucky","State_Abbrev":"KY"},
"geometry":{ "type": "Point", "coordinates": [-84.332869,37.357071]}},
{ "type": "Feature", "properties": {"Name":"Mount Washington city","State":"Kentucky","State_Abbrev":"KY"},
"geometry":{ "type": "Point", "coordinates": [-85.556024,38.042622]}},
{ "type": "Feature", "properties": {"Name":"Muldraugh city","State":"Kentucky","State_Abbrev":"KY"},
"geometry":{ "type": "Point", "coordinates": [-85.991515,37.936572]}},
{ "type": "Feature", "properties": {"Name":"Munfordville city","State":"Kentucky","State_Abbrev":"KY"},
"geometry":{ "type": "Point", "coordinates": [-85.898704,37.27887]}},
{ "type": "Feature", "properties": {"Name":"Murray city","State":"Kentucky","State_Abbrev":"KY"},
"geometry":{ "type": "Point", "coordinates": [-88.322075,36.614202]}},
{ "type": "Feature", "properties": {"Name":"Murray Hill city","State":"Kentucky","State_Abbrev":"KY"},
"geometry":{ "type": "Point", "coordinates": [-85.587644,38.290888]}},
{ "type": "Feature", "properties": {"Name":"Nebo city","State":"Kentucky","State_Abbrev":"KY"},
"geometry":{ "type": "Point", "coordinates": [-87.641568,37.383211]}},
{ "type": "Feature", "properties": {"Name":"New Castle city","State":"Kentucky","State_Abbrev":"KY"},
"geometry":{ "type": "Point", "coordinates": [-85.169238,38.433564]}},
{ "type": "Feature", "properties": {"Name":"New Haven city","State":"Kentucky","State_Abbrev":"KY"},
"geometry":{ "type": "Point", "coordinates": [-85.589135,37.659187]}},
{ "type": "Feature", "properties": {"Name":"New Hope CDP","State":"Kentucky","State_Abbrev":"KY"},
"geometry":{ "type": "Point", "coordinates": [-85.503954,37.62605]}},
{ "type": "Feature", "properties": {"Name":"Newport city","State":"Kentucky","State_Abbrev":"KY"},
"geometry":{ "type": "Point", "coordinates": [-84.486933,39.0861]}},
{ "type": "Feature", "properties": {"Name":"Nicholasville city","State":"Kentucky","State_Abbrev":"KY"},
"geometry":{ "type": "Point", "coordinates": [-84.566825,37.889969]}},
{ "type": "Feature", "properties": {"Name":"Norbourne Estates city","State":"Kentucky","State_Abbrev":"KY"},
"geometry":{ "type": "Point", "coordinates": [-85.646517,38.246551]}},
{ "type": "Feature", "properties": {"Name":"North Corbin CDP","State":"Kentucky","State_Abbrev":"KY"},
"geometry":{ "type": "Point", "coordinates": [-84.095575,36.965634]}},
{ "type": "Feature", "properties": {"Name":"Northfield city","State":"Kentucky","State_Abbrev":"KY"},
"geometry":{ "type": "Point", "coordinates": [-85.636266,38.285765]}},
{ "type": "Feature", "properties": {"Name":"North Middletown city","State":"Kentucky","State_Abbrev":"KY"},
"geometry":{ "type": "Point", "coordinates": [-84.110202,38.142537]}},
{ "type": "Feature", "properties": {"Name":"Nortonville city","State":"Kentucky","State_Abbrev":"KY"},
"geometry":{ "type": "Point", "coordinates": [-87.45545,37.185089]}},
{ "type": "Feature", "properties": {"Name":"Norwood city","State":"Kentucky","State_Abbrev":"KY"},
"geometry":{ "type": "Point", "coordinates": [-85.610868,38.252175]}},
{ "type": "Feature", "properties": {"Name":"Oakbrook CDP","State":"Kentucky","State_Abbrev":"KY"},
"geometry":{ "type": "Point", "coordinates": [-84.680417,38.996731]}},
{ "type": "Feature", "properties": {"Name":"Oak Grove city","State":"Kentucky","State_Abbrev":"KY"},
"geometry":{ "type": "Point", "coordinates": [-87.422506,36.673774]}},
{ "type": "Feature", "properties": {"Name":"Oakland city","State":"Kentucky","State_Abbrev":"KY"},
"geometry":{ "type": "Point", "coordinates": [-86.246902,37.046199]}},
{ "type": "Feature", "properties": {"Name":"Old Brownsboro Place city","State":"Kentucky","State_Abbrev":"KY"},
"geometry":{ "type": "Point", "coordinates": [-85.613135,38.28928]}},
{ "type": "Feature", "properties": {"Name":"Olive Hill city","State":"Kentucky","State_Abbrev":"KY"},
"geometry":{ "type": "Point", "coordinates": [-83.168204,38.305839]}},
{ "type": "Feature", "properties": {"Name":"Oneida CDP","State":"Kentucky","State_Abbrev":"KY"},
"geometry":{ "type": "Point", "coordinates": [-83.647116,37.272878]}},
{ "type": "Feature", "properties": {"Name":"Onton CDP","State":"Kentucky","State_Abbrev":"KY"},
"geometry":{ "type": "Point", "coordinates": [-87.43933,37.561373]}},
{ "type": "Feature", "properties": {"Name":"Orchard Grass Hills city","State":"Kentucky","State_Abbrev":"KY"},
"geometry":{ "type": "Point", "coordinates": [-85.523181,38.321708]}},
{ "type": "Feature", "properties": {"Name":"Owensboro city","State":"Kentucky","State_Abbrev":"KY"},
"geometry":{ "type": "Point", "coordinates": [-87.116338,37.757495]}},
{ "type": "Feature", "properties": {"Name":"Owenton city","State":"Kentucky","State_Abbrev":"KY"},
"geometry":{ "type": "Point", "coordinates": [-84.839225,38.539027]}},
{ "type": "Feature", "properties": {"Name":"Owingsville city","State":"Kentucky","State_Abbrev":"KY"},
"geometry":{ "type": "Point", "coordinates": [-83.755352,38.136568]}},
{ "type": "Feature", "properties": {"Name":"Paducah city","State":"Kentucky","State_Abbrev":"KY"},
"geometry":{ "type": "Point", "coordinates": [-88.644477,37.070892]}},
{ "type": "Feature", "properties": {"Name":"Paintsville city","State":"Kentucky","State_Abbrev":"KY"},
"geometry":{ "type": "Point", "coordinates": [-82.805967,37.820304]}},
{ "type": "Feature", "properties": {"Name":"Panther CDP","State":"Kentucky","State_Abbrev":"KY"},
"geometry":{ "type": "Point", "coordinates": [-87.228259,37.639467]}},
{ "type": "Feature", "properties": {"Name":"Paris city","State":"Kentucky","State_Abbrev":"KY"},
"geometry":{ "type": "Point", "coordinates": [-84.272689,38.200157]}},
{ "type": "Feature", "properties": {"Name":"Park City city","State":"Kentucky","State_Abbrev":"KY"},
"geometry":{ "type": "Point", "coordinates": [-86.048077,37.093499]}},
{ "type": "Feature", "properties": {"Name":"Park Hills city","State":"Kentucky","State_Abbrev":"KY"},
"geometry":{ "type": "Point", "coordinates": [-84.532674,39.06713]}},
{ "type": "Feature", "properties": {"Name":"Parkway Village city","State":"Kentucky","State_Abbrev":"KY"},
"geometry":{ "type": "Point", "coordinates": [-85.738108,38.211308]}},
{ "type": "Feature", "properties": {"Name":"Pathfork CDP","State":"Kentucky","State_Abbrev":"KY"},
"geometry":{ "type": "Point", "coordinates": [-83.474259,36.76222]}},
{ "type": "Feature", "properties": {"Name":"Payne Gap CDP","State":"Kentucky","State_Abbrev":"KY"},
"geometry":{ "type": "Point", "coordinates": [-82.671108,37.147722]}},
{ "type": "Feature", "properties": {"Name":"Pembroke city","State":"Kentucky","State_Abbrev":"KY"},
"geometry":{ "type": "Point", "coordinates": [-87.359488,36.774545]}},
{ "type": "Feature", "properties": {"Name":"Perryville city","State":"Kentucky","State_Abbrev":"KY"},
"geometry":{ "type": "Point", "coordinates": [-84.950771,37.650182]}},
{ "type": "Feature", "properties": {"Name":"Petersburg CDP","State":"Kentucky","State_Abbrev":"KY"},
"geometry":{ "type": "Point", "coordinates": [-84.853725,39.047618]}},
{ "type": "Feature", "properties": {"Name":"Pewee Valley city","State":"Kentucky","State_Abbrev":"KY"},
"geometry":{ "type": "Point", "coordinates": [-85.489569,38.312178]}},
{ "type": "Feature", "properties": {"Name":"Phelps CDP","State":"Kentucky","State_Abbrev":"KY"},
"geometry":{ "type": "Point", "coordinates": [-82.160558,37.509058]}},
{ "type": "Feature", "properties": {"Name":"Philpot CDP","State":"Kentucky","State_Abbrev":"KY"},
"geometry":{ "type": "Point", "coordinates": [-87.000357,37.735181]}},
{ "type": "Feature", "properties": {"Name":"Pikeville city","State":"Kentucky","State_Abbrev":"KY"},
"geometry":{ "type": "Point", "coordinates": [-82.528796,37.476891]}},
{ "type": "Feature", "properties": {"Name":"Pine Knot CDP","State":"Kentucky","State_Abbrev":"KY"},
"geometry":{ "type": "Point", "coordinates": [-84.439748,36.665597]}},
{ "type": "Feature", "properties": {"Name":"Pineville city","State":"Kentucky","State_Abbrev":"KY"},
"geometry":{ "type": "Point", "coordinates": [-83.706854,36.747515]}},
{ "type": "Feature", "properties": {"Name":"Pioneer Village city","State":"Kentucky","State_Abbrev":"KY"},
"geometry":{ "type": "Point", "coordinates": [-85.679328,38.056261]}},
{ "type": "Feature", "properties": {"Name":"Pippa Passes city","State":"Kentucky","State_Abbrev":"KY"},
"geometry":{ "type": "Point", "coordinates": [-82.873346,37.334244]}},
{ "type": "Feature", "properties": {"Name":"Plano CDP","State":"Kentucky","State_Abbrev":"KY"},
"geometry":{ "type": "Point", "coordinates": [-86.416528,36.877183]}},
{ "type": "Feature", "properties": {"Name":"Plantation city","State":"Kentucky","State_Abbrev":"KY"},
"geometry":{ "type": "Point", "coordinates": [-85.593578,38.283384]}},
{ "type": "Feature", "properties": {"Name":"Pleasant Ridge CDP","State":"Kentucky","State_Abbrev":"KY"},
"geometry":{ "type": "Point", "coordinates": [-86.992492,37.595399]}},
{ "type": "Feature", "properties": {"Name":"Pleasant View CDP","State":"Kentucky","State_Abbrev":"KY"},
"geometry":{ "type": "Point", "coordinates": [-84.127988,36.679194]}},
{ "type": "Feature", "properties": {"Name":"Pleasureville city","State":"Kentucky","State_Abbrev":"KY"},
"geometry":{ "type": "Point", "coordinates": [-85.111163,38.35151]}},
{ "type": "Feature", "properties": {"Name":"Plum Springs city","State":"Kentucky","State_Abbrev":"KY"},
"geometry":{ "type": "Point", "coordinates": [-86.380119,37.022806]}},
{ "type": "Feature", "properties": {"Name":"Poole CDP","State":"Kentucky","State_Abbrev":"KY"},
"geometry":{ "type": "Point", "coordinates": [-87.648004,37.639557]}},
{ "type": "Feature", "properties": {"Name":"Poplar Hills city","State":"Kentucky","State_Abbrev":"KY"},
"geometry":{ "type": "Point", "coordinates": [-85.693006,38.178011]}},
{ "type": "Feature", "properties": {"Name":"Powderly city","State":"Kentucky","State_Abbrev":"KY"},
"geometry":{ "type": "Point", "coordinates": [-87.153865,37.239409]}},
{ "type": "Feature", "properties": {"Name":"Prestonsburg city","State":"Kentucky","State_Abbrev":"KY"},
"geometry":{ "type": "Point", "coordinates": [-82.76587,37.681556]}},
{ "type": "Feature", "properties": {"Name":"Prestonville city","State":"Kentucky","State_Abbrev":"KY"},
"geometry":{ "type": "Point", "coordinates": [-85.193543,38.682048]}},
{ "type": "Feature", "properties": {"Name":"Princeton city","State":"Kentucky","State_Abbrev":"KY"},
"geometry":{ "type": "Point", "coordinates": [-87.884902,37.106477]}},
{ "type": "Feature", "properties": {"Name":"Prospect city","State":"Kentucky","State_Abbrev":"KY"},
"geometry":{ "type": "Point", "coordinates": [-85.608871,38.346892]}},
{ "type": "Feature", "properties": {"Name":"Providence city","State":"Kentucky","State_Abbrev":"KY"},
"geometry":{ "type": "Point", "coordinates": [-87.751666,37.39908]}},
{ "type": "Feature", "properties": {"Name":"Pryorsburg CDP","State":"Kentucky","State_Abbrev":"KY"},
"geometry":{ "type": "Point", "coordinates": [-88.706433,36.689842]}},
{ "type": "Feature", "properties": {"Name":"Rabbit Hash CDP","State":"Kentucky","State_Abbrev":"KY"},
"geometry":{ "type": "Point", "coordinates": [-84.852074,38.929206]}},
{ "type": "Feature", "properties": {"Name":"Raceland city","State":"Kentucky","State_Abbrev":"KY"},
"geometry":{ "type": "Point", "coordinates": [-82.73875,38.537369]}},
{ "type": "Feature", "properties": {"Name":"Radcliff city","State":"Kentucky","State_Abbrev":"KY"},
"geometry":{ "type": "Point", "coordinates": [-85.936371,37.820058]}},
{ "type": "Feature", "properties": {"Name":"Ravenna city","State":"Kentucky","State_Abbrev":"KY"},
"geometry":{ "type": "Point", "coordinates": [-83.950234,37.686986]}},
{ "type": "Feature", "properties": {"Name":"Raywick city","State":"Kentucky","State_Abbrev":"KY"},
"geometry":{ "type": "Point", "coordinates": [-85.436291,37.562313]}},
{ "type": "Feature", "properties": {"Name":"Reidland CDP","State":"Kentucky","State_Abbrev":"KY"},
"geometry":{ "type": "Point", "coordinates": [-88.526997,37.008198]}},
{ "type": "Feature", "properties": {"Name":"Richlawn city","State":"Kentucky","State_Abbrev":"KY"},
"geometry":{ "type": "Point", "coordinates": [-85.641203,38.254671]}},
{ "type": "Feature", "properties": {"Name":"Richmond city","State":"Kentucky","State_Abbrev":"KY"},
"geometry":{ "type": "Point", "coordinates": [-84.299364,37.729145]}},
{ "type": "Feature", "properties": {"Name":"Rineyville CDP","State":"Kentucky","State_Abbrev":"KY"},
"geometry":{ "type": "Point", "coordinates": [-85.966409,37.742249]}},
{ "type": "Feature", "properties": {"Name":"River Bluff city","State":"Kentucky","State_Abbrev":"KY"},
"geometry":{ "type": "Point", "coordinates": [-85.604041,38.37192]}},
{ "type": "Feature", "properties": {"Name":"Riverwood city","State":"Kentucky","State_Abbrev":"KY"},
"geometry":{ "type": "Point", "coordinates": [-85.661871,38.283565]}},
{ "type": "Feature", "properties": {"Name":"Robards city","State":"Kentucky","State_Abbrev":"KY"},
"geometry":{ "type": "Point", "coordinates": [-87.534629,37.67858]}},
{ "type": "Feature", "properties": {"Name":"Rochester city","State":"Kentucky","State_Abbrev":"KY"},
"geometry":{ "type": "Point", "coordinates": [-86.89237,37.20863]}},
{ "type": "Feature", "properties": {"Name":"Rockholds CDP","State":"Kentucky","State_Abbrev":"KY"},
"geometry":{ "type": "Point", "coordinates": [-84.107664,36.831563]}},
{ "type": "Feature", "properties": {"Name":"Rockport city","State":"Kentucky","State_Abbrev":"KY"},
"geometry":{ "type": "Point", "coordinates": [-86.988984,37.337839]}},
{ "type": "Feature", "properties": {"Name":"Rolling Fields city","State":"Kentucky","State_Abbrev":"KY"},
"geometry":{ "type": "Point", "coordinates": [-85.670841,38.268926]}},
{ "type": "Feature", "properties": {"Name":"Rolling Hills city","State":"Kentucky","State_Abbrev":"KY"},
"geometry":{ "type": "Point", "coordinates": [-85.578404,38.28251]}},
{ "type": "Feature", "properties": {"Name":"Rosine CDP","State":"Kentucky","State_Abbrev":"KY"},
"geometry":{ "type": "Point", "coordinates": [-86.736351,37.454984]}},
{ "type": "Feature", "properties": {"Name":"Russell city","State":"Kentucky","State_Abbrev":"KY"},
"geometry":{ "type": "Point", "coordinates": [-82.700519,38.51248]}},
{ "type": "Feature", "properties": {"Name":"Russell Springs city","State":"Kentucky","State_Abbrev":"KY"},
"geometry":{ "type": "Point", "coordinates": [-85.080481,37.050696]}},
{ "type": "Feature", "properties": {"Name":"Russellville city","State":"Kentucky","State_Abbrev":"KY"},
"geometry":{ "type": "Point", "coordinates": [-86.895579,36.839518]}},
{ "type": "Feature", "properties": {"Name":"Ryland Heights city","State":"Kentucky","State_Abbrev":"KY"},
"geometry":{ "type": "Point", "coordinates": [-84.432207,38.980272]}},
{ "type": "Feature", "properties": {"Name":"Sacramento city","State":"Kentucky","State_Abbrev":"KY"},
"geometry":{ "type": "Point", "coordinates": [-87.267897,37.416599]}},
{ "type": "Feature", "properties": {"Name":"Sadieville city","State":"Kentucky","State_Abbrev":"KY"},
"geometry":{ "type": "Point", "coordinates": [-84.551346,38.387768]}},
{ "type": "Feature", "properties": {"Name":"St. Charles city","State":"Kentucky","State_Abbrev":"KY"},
"geometry":{ "type": "Point", "coordinates": [-87.549655,37.190546]}},
{ "type": "Feature", "properties": {"Name":"St. Joseph CDP","State":"Kentucky","State_Abbrev":"KY"},
"geometry":{ "type": "Point", "coordinates": [-87.328458,37.69229]}},
{ "type": "Feature", "properties": {"Name":"St. Mary city","State":"Kentucky","State_Abbrev":"KY"},
"geometry":{ "type": "Point", "coordinates": [-85.341478,37.582523]}},
{ "type": "Feature", "properties": {"Name":"St. Matthews city","State":"Kentucky","State_Abbrev":"KY"},
"geometry":{ "type": "Point", "coordinates": [-85.637758,38.249334]}},
{ "type": "Feature", "properties": {"Name":"St. Regis Park city","State":"Kentucky","State_Abbrev":"KY"},
"geometry":{ "type": "Point", "coordinates": [-85.616826,38.228699]}},
{ "type": "Feature", "properties": {"Name":"Salem city","State":"Kentucky","State_Abbrev":"KY"},
"geometry":{ "type": "Point", "coordinates": [-88.241185,37.264664]}},
{ "type": "Feature", "properties": {"Name":"Salt Lick city","State":"Kentucky","State_Abbrev":"KY"},
"geometry":{ "type": "Point", "coordinates": [-83.615675,38.119484]}},
{ "type": "Feature", "properties": {"Name":"Salvisa CDP","State":"Kentucky","State_Abbrev":"KY"},
"geometry":{ "type": "Point", "coordinates": [-84.863194,37.925519]}},
{ "type": "Feature", "properties": {"Name":"Salyersville city","State":"Kentucky","State_Abbrev":"KY"},
"geometry":{ "type": "Point", "coordinates": [-83.063584,37.741893]}},
{ "type": "Feature", "properties": {"Name":"Sanders city","State":"Kentucky","State_Abbrev":"KY"},
"geometry":{ "type": "Point", "coordinates": [-84.946727,38.654728]}},
{ "type": "Feature", "properties": {"Name":"Sandy Hook city","State":"Kentucky","State_Abbrev":"KY"},
"geometry":{ "type": "Point", "coordinates": [-83.122628,38.093366]}},
{ "type": "Feature", "properties": {"Name":"Sardis city","State":"Kentucky","State_Abbrev":"KY"},
"geometry":{ "type": "Point", "coordinates": [-83.951689,38.533567]}},
{ "type": "Feature", "properties": {"Name":"Science Hill city","State":"Kentucky","State_Abbrev":"KY"},
"geometry":{ "type": "Point", "coordinates": [-84.633655,37.173216]}},
{ "type": "Feature", "properties": {"Name":"Scottsville city","State":"Kentucky","State_Abbrev":"KY"},
"geometry":{ "type": "Point", "coordinates": [-86.207621,36.749261]}},
{ "type": "Feature", "properties": {"Name":"Sebree city","State":"Kentucky","State_Abbrev":"KY"},
"geometry":{ "type": "Point", "coordinates": [-87.511459,37.601221]}},
{ "type": "Feature", "properties": {"Name":"Sedalia CDP","State":"Kentucky","State_Abbrev":"KY"},
"geometry":{ "type": "Point", "coordinates": [-88.601387,36.648588]}},
{ "type": "Feature", "properties": {"Name":"Seneca Gardens city","State":"Kentucky","State_Abbrev":"KY"},
"geometry":{ "type": "Point", "coordinates": [-85.676395,38.228037]}},
{ "type": "Feature", "properties": {"Name":"Sharpsburg city","State":"Kentucky","State_Abbrev":"KY"},
"geometry":{ "type": "Point", "coordinates": [-83.925106,38.201662]}},
{ "type": "Feature", "properties": {"Name":"Shelbyville city","State":"Kentucky","State_Abbrev":"KY"},
"geometry":{ "type": "Point", "coordinates": [-85.23062,38.2068]}},
{ "type": "Feature", "properties": {"Name":"Shepherdsville city","State":"Kentucky","State_Abbrev":"KY"},
"geometry":{ "type": "Point", "coordinates": [-85.702007,37.981425]}},
{ "type": "Feature", "properties": {"Name":"Shively city","State":"Kentucky","State_Abbrev":"KY"},
"geometry":{ "type": "Point", "coordinates": [-85.813916,38.198839]}},
{ "type": "Feature", "properties": {"Name":"Silver Grove city","State":"Kentucky","State_Abbrev":"KY"},
"geometry":{ "type": "Point", "coordinates": [-84.400325,39.040106]}},
{ "type": "Feature", "properties": {"Name":"Simpsonville city","State":"Kentucky","State_Abbrev":"KY"},
"geometry":{ "type": "Point", "coordinates": [-85.349602,38.216856]}},
{ "type": "Feature", "properties": {"Name":"Slaughters city","State":"Kentucky","State_Abbrev":"KY"},
"geometry":{ "type": "Point", "coordinates": [-87.505281,37.489607]}},
{ "type": "Feature", "properties": {"Name":"Smithfield city","State":"Kentucky","State_Abbrev":"KY"},
"geometry":{ "type": "Point", "coordinates": [-85.254816,38.386589]}},
{ "type": "Feature", "properties": {"Name":"Smithland city","State":"Kentucky","State_Abbrev":"KY"},
"geometry":{ "type": "Point", "coordinates": [-88.404811,37.138794]}},
{ "type": "Feature", "properties": {"Name":"Smiths Grove city","State":"Kentucky","State_Abbrev":"KY"},
"geometry":{ "type": "Point", "coordinates": [-86.208076,37.050205]}},
{ "type": "Feature", "properties": {"Name":"Somerset city","State":"Kentucky","State_Abbrev":"KY"},
"geometry":{ "type": "Point", "coordinates": [-84.608082,37.084637]}},
{ "type": "Feature", "properties": {"Name":"Sonora city","State":"Kentucky","State_Abbrev":"KY"},
"geometry":{ "type": "Point", "coordinates": [-85.895608,37.532294]}},
{ "type": "Feature", "properties": {"Name":"Sorgho CDP","State":"Kentucky","State_Abbrev":"KY"},
"geometry":{ "type": "Point", "coordinates": [-87.212854,37.74587]}},
{ "type": "Feature", "properties": {"Name":"South Carrollton city","State":"Kentucky","State_Abbrev":"KY"},
"geometry":{ "type": "Point", "coordinates": [-87.140168,37.335337]}},
{ "type": "Feature", "properties": {"Name":"Southgate city","State":"Kentucky","State_Abbrev":"KY"},
"geometry":{ "type": "Point", "coordinates": [-84.470578,39.064135]}},
{ "type": "Feature", "properties": {"Name":"South Park View city","State":"Kentucky","State_Abbrev":"KY"},
"geometry":{ "type": "Point", "coordinates": [-85.719954,38.118416]}},
{ "type": "Feature", "properties": {"Name":"South Shore city","State":"Kentucky","State_Abbrev":"KY"},
"geometry":{ "type": "Point", "coordinates": [-82.964164,38.721936]}},
{ "type": "Feature", "properties": {"Name":"South Wallins CDP","State":"Kentucky","State_Abbrev":"KY"},
"geometry":{ "type": "Point", "coordinates": [-83.400029,36.810909]}},
{ "type": "Feature", "properties": {"Name":"South Williamson CDP","State":"Kentucky","State_Abbrev":"KY"},
"geometry":{ "type": "Point", "coordinates": [-82.287764,37.663198]}},
{ "type": "Feature", "properties": {"Name":"Sparta city","State":"Kentucky","State_Abbrev":"KY"},
"geometry":{ "type": "Point", "coordinates": [-84.906136,38.695435]}},
{ "type": "Feature", "properties": {"Name":"Spottsville CDP","State":"Kentucky","State_Abbrev":"KY"},
"geometry":{ "type": "Point", "coordinates": [-87.419338,37.85517]}},
{ "type": "Feature", "properties": {"Name":"Springfield city","State":"Kentucky","State_Abbrev":"KY"},
"geometry":{ "type": "Point", "coordinates": [-85.222892,37.69391]}},
{ "type": "Feature", "properties": {"Name":"Spring Mill city","State":"Kentucky","State_Abbrev":"KY"},
"geometry":{ "type": "Point", "coordinates": [-85.631572,38.14361]}},
{ "type": "Feature", "properties": {"Name":"Spring Valley city","State":"Kentucky","State_Abbrev":"KY"},
"geometry":{ "type": "Point", "coordinates": [-85.610149,38.29689]}},
{ "type": "Feature", "properties": {"Name":"Stamping Ground city","State":"Kentucky","State_Abbrev":"KY"},
"geometry":{ "type": "Point", "coordinates": [-84.679832,38.270881]}},
{ "type": "Feature", "properties": {"Name":"Stanford city","State":"Kentucky","State_Abbrev":"KY"},
"geometry":{ "type": "Point", "coordinates": [-84.657031,37.530739]}},
{ "type": "Feature", "properties": {"Name":"Stanley CDP","State":"Kentucky","State_Abbrev":"KY"},
"geometry":{ "type": "Point", "coordinates": [-87.240587,37.818811]}},
{ "type": "Feature", "properties": {"Name":"Stanton city","State":"Kentucky","State_Abbrev":"KY"},
"geometry":{ "type": "Point", "coordinates": [-83.855609,37.849199]}},
{ "type": "Feature", "properties": {"Name":"Stearns CDP","State":"Kentucky","State_Abbrev":"KY"},
"geometry":{ "type": "Point", "coordinates": [-84.474473,36.694321]}},
{ "type": "Feature", "properties": {"Name":"Strathmoor Manor city","State":"Kentucky","State_Abbrev":"KY"},
"geometry":{ "type": "Point", "coordinates": [-85.683576,38.219019]}},
{ "type": "Feature", "properties": {"Name":"Strathmoor Village city","State":"Kentucky","State_Abbrev":"KY"},
"geometry":{ "type": "Point", "coordinates": [-85.677871,38.22079]}},
{ "type": "Feature", "properties": {"Name":"Sturgis city","State":"Kentucky","State_Abbrev":"KY"},
"geometry":{ "type": "Point", "coordinates": [-87.987441,37.546222]}},
{ "type": "Feature", "properties": {"Name":"Summer Shade CDP","State":"Kentucky","State_Abbrev":"KY"},
"geometry":{ "type": "Point", "coordinates": [-85.711934,36.883933]}},
{ "type": "Feature", "properties": {"Name":"Summersville CDP","State":"Kentucky","State_Abbrev":"KY"},
"geometry":{ "type": "Point", "coordinates": [-85.536795,37.326075]}},
{ "type": "Feature", "properties": {"Name":"Sycamore city","State":"Kentucky","State_Abbrev":"KY"},
"geometry":{ "type": "Point", "coordinates": [-85.561224,38.246832]}},
{ "type": "Feature", "properties": {"Name":"Symsonia CDP","State":"Kentucky","State_Abbrev":"KY"},
"geometry":{ "type": "Point", "coordinates": [-88.525534,36.918482]}},
{ "type": "Feature", "properties": {"Name":"Taylor Mill city","State":"Kentucky","State_Abbrev":"KY"},
"geometry":{ "type": "Point", "coordinates": [-84.499482,39.008834]}},
{ "type": "Feature", "properties": {"Name":"Taylorsville city","State":"Kentucky","State_Abbrev":"KY"},
"geometry":{ "type": "Point", "coordinates": [-85.349486,38.03227]}},
{ "type": "Feature", "properties": {"Name":"Ten Broeck city","State":"Kentucky","State_Abbrev":"KY"},
"geometry":{ "type": "Point", "coordinates": [-85.577982,38.297653]}},
{ "type": "Feature", "properties": {"Name":"Thornhill city","State":"Kentucky","State_Abbrev":"KY"},
"geometry":{ "type": "Point", "coordinates": [-85.624995,38.287737]}},
{ "type": "Feature", "properties": {"Name":"Thruston CDP","State":"Kentucky","State_Abbrev":"KY"},
"geometry":{ "type": "Point", "coordinates": [-87.020603,37.792982]}},
{ "type": "Feature", "properties": {"Name":"Tolu CDP","State":"Kentucky","State_Abbrev":"KY"},
"geometry":{ "type": "Point", "coordinates": [-88.244822,37.433669]}},
{ "type": "Feature", "properties": {"Name":"Tompkinsville city","State":"Kentucky","State_Abbrev":"KY"},
"geometry":{ "type": "Point", "coordinates": [-85.693035,36.701296]}},
{ "type": "Feature", "properties": {"Name":"Trenton city","State":"Kentucky","State_Abbrev":"KY"},
"geometry":{ "type": "Point", "coordinates": [-87.262156,36.720944]}},
{ "type": "Feature", "properties": {"Name":"Union city","State":"Kentucky","State_Abbrev":"KY"},
"geometry":{ "type": "Point", "coordinates": [-84.67295,38.946841]}},
{ "type": "Feature", "properties": {"Name":"Uniontown city","State":"Kentucky","State_Abbrev":"KY"},
"geometry":{ "type": "Point", "coordinates": [-87.932225,37.773409]}},
{ "type": "Feature", "properties": {"Name":"Upton city","State":"Kentucky","State_Abbrev":"KY"},
"geometry":{ "type": "Point", "coordinates": [-85.900204,37.458675]}},
{ "type": "Feature", "properties": {"Name":"Utica CDP","State":"Kentucky","State_Abbrev":"KY"},
"geometry":{ "type": "Point", "coordinates": [-87.112383,37.601741]}},
{ "type": "Feature", "properties": {"Name":"Vanceburg city","State":"Kentucky","State_Abbrev":"KY"},
"geometry":{ "type": "Point", "coordinates": [-83.323614,38.594531]}},
{ "type": "Feature", "properties": {"Name":"Van Lear CDP","State":"Kentucky","State_Abbrev":"KY"},
"geometry":{ "type": "Point", "coordinates": [-82.74789,37.776616]}},
{ "type": "Feature", "properties": {"Name":"Verona CDP","State":"Kentucky","State_Abbrev":"KY"},
"geometry":{ "type": "Point", "coordinates": [-84.663659,38.805207]}},
{ "type": "Feature", "properties": {"Name":"Versailles city","State":"Kentucky","State_Abbrev":"KY"},
"geometry":{ "type": "Point", "coordinates": [-84.724968,38.049073]}},
{ "type": "Feature", "properties": {"Name":"Vicco city","State":"Kentucky","State_Abbrev":"KY"},
"geometry":{ "type": "Point", "coordinates": [-83.060823,37.216087]}},
{ "type": "Feature", "properties": {"Name":"Villa Hills city","State":"Kentucky","State_Abbrev":"KY"},
"geometry":{ "type": "Point", "coordinates": [-84.598025,39.065495]}},
{ "type": "Feature", "properties": {"Name":"Vine Grove city","State":"Kentucky","State_Abbrev":"KY"},
"geometry":{ "type": "Point", "coordinates": [-85.984416,37.811861]}},
{ "type": "Feature", "properties": {"Name":"Virgie CDP","State":"Kentucky","State_Abbrev":"KY"},
"geometry":{ "type": "Point", "coordinates": [-82.582418,37.332268]}},
{ "type": "Feature", "properties": {"Name":"Wallins Creek CDP","State":"Kentucky","State_Abbrev":"KY"},
"geometry":{ "type": "Point", "coordinates": [-83.417533,36.830014]}},
{ "type": "Feature", "properties": {"Name":"Walton city","State":"Kentucky","State_Abbrev":"KY"},
"geometry":{ "type": "Point", "coordinates": [-84.615043,38.862427]}},
{ "type": "Feature", "properties": {"Name":"Warfield city","State":"Kentucky","State_Abbrev":"KY"},
"geometry":{ "type": "Point", "coordinates": [-82.422279,37.839092]}},
{ "type": "Feature", "properties": {"Name":"Warsaw city","State":"Kentucky","State_Abbrev":"KY"},
"geometry":{ "type": "Point", "coordinates": [-84.892533,38.783557]}},
{ "type": "Feature", "properties": {"Name":"Water Valley CDP","State":"Kentucky","State_Abbrev":"KY"},
"geometry":{ "type": "Point", "coordinates": [-88.809996,36.568737]}},
{ "type": "Feature", "properties": {"Name":"Watterson Park city","State":"Kentucky","State_Abbrev":"KY"},
"geometry":{ "type": "Point", "coordinates": [-85.682236,38.195283]}},
{ "type": "Feature", "properties": {"Name":"Waverly city","State":"Kentucky","State_Abbrev":"KY"},
"geometry":{ "type": "Point", "coordinates": [-87.815111,37.709733]}},
{ "type": "Feature", "properties": {"Name":"Wayland city","State":"Kentucky","State_Abbrev":"KY"},
"geometry":{ "type": "Point", "coordinates": [-82.802598,37.4559]}},
{ "type": "Feature", "properties": {"Name":"Wellington city","State":"Kentucky","State_Abbrev":"KY"},
"geometry":{ "type": "Point", "coordinates": [-85.670344,38.21657]}},
{ "type": "Feature", "properties": {"Name":"West Buechel city","State":"Kentucky","State_Abbrev":"KY"},
"geometry":{ "type": "Point", "coordinates": [-85.667574,38.194196]}},
{ "type": "Feature", "properties": {"Name":"West Liberty city","State":"Kentucky","State_Abbrev":"KY"},
"geometry":{ "type": "Point", "coordinates": [-83.26741,37.918042]}},
{ "type": "Feature", "properties": {"Name":"West Louisville CDP","State":"Kentucky","State_Abbrev":"KY"},
"geometry":{ "type": "Point", "coordinates": [-87.286346,37.698565]}},
{ "type": "Feature", "properties": {"Name":"West Point city","State":"Kentucky","State_Abbrev":"KY"},
"geometry":{ "type": "Point", "coordinates": [-85.95495,37.984801]}},
{ "type": "Feature", "properties": {"Name":"Westport CDP","State":"Kentucky","State_Abbrev":"KY"},
"geometry":{ "type": "Point", "coordinates": [-85.47213,38.491805]}},
{ "type": "Feature", "properties": {"Name":"West Van Lear CDP","State":"Kentucky","State_Abbrev":"KY"},
"geometry":{ "type": "Point", "coordinates": [-82.78724,37.782065]}},
{ "type": "Feature", "properties": {"Name":"Westwood CDP","State":"Kentucky","State_Abbrev":"KY"},
"geometry":{ "type": "Point", "coordinates": [-82.6809,38.478816]}},
{ "type": "Feature", "properties": {"Name":"Westwood city","State":"Kentucky","State_Abbrev":"KY"},
"geometry":{ "type": "Point", "coordinates": [-85.584171,38.279581]}},
{ "type": "Feature", "properties": {"Name":"Wheatcroft city","State":"Kentucky","State_Abbrev":"KY"},
"geometry":{ "type": "Point", "coordinates": [-87.861185,37.489269]}},
{ "type": "Feature", "properties": {"Name":"Wheelwright city","State":"Kentucky","State_Abbrev":"KY"},
"geometry":{ "type": "Point", "coordinates": [-82.718618,37.339217]}},
{ "type": "Feature", "properties": {"Name":"White Plains city","State":"Kentucky","State_Abbrev":"KY"},
"geometry":{ "type": "Point", "coordinates": [-87.378922,37.169433]}},
{ "type": "Feature", "properties": {"Name":"Whitesburg city","State":"Kentucky","State_Abbrev":"KY"},
"geometry":{ "type": "Point", "coordinates": [-82.823017,37.117754]}},
{ "type": "Feature", "properties": {"Name":"Whitesville city","State":"Kentucky","State_Abbrev":"KY"},
"geometry":{ "type": "Point", "coordinates": [-86.869833,37.683144]}},
{ "type": "Feature", "properties": {"Name":"Whitley City CDP","State":"Kentucky","State_Abbrev":"KY"},
"geometry":{ "type": "Point", "coordinates": [-84.475469,36.722795]}},
{ "type": "Feature", "properties": {"Name":"Wickliffe city","State":"Kentucky","State_Abbrev":"KY"},
"geometry":{ "type": "Point", "coordinates": [-89.0819,36.966236]}},
{ "type": "Feature", "properties": {"Name":"Wilder city","State":"Kentucky","State_Abbrev":"KY"},
"geometry":{ "type": "Point", "coordinates": [-84.481546,39.041323]}},
{ "type": "Feature", "properties": {"Name":"Wildwood city","State":"Kentucky","State_Abbrev":"KY"},
"geometry":{ "type": "Point", "coordinates": [-85.574695,38.249038]}},
{ "type": "Feature", "properties": {"Name":"Williamsburg city","State":"Kentucky","State_Abbrev":"KY"},
"geometry":{ "type": "Point", "coordinates": [-84.165651,36.738714]}},
{ "type": "Feature", "properties": {"Name":"Williamstown city","State":"Kentucky","State_Abbrev":"KY"},
"geometry":{ "type": "Point", "coordinates": [-84.572517,38.639811]}},
{ "type": "Feature", "properties": {"Name":"Willisburg city","State":"Kentucky","State_Abbrev":"KY"},
"geometry":{ "type": "Point", "coordinates": [-85.119581,37.810316]}},
{ "type": "Feature", "properties": {"Name":"Wilmore city","State":"Kentucky","State_Abbrev":"KY"},
"geometry":{ "type": "Point", "coordinates": [-84.663902,37.877835]}},
{ "type": "Feature", "properties": {"Name":"Winchester city","State":"Kentucky","State_Abbrev":"KY"},
"geometry":{ "type": "Point", "coordinates": [-84.190586,38.002364]}},
{ "type": "Feature", "properties": {"Name":"Windy Hills city","State":"Kentucky","State_Abbrev":"KY"},
"geometry":{ "type": "Point", "coordinates": [-85.639605,38.271699]}},
{ "type": "Feature", "properties": {"Name":"Wingo city","State":"Kentucky","State_Abbrev":"KY"},
"geometry":{ "type": "Point", "coordinates": [-88.741052,36.641446]}},
{ "type": "Feature", "properties": {"Name":"Woodburn city","State":"Kentucky","State_Abbrev":"KY"},
"geometry":{ "type": "Point", "coordinates": [-86.531062,36.84151]}},
{ "type": "Feature", "properties": {"Name":"Woodbury city","State":"Kentucky","State_Abbrev":"KY"},
"geometry":{ "type": "Point", "coordinates": [-86.634943,37.183225]}},
{ "type": "Feature", "properties": {"Name":"Woodland Hills city","State":"Kentucky","State_Abbrev":"KY"},
"geometry":{ "type": "Point", "coordinates": [-85.529764,38.23926]}},
{ "type": "Feature", "properties": {"Name":"Woodlawn city","State":"Kentucky","State_Abbrev":"KY"},
"geometry":{ "type": "Point", "coordinates": [-84.47277,39.090901]}},
{ "type": "Feature", "properties": {"Name":"Woodlawn Park city","State":"Kentucky","State_Abbrev":"KY"},
"geometry":{ "type": "Point", "coordinates": [-85.630727,38.261427]}},
{ "type": "Feature", "properties": {"Name":"Worthington city","State":"Kentucky","State_Abbrev":"KY"},
"geometry":{ "type": "Point", "coordinates": [-82.734954,38.551106]}},
{ "type": "Feature", "properties": {"Name":"Worthington Hills city","State":"Kentucky","State_Abbrev":"KY"},
"geometry":{ "type": "Point", "coordinates": [-85.526958,38.309321]}},
{ "type": "Feature", "properties": {"Name":"Worthville city","State":"Kentucky","State_Abbrev":"KY"},
"geometry":{ "type": "Point", "coordinates": [-85.066911,38.610138]}},
{ "type": "Feature", "properties": {"Name":"Wurtland city","State":"Kentucky","State_Abbrev":"KY"},
"geometry":{ "type": "Point", "coordinates": [-82.779018,38.549598]}},
{ "type": "Feature", "properties": {"Name":"Yelvington CDP","State":"Kentucky","State_Abbrev":"KY"},
"geometry":{ "type": "Point", "coordinates": [-86.977855,37.849144]}}]}
