{"type":"FeatureCollection","features":[
{ "type": "Feature", "properties": {"Name":"Abbeville city","State":"Louisiana","State_Abbrev":"LA"},
"geometry":{ "type": "Point", "coordinates": [-92.127157,29.975395]}},
{ "type": "Feature", "properties": {"Name":"Abita Springs town","State":"Louisiana","State_Abbrev":"LA"},
"geometry":{ "type": "Point", "coordinates": [-90.020328,30.473491]}},
{ "type": "Feature", "properties": {"Name":"Addis town","State":"Louisiana","State_Abbrev":"LA"},
"geometry":{ "type": "Point", "coordinates": [-91.263648,30.369535]}},
{ "type": "Feature", "properties": {"Name":"Albany town","State":"Louisiana","State_Abbrev":"LA"},
"geometry":{ "type": "Point", "coordinates": [-90.583817,30.499193]}},
{ "type": "Feature", "properties": {"Name":"Alexandria city","State":"Louisiana","State_Abbrev":"LA"},
"geometry":{ "type": "Point", "coordinates": [-92.470189,31.293449]}},
{ "type": "Feature", "properties": {"Name":"Ama CDP","State":"Louisiana","State_Abbrev":"LA"},
"geometry":{ "type": "Point", "coordinates": [-90.295565,29.943492]}},
{ "type": "Feature", "properties": {"Name":"Amelia CDP","State":"Louisiana","State_Abbrev":"LA"},
"geometry":{ "type": "Point", "coordinates": [-91.110906,29.663226]}},
{ "type": "Feature", "properties": {"Name":"Amite City town","State":"Louisiana","State_Abbrev":"LA"},
"geometry":{ "type": "Point", "coordinates": [-90.515286,30.732164]}},
{ "type": "Feature", "properties": {"Name":"Anacoco village","State":"Louisiana","State_Abbrev":"LA"},
"geometry":{ "type": "Point", "coordinates": [-93.346545,31.256902]}},
{ "type": "Feature", "properties": {"Name":"Angie village","State":"Louisiana","State_Abbrev":"LA"},
"geometry":{ "type": "Point", "coordinates": [-89.821139,30.961335]}},
{ "type": "Feature", "properties": {"Name":"Arabi CDP","State":"Louisiana","State_Abbrev":"LA"},
"geometry":{ "type": "Point", "coordinates": [-89.996264,29.953037]}},
{ "type": "Feature", "properties": {"Name":"Arcadia town","State":"Louisiana","State_Abbrev":"LA"},
"geometry":{ "type": "Point", "coordinates": [-92.921373,32.550848]}},
{ "type": "Feature", "properties": {"Name":"Arnaudville town","State":"Louisiana","State_Abbrev":"LA"},
"geometry":{ "type": "Point", "coordinates": [-91.932391,30.401718]}},
{ "type": "Feature", "properties": {"Name":"Ashland village","State":"Louisiana","State_Abbrev":"LA"},
"geometry":{ "type": "Point", "coordinates": [-93.11254,32.120379]}},
{ "type": "Feature", "properties": {"Name":"Athens village","State":"Louisiana","State_Abbrev":"LA"},
"geometry":{ "type": "Point", "coordinates": [-93.027702,32.657978]}},
{ "type": "Feature", "properties": {"Name":"Atlanta village","State":"Louisiana","State_Abbrev":"LA"},
"geometry":{ "type": "Point", "coordinates": [-92.738334,31.806402]}},
{ "type": "Feature", "properties": {"Name":"Avondale CDP","State":"Louisiana","State_Abbrev":"LA"},
"geometry":{ "type": "Point", "coordinates": [-90.19702,29.901029]}},
{ "type": "Feature", "properties": {"Name":"Baker city","State":"Louisiana","State_Abbrev":"LA"},
"geometry":{ "type": "Point", "coordinates": [-91.158139,30.583241]}},
{ "type": "Feature", "properties": {"Name":"Baldwin town","State":"Louisiana","State_Abbrev":"LA"},
"geometry":{ "type": "Point", "coordinates": [-91.554886,29.841277]}},
{ "type": "Feature", "properties": {"Name":"Ball town","State":"Louisiana","State_Abbrev":"LA"},
"geometry":{ "type": "Point", "coordinates": [-92.408398,31.418749]}},
{ "type": "Feature", "properties": {"Name":"Banks Springs CDP","State":"Louisiana","State_Abbrev":"LA"},
"geometry":{ "type": "Point", "coordinates": [-92.085063,32.076423]}},
{ "type": "Feature", "properties": {"Name":"Barataria CDP","State":"Louisiana","State_Abbrev":"LA"},
"geometry":{ "type": "Point", "coordinates": [-90.121496,29.714032]}},
{ "type": "Feature", "properties": {"Name":"Basile town","State":"Louisiana","State_Abbrev":"LA"},
"geometry":{ "type": "Point", "coordinates": [-92.60102,30.485511]}},
{ "type": "Feature", "properties": {"Name":"Baskin village","State":"Louisiana","State_Abbrev":"LA"},
"geometry":{ "type": "Point", "coordinates": [-91.74733,32.259068]}},
{ "type": "Feature", "properties": {"Name":"Bastrop city","State":"Louisiana","State_Abbrev":"LA"},
"geometry":{ "type": "Point", "coordinates": [-91.907756,32.774858]}},
{ "type": "Feature", "properties": {"Name":"Baton Rouge city","State":"Louisiana","State_Abbrev":"LA"},
"geometry":{ "type": "Point", "coordinates": [-91.133166,30.440443]}},
{ "type": "Feature", "properties": {"Name":"Bawcomville CDP","State":"Louisiana","State_Abbrev":"LA"},
"geometry":{ "type": "Point", "coordinates": [-92.173702,32.468722]}},
{ "type": "Feature", "properties": {"Name":"Bayou Blue CDP","State":"Louisiana","State_Abbrev":"LA"},
"geometry":{ "type": "Point", "coordinates": [-90.668963,29.632482]}},
{ "type": "Feature", "properties": {"Name":"Bayou Cane CDP","State":"Louisiana","State_Abbrev":"LA"},
"geometry":{ "type": "Point", "coordinates": [-90.751036,29.624353]}},
{ "type": "Feature", "properties": {"Name":"Bayou Corne CDP","State":"Louisiana","State_Abbrev":"LA"},
"geometry":{ "type": "Point", "coordinates": [-91.152951,30.015944]}},
{ "type": "Feature", "properties": {"Name":"Bayou Country Club CDP","State":"Louisiana","State_Abbrev":"LA"},
"geometry":{ "type": "Point", "coordinates": [-90.789251,29.779551]}},
{ "type": "Feature", "properties": {"Name":"Bayou Gauche CDP","State":"Louisiana","State_Abbrev":"LA"},
"geometry":{ "type": "Point", "coordinates": [-90.422153,29.80686]}},
{ "type": "Feature", "properties": {"Name":"Bayou Goula CDP","State":"Louisiana","State_Abbrev":"LA"},
"geometry":{ "type": "Point", "coordinates": [-91.180871,30.216979]}},
{ "type": "Feature", "properties": {"Name":"Bayou L'Ourse CDP","State":"Louisiana","State_Abbrev":"LA"},
"geometry":{ "type": "Point", "coordinates": [-91.06061,29.717411]}},
{ "type": "Feature", "properties": {"Name":"Bayou Vista CDP","State":"Louisiana","State_Abbrev":"LA"},
"geometry":{ "type": "Point", "coordinates": [-91.26698,29.690571]}},
{ "type": "Feature", "properties": {"Name":"Belcher village","State":"Louisiana","State_Abbrev":"LA"},
"geometry":{ "type": "Point", "coordinates": [-93.837213,32.75217]}},
{ "type": "Feature", "properties": {"Name":"Belle Chasse CDP","State":"Louisiana","State_Abbrev":"LA"},
"geometry":{ "type": "Point", "coordinates": [-90.00329,29.858697]}},
{ "type": "Feature", "properties": {"Name":"Belle Rose CDP","State":"Louisiana","State_Abbrev":"LA"},
"geometry":{ "type": "Point", "coordinates": [-91.049721,30.042205]}},
{ "type": "Feature", "properties": {"Name":"Belmont CDP","State":"Louisiana","State_Abbrev":"LA"},
"geometry":{ "type": "Point", "coordinates": [-93.508178,31.718182]}},
{ "type": "Feature", "properties": {"Name":"Benton town","State":"Louisiana","State_Abbrev":"LA"},
"geometry":{ "type": "Point", "coordinates": [-93.740132,32.68958]}},
{ "type": "Feature", "properties": {"Name":"Bernice town","State":"Louisiana","State_Abbrev":"LA"},
"geometry":{ "type": "Point", "coordinates": [-92.658465,32.827661]}},
{ "type": "Feature", "properties": {"Name":"Berwick town","State":"Louisiana","State_Abbrev":"LA"},
"geometry":{ "type": "Point", "coordinates": [-91.235184,29.700548]}},
{ "type": "Feature", "properties": {"Name":"Bienville village","State":"Louisiana","State_Abbrev":"LA"},
"geometry":{ "type": "Point", "coordinates": [-92.974847,32.363209]}},
{ "type": "Feature", "properties": {"Name":"Blanchard town","State":"Louisiana","State_Abbrev":"LA"},
"geometry":{ "type": "Point", "coordinates": [-93.883118,32.602696]}},
{ "type": "Feature", "properties": {"Name":"Bogalusa city","State":"Louisiana","State_Abbrev":"LA"},
"geometry":{ "type": "Point", "coordinates": [-89.86166,30.775378]}},
{ "type": "Feature", "properties": {"Name":"Bonita village","State":"Louisiana","State_Abbrev":"LA"},
"geometry":{ "type": "Point", "coordinates": [-91.675066,32.92051]}},
{ "type": "Feature", "properties": {"Name":"Boothville CDP","State":"Louisiana","State_Abbrev":"LA"},
"geometry":{ "type": "Point", "coordinates": [-89.405729,29.332516]}},
{ "type": "Feature", "properties": {"Name":"Bordelonville CDP","State":"Louisiana","State_Abbrev":"LA"},
"geometry":{ "type": "Point", "coordinates": [-91.90047,31.101164]}},
{ "type": "Feature", "properties": {"Name":"Bossier City city","State":"Louisiana","State_Abbrev":"LA"},
"geometry":{ "type": "Point", "coordinates": [-93.655426,32.523674]}},
{ "type": "Feature", "properties": {"Name":"Bourg CDP","State":"Louisiana","State_Abbrev":"LA"},
"geometry":{ "type": "Point", "coordinates": [-90.614968,29.563648]}},
{ "type": "Feature", "properties": {"Name":"Boutte CDP","State":"Louisiana","State_Abbrev":"LA"},
"geometry":{ "type": "Point", "coordinates": [-90.38876,29.887384]}},
{ "type": "Feature", "properties": {"Name":"Boyce town","State":"Louisiana","State_Abbrev":"LA"},
"geometry":{ "type": "Point", "coordinates": [-92.670374,31.389895]}},
{ "type": "Feature", "properties": {"Name":"Branch CDP","State":"Louisiana","State_Abbrev":"LA"},
"geometry":{ "type": "Point", "coordinates": [-92.285691,30.338617]}},
{ "type": "Feature", "properties": {"Name":"Breaux Bridge city","State":"Louisiana","State_Abbrev":"LA"},
"geometry":{ "type": "Point", "coordinates": [-91.905919,30.283099]}},
{ "type": "Feature", "properties": {"Name":"Bridge City CDP","State":"Louisiana","State_Abbrev":"LA"},
"geometry":{ "type": "Point", "coordinates": [-90.156566,29.940771]}},
{ "type": "Feature", "properties": {"Name":"Broussard city","State":"Louisiana","State_Abbrev":"LA"},
"geometry":{ "type": "Point", "coordinates": [-91.95606,30.140831]}},
{ "type": "Feature", "properties": {"Name":"Brownfields CDP","State":"Louisiana","State_Abbrev":"LA"},
"geometry":{ "type": "Point", "coordinates": [-91.124057,30.543351]}},
{ "type": "Feature", "properties": {"Name":"Brownsville CDP","State":"Louisiana","State_Abbrev":"LA"},
"geometry":{ "type": "Point", "coordinates": [-92.161844,32.488265]}},
{ "type": "Feature", "properties": {"Name":"Brusly town","State":"Louisiana","State_Abbrev":"LA"},
"geometry":{ "type": "Point", "coordinates": [-91.251608,30.39425]}},
{ "type": "Feature", "properties": {"Name":"Bryceland village","State":"Louisiana","State_Abbrev":"LA"},
"geometry":{ "type": "Point", "coordinates": [-92.990067,32.445027]}},
{ "type": "Feature", "properties": {"Name":"Bunkie city","State":"Louisiana","State_Abbrev":"LA"},
"geometry":{ "type": "Point", "coordinates": [-92.188111,30.953661]}},
{ "type": "Feature", "properties": {"Name":"Buras CDP","State":"Louisiana","State_Abbrev":"LA"},
"geometry":{ "type": "Point", "coordinates": [-89.523973,29.353663]}},
{ "type": "Feature", "properties": {"Name":"Cade CDP","State":"Louisiana","State_Abbrev":"LA"},
"geometry":{ "type": "Point", "coordinates": [-91.899633,30.092568]}},
{ "type": "Feature", "properties": {"Name":"Calhoun CDP","State":"Louisiana","State_Abbrev":"LA"},
"geometry":{ "type": "Point", "coordinates": [-92.353926,32.515309]}},
{ "type": "Feature", "properties": {"Name":"Calvin village","State":"Louisiana","State_Abbrev":"LA"},
"geometry":{ "type": "Point", "coordinates": [-92.775806,31.961692]}},
{ "type": "Feature", "properties": {"Name":"Cameron CDP","State":"Louisiana","State_Abbrev":"LA"},
"geometry":{ "type": "Point", "coordinates": [-93.291532,29.795189]}},
{ "type": "Feature", "properties": {"Name":"Campti town","State":"Louisiana","State_Abbrev":"LA"},
"geometry":{ "type": "Point", "coordinates": [-93.116367,31.897965]}},
{ "type": "Feature", "properties": {"Name":"Cankton village","State":"Louisiana","State_Abbrev":"LA"},
"geometry":{ "type": "Point", "coordinates": [-92.113084,30.345533]}},
{ "type": "Feature", "properties": {"Name":"Carencro city","State":"Louisiana","State_Abbrev":"LA"},
"geometry":{ "type": "Point", "coordinates": [-92.038706,30.312561]}},
{ "type": "Feature", "properties": {"Name":"Carlyss CDP","State":"Louisiana","State_Abbrev":"LA"},
"geometry":{ "type": "Point", "coordinates": [-93.369589,30.176743]}},
{ "type": "Feature", "properties": {"Name":"Castor village","State":"Louisiana","State_Abbrev":"LA"},
"geometry":{ "type": "Point", "coordinates": [-93.165963,32.254878]}},
{ "type": "Feature", "properties": {"Name":"Catahoula CDP","State":"Louisiana","State_Abbrev":"LA"},
"geometry":{ "type": "Point", "coordinates": [-91.719555,30.211999]}},
{ "type": "Feature", "properties": {"Name":"Cecilia CDP","State":"Louisiana","State_Abbrev":"LA"},
"geometry":{ "type": "Point", "coordinates": [-91.847921,30.3364]}},
{ "type": "Feature", "properties": {"Name":"Center Point CDP","State":"Louisiana","State_Abbrev":"LA"},
"geometry":{ "type": "Point", "coordinates": [-92.209957,31.252379]}},
{ "type": "Feature", "properties": {"Name":"Centerville CDP","State":"Louisiana","State_Abbrev":"LA"},
"geometry":{ "type": "Point", "coordinates": [-91.425631,29.756277]}},
{ "type": "Feature", "properties": {"Name":"Central city","State":"Louisiana","State_Abbrev":"LA"},
"geometry":{ "type": "Point", "coordinates": [-91.035507,30.559305]}},
{ "type": "Feature", "properties": {"Name":"Chackbay CDP","State":"Louisiana","State_Abbrev":"LA"},
"geometry":{ "type": "Point", "coordinates": [-90.807044,29.858534]}},
{ "type": "Feature", "properties": {"Name":"Chalmette CDP","State":"Louisiana","State_Abbrev":"LA"},
"geometry":{ "type": "Point", "coordinates": [-89.966005,29.944015]}},
{ "type": "Feature", "properties": {"Name":"Charenton CDP","State":"Louisiana","State_Abbrev":"LA"},
"geometry":{ "type": "Point", "coordinates": [-91.53998,29.867069]}},
{ "type": "Feature", "properties": {"Name":"Chataignier village","State":"Louisiana","State_Abbrev":"LA"},
"geometry":{ "type": "Point", "coordinates": [-92.316831,30.56957]}},
{ "type": "Feature", "properties": {"Name":"Chatham town","State":"Louisiana","State_Abbrev":"LA"},
"geometry":{ "type": "Point", "coordinates": [-92.451437,32.309171]}},
{ "type": "Feature", "properties": {"Name":"Chauvin CDP","State":"Louisiana","State_Abbrev":"LA"},
"geometry":{ "type": "Point", "coordinates": [-90.593603,29.445323]}},
{ "type": "Feature", "properties": {"Name":"Cheneyville town","State":"Louisiana","State_Abbrev":"LA"},
"geometry":{ "type": "Point", "coordinates": [-92.290112,31.010995]}},
{ "type": "Feature", "properties": {"Name":"Choctaw CDP","State":"Louisiana","State_Abbrev":"LA"},
"geometry":{ "type": "Point", "coordinates": [-90.72384,29.845682]}},
{ "type": "Feature", "properties": {"Name":"Choudrant village","State":"Louisiana","State_Abbrev":"LA"},
"geometry":{ "type": "Point", "coordinates": [-92.526216,32.533076]}},
{ "type": "Feature", "properties": {"Name":"Church Point town","State":"Louisiana","State_Abbrev":"LA"},
"geometry":{ "type": "Point", "coordinates": [-92.214483,30.403706]}},
{ "type": "Feature", "properties": {"Name":"Claiborne CDP","State":"Louisiana","State_Abbrev":"LA"},
"geometry":{ "type": "Point", "coordinates": [-92.196154,32.541238]}},
{ "type": "Feature", "properties": {"Name":"Clarence village","State":"Louisiana","State_Abbrev":"LA"},
"geometry":{ "type": "Point", "coordinates": [-93.029088,31.820258]}},
{ "type": "Feature", "properties": {"Name":"Clarks village","State":"Louisiana","State_Abbrev":"LA"},
"geometry":{ "type": "Point", "coordinates": [-92.140839,32.028817]}},
{ "type": "Feature", "properties": {"Name":"Clayton town","State":"Louisiana","State_Abbrev":"LA"},
"geometry":{ "type": "Point", "coordinates": [-91.534567,31.722159]}},
{ "type": "Feature", "properties": {"Name":"Clinton town","State":"Louisiana","State_Abbrev":"LA"},
"geometry":{ "type": "Point", "coordinates": [-91.015454,30.861679]}},
{ "type": "Feature", "properties": {"Name":"Colfax town","State":"Louisiana","State_Abbrev":"LA"},
"geometry":{ "type": "Point", "coordinates": [-92.69974,31.519572]}},
{ "type": "Feature", "properties": {"Name":"Collinston village","State":"Louisiana","State_Abbrev":"LA"},
"geometry":{ "type": "Point", "coordinates": [-91.871813,32.689283]}},
{ "type": "Feature", "properties": {"Name":"Columbia town","State":"Louisiana","State_Abbrev":"LA"},
"geometry":{ "type": "Point", "coordinates": [-92.076434,32.102102]}},
{ "type": "Feature", "properties": {"Name":"Convent CDP","State":"Louisiana","State_Abbrev":"LA"},
"geometry":{ "type": "Point", "coordinates": [-90.820234,30.015211]}},
{ "type": "Feature", "properties": {"Name":"Converse village","State":"Louisiana","State_Abbrev":"LA"},
"geometry":{ "type": "Point", "coordinates": [-93.70013,31.779538]}},
{ "type": "Feature", "properties": {"Name":"Cottonport town","State":"Louisiana","State_Abbrev":"LA"},
"geometry":{ "type": "Point", "coordinates": [-92.050952,30.989174]}},
{ "type": "Feature", "properties": {"Name":"Cotton Valley town","State":"Louisiana","State_Abbrev":"LA"},
"geometry":{ "type": "Point", "coordinates": [-93.423119,32.8134]}},
{ "type": "Feature", "properties": {"Name":"Coushatta town","State":"Louisiana","State_Abbrev":"LA"},
"geometry":{ "type": "Point", "coordinates": [-93.340597,32.025834]}},
{ "type": "Feature", "properties": {"Name":"Covington city","State":"Louisiana","State_Abbrev":"LA"},
"geometry":{ "type": "Point", "coordinates": [-90.111826,30.480184]}},
{ "type": "Feature", "properties": {"Name":"Creola village","State":"Louisiana","State_Abbrev":"LA"},
"geometry":{ "type": "Point", "coordinates": [-92.480966,31.426946]}},
{ "type": "Feature", "properties": {"Name":"Crescent CDP","State":"Louisiana","State_Abbrev":"LA"},
"geometry":{ "type": "Point", "coordinates": [-91.288157,30.243178]}},
{ "type": "Feature", "properties": {"Name":"Crowley city","State":"Louisiana","State_Abbrev":"LA"},
"geometry":{ "type": "Point", "coordinates": [-92.37484,30.217897]}},
{ "type": "Feature", "properties": {"Name":"Cullen town","State":"Louisiana","State_Abbrev":"LA"},
"geometry":{ "type": "Point", "coordinates": [-93.446542,32.967708]}},
{ "type": "Feature", "properties": {"Name":"Cut Off CDP","State":"Louisiana","State_Abbrev":"LA"},
"geometry":{ "type": "Point", "coordinates": [-90.329714,29.516283]}},
{ "type": "Feature", "properties": {"Name":"Darrow CDP","State":"Louisiana","State_Abbrev":"LA"},
"geometry":{ "type": "Point", "coordinates": [-90.984343,30.121219]}},
{ "type": "Feature", "properties": {"Name":"Delacroix CDP","State":"Louisiana","State_Abbrev":"LA"},
"geometry":{ "type": "Point", "coordinates": [-89.789511,29.762366]}},
{ "type": "Feature", "properties": {"Name":"Delcambre town","State":"Louisiana","State_Abbrev":"LA"},
"geometry":{ "type": "Point", "coordinates": [-91.991712,29.951052]}},
{ "type": "Feature", "properties": {"Name":"Delhi town","State":"Louisiana","State_Abbrev":"LA"},
"geometry":{ "type": "Point", "coordinates": [-91.489976,32.452843]}},
{ "type": "Feature", "properties": {"Name":"Delta village","State":"Louisiana","State_Abbrev":"LA"},
"geometry":{ "type": "Point", "coordinates": [-90.958549,32.322201]}},
{ "type": "Feature", "properties": {"Name":"Denham Springs city","State":"Louisiana","State_Abbrev":"LA"},
"geometry":{ "type": "Point", "coordinates": [-90.959027,30.474329]}},
{ "type": "Feature", "properties": {"Name":"DeQuincy city","State":"Louisiana","State_Abbrev":"LA"},
"geometry":{ "type": "Point", "coordinates": [-93.44566,30.44896]}},
{ "type": "Feature", "properties": {"Name":"DeRidder city","State":"Louisiana","State_Abbrev":"LA"},
"geometry":{ "type": "Point", "coordinates": [-93.2952,30.845003]}},
{ "type": "Feature", "properties": {"Name":"Des Allemands CDP","State":"Louisiana","State_Abbrev":"LA"},
"geometry":{ "type": "Point", "coordinates": [-90.470513,29.815368]}},
{ "type": "Feature", "properties": {"Name":"Destrehan CDP","State":"Louisiana","State_Abbrev":"LA"},
"geometry":{ "type": "Point", "coordinates": [-90.354156,29.972092]}},
{ "type": "Feature", "properties": {"Name":"Deville CDP","State":"Louisiana","State_Abbrev":"LA"},
"geometry":{ "type": "Point", "coordinates": [-92.141801,31.344944]}},
{ "type": "Feature", "properties": {"Name":"Dixie Inn village","State":"Louisiana","State_Abbrev":"LA"},
"geometry":{ "type": "Point", "coordinates": [-93.332232,32.596841]}},
{ "type": "Feature", "properties": {"Name":"Dodson village","State":"Louisiana","State_Abbrev":"LA"},
"geometry":{ "type": "Point", "coordinates": [-92.658716,32.080777]}},
{ "type": "Feature", "properties": {"Name":"Donaldsonville city","State":"Louisiana","State_Abbrev":"LA"},
"geometry":{ "type": "Point", "coordinates": [-90.992544,30.095069]}},
{ "type": "Feature", "properties": {"Name":"Dorseyville CDP","State":"Louisiana","State_Abbrev":"LA"},
"geometry":{ "type": "Point", "coordinates": [-91.161391,30.177361]}},
{ "type": "Feature", "properties": {"Name":"Downsville village","State":"Louisiana","State_Abbrev":"LA"},
"geometry":{ "type": "Point", "coordinates": [-92.41292,32.626437]}},
{ "type": "Feature", "properties": {"Name":"Doyline village","State":"Louisiana","State_Abbrev":"LA"},
"geometry":{ "type": "Point", "coordinates": [-93.415702,32.520731]}},
{ "type": "Feature", "properties": {"Name":"Dry Prong village","State":"Louisiana","State_Abbrev":"LA"},
"geometry":{ "type": "Point", "coordinates": [-92.531418,31.581305]}},
{ "type": "Feature", "properties": {"Name":"Dubach town","State":"Louisiana","State_Abbrev":"LA"},
"geometry":{ "type": "Point", "coordinates": [-92.66153,32.703291]}},
{ "type": "Feature", "properties": {"Name":"Dubberly village","State":"Louisiana","State_Abbrev":"LA"},
"geometry":{ "type": "Point", "coordinates": [-93.232335,32.547618]}},
{ "type": "Feature", "properties": {"Name":"Dulac CDP","State":"Louisiana","State_Abbrev":"LA"},
"geometry":{ "type": "Point", "coordinates": [-90.693235,29.400812]}},
{ "type": "Feature", "properties": {"Name":"Duson town","State":"Louisiana","State_Abbrev":"LA"},
"geometry":{ "type": "Point", "coordinates": [-92.189135,30.238438]}},
{ "type": "Feature", "properties": {"Name":"East Hodge village","State":"Louisiana","State_Abbrev":"LA"},
"geometry":{ "type": "Point", "coordinates": [-92.713689,32.277599]}},
{ "type": "Feature", "properties": {"Name":"Eastwood CDP","State":"Louisiana","State_Abbrev":"LA"},
"geometry":{ "type": "Point", "coordinates": [-93.56249,32.560703]}},
{ "type": "Feature", "properties": {"Name":"Echo CDP","State":"Louisiana","State_Abbrev":"LA"},
"geometry":{ "type": "Point", "coordinates": [-92.240593,31.108499]}},
{ "type": "Feature", "properties": {"Name":"Eden Isle CDP","State":"Louisiana","State_Abbrev":"LA"},
"geometry":{ "type": "Point", "coordinates": [-89.809246,30.225247]}},
{ "type": "Feature", "properties": {"Name":"Edgard CDP","State":"Louisiana","State_Abbrev":"LA"},
"geometry":{ "type": "Point", "coordinates": [-90.544105,30.03083]}},
{ "type": "Feature", "properties": {"Name":"Edgefield village","State":"Louisiana","State_Abbrev":"LA"},
"geometry":{ "type": "Point", "coordinates": [-93.335962,32.050081]}},
{ "type": "Feature", "properties": {"Name":"Egan CDP","State":"Louisiana","State_Abbrev":"LA"},
"geometry":{ "type": "Point", "coordinates": [-92.511594,30.245515]}},
{ "type": "Feature", "properties": {"Name":"Elizabeth village","State":"Louisiana","State_Abbrev":"LA"},
"geometry":{ "type": "Point", "coordinates": [-92.801824,30.865729]}},
{ "type": "Feature", "properties": {"Name":"Elmwood CDP","State":"Louisiana","State_Abbrev":"LA"},
"geometry":{ "type": "Point", "coordinates": [-90.18741,29.95397]}},
{ "type": "Feature", "properties": {"Name":"Elton town","State":"Louisiana","State_Abbrev":"LA"},
"geometry":{ "type": "Point", "coordinates": [-92.697609,30.481253]}},
{ "type": "Feature", "properties": {"Name":"Empire CDP","State":"Louisiana","State_Abbrev":"LA"},
"geometry":{ "type": "Point", "coordinates": [-89.614383,29.445183]}},
{ "type": "Feature", "properties": {"Name":"Epps village","State":"Louisiana","State_Abbrev":"LA"},
"geometry":{ "type": "Point", "coordinates": [-91.481412,32.603824]}},
{ "type": "Feature", "properties": {"Name":"Erath town","State":"Louisiana","State_Abbrev":"LA"},
"geometry":{ "type": "Point", "coordinates": [-92.037424,29.958787]}},
{ "type": "Feature", "properties": {"Name":"Eros town","State":"Louisiana","State_Abbrev":"LA"},
"geometry":{ "type": "Point", "coordinates": [-92.423933,32.392558]}},
{ "type": "Feature", "properties": {"Name":"Erwinville CDP","State":"Louisiana","State_Abbrev":"LA"},
"geometry":{ "type": "Point", "coordinates": [-91.38848,30.541007]}},
{ "type": "Feature", "properties": {"Name":"Estelle CDP","State":"Louisiana","State_Abbrev":"LA"},
"geometry":{ "type": "Point", "coordinates": [-90.094151,29.84146]}},
{ "type": "Feature", "properties": {"Name":"Estherwood village","State":"Louisiana","State_Abbrev":"LA"},
"geometry":{ "type": "Point", "coordinates": [-92.463315,30.181614]}},
{ "type": "Feature", "properties": {"Name":"Eunice city","State":"Louisiana","State_Abbrev":"LA"},
"geometry":{ "type": "Point", "coordinates": [-92.419064,30.490429]}},
{ "type": "Feature", "properties": {"Name":"Evergreen town","State":"Louisiana","State_Abbrev":"LA"},
"geometry":{ "type": "Point", "coordinates": [-92.105168,30.952759]}},
{ "type": "Feature", "properties": {"Name":"Farmerville town","State":"Louisiana","State_Abbrev":"LA"},
"geometry":{ "type": "Point", "coordinates": [-92.400519,32.775105]}},
{ "type": "Feature", "properties": {"Name":"Fenton village","State":"Louisiana","State_Abbrev":"LA"},
"geometry":{ "type": "Point", "coordinates": [-92.916965,30.364334]}},
{ "type": "Feature", "properties": {"Name":"Ferriday town","State":"Louisiana","State_Abbrev":"LA"},
"geometry":{ "type": "Point", "coordinates": [-91.556169,31.63418]}},
{ "type": "Feature", "properties": {"Name":"Fifth Ward CDP","State":"Louisiana","State_Abbrev":"LA"},
"geometry":{ "type": "Point", "coordinates": [-92.158388,31.120697]}},
{ "type": "Feature", "properties": {"Name":"Fisher village","State":"Louisiana","State_Abbrev":"LA"},
"geometry":{ "type": "Point", "coordinates": [-93.459738,31.493273]}},
{ "type": "Feature", "properties": {"Name":"Florien village","State":"Louisiana","State_Abbrev":"LA"},
"geometry":{ "type": "Point", "coordinates": [-93.459199,31.45748]}},
{ "type": "Feature", "properties": {"Name":"Folsom village","State":"Louisiana","State_Abbrev":"LA"},
"geometry":{ "type": "Point", "coordinates": [-90.196123,30.632433]}},
{ "type": "Feature", "properties": {"Name":"Fordoche town","State":"Louisiana","State_Abbrev":"LA"},
"geometry":{ "type": "Point", "coordinates": [-91.617924,30.594028]}},
{ "type": "Feature", "properties": {"Name":"Forest village","State":"Louisiana","State_Abbrev":"LA"},
"geometry":{ "type": "Point", "coordinates": [-91.412555,32.792366]}},
{ "type": "Feature", "properties": {"Name":"Forest Hill village","State":"Louisiana","State_Abbrev":"LA"},
"geometry":{ "type": "Point", "coordinates": [-92.525253,31.049909]}},
{ "type": "Feature", "properties": {"Name":"Fort Jesup CDP","State":"Louisiana","State_Abbrev":"LA"},
"geometry":{ "type": "Point", "coordinates": [-93.406195,31.611391]}},
{ "type": "Feature", "properties": {"Name":"Fort Polk North CDP","State":"Louisiana","State_Abbrev":"LA"},
"geometry":{ "type": "Point", "coordinates": [-93.174531,31.100417]}},
{ "type": "Feature", "properties": {"Name":"Fort Polk South CDP","State":"Louisiana","State_Abbrev":"LA"},
"geometry":{ "type": "Point", "coordinates": [-93.216714,31.054209]}},
{ "type": "Feature", "properties": {"Name":"Franklin city","State":"Louisiana","State_Abbrev":"LA"},
"geometry":{ "type": "Point", "coordinates": [-91.509567,29.784946]}},
{ "type": "Feature", "properties": {"Name":"Franklinton town","State":"Louisiana","State_Abbrev":"LA"},
"geometry":{ "type": "Point", "coordinates": [-90.145869,30.848234]}},
{ "type": "Feature", "properties": {"Name":"French Settlement village","State":"Louisiana","State_Abbrev":"LA"},
"geometry":{ "type": "Point", "coordinates": [-90.814253,30.331871]}},
{ "type": "Feature", "properties": {"Name":"Frierson CDP","State":"Louisiana","State_Abbrev":"LA"},
"geometry":{ "type": "Point", "coordinates": [-93.686859,32.246949]}},
{ "type": "Feature", "properties": {"Name":"Galliano CDP","State":"Louisiana","State_Abbrev":"LA"},
"geometry":{ "type": "Point", "coordinates": [-90.307745,29.445857]}},
{ "type": "Feature", "properties": {"Name":"Gardere CDP","State":"Louisiana","State_Abbrev":"LA"},
"geometry":{ "type": "Point", "coordinates": [-91.134553,30.358265]}},
{ "type": "Feature", "properties": {"Name":"Garyville CDP","State":"Louisiana","State_Abbrev":"LA"},
"geometry":{ "type": "Point", "coordinates": [-90.634729,30.065727]}},
{ "type": "Feature", "properties": {"Name":"Georgetown village","State":"Louisiana","State_Abbrev":"LA"},
"geometry":{ "type": "Point", "coordinates": [-92.380277,31.758547]}},
{ "type": "Feature", "properties": {"Name":"Gibsland town","State":"Louisiana","State_Abbrev":"LA"},
"geometry":{ "type": "Point", "coordinates": [-93.055298,32.540236]}},
{ "type": "Feature", "properties": {"Name":"Gilbert village","State":"Louisiana","State_Abbrev":"LA"},
"geometry":{ "type": "Point", "coordinates": [-91.657704,32.051157]}},
{ "type": "Feature", "properties": {"Name":"Gilliam village","State":"Louisiana","State_Abbrev":"LA"},
"geometry":{ "type": "Point", "coordinates": [-93.841788,32.828238]}},
{ "type": "Feature", "properties": {"Name":"Gillis CDP","State":"Louisiana","State_Abbrev":"LA"},
"geometry":{ "type": "Point", "coordinates": [-93.199845,30.376885]}},
{ "type": "Feature", "properties": {"Name":"Glencoe CDP","State":"Louisiana","State_Abbrev":"LA"},
"geometry":{ "type": "Point", "coordinates": [-91.670377,29.811226]}},
{ "type": "Feature", "properties": {"Name":"Glenmora town","State":"Louisiana","State_Abbrev":"LA"},
"geometry":{ "type": "Point", "coordinates": [-92.582382,30.973315]}},
{ "type": "Feature", "properties": {"Name":"Gloster CDP","State":"Louisiana","State_Abbrev":"LA"},
"geometry":{ "type": "Point", "coordinates": [-93.804695,32.190384]}},
{ "type": "Feature", "properties": {"Name":"Golden Meadow town","State":"Louisiana","State_Abbrev":"LA"},
"geometry":{ "type": "Point", "coordinates": [-90.274954,29.387034]}},
{ "type": "Feature", "properties": {"Name":"Goldonna village","State":"Louisiana","State_Abbrev":"LA"},
"geometry":{ "type": "Point", "coordinates": [-92.930026,32.011203]}},
{ "type": "Feature", "properties": {"Name":"Gonzales city","State":"Louisiana","State_Abbrev":"LA"},
"geometry":{ "type": "Point", "coordinates": [-90.922402,30.212739]}},
{ "type": "Feature", "properties": {"Name":"Good Pine CDP","State":"Louisiana","State_Abbrev":"LA"},
"geometry":{ "type": "Point", "coordinates": [-92.162946,31.69349]}},
{ "type": "Feature", "properties": {"Name":"Grambling city","State":"Louisiana","State_Abbrev":"LA"},
"geometry":{ "type": "Point", "coordinates": [-92.708019,32.526332]}},
{ "type": "Feature", "properties": {"Name":"Gramercy town","State":"Louisiana","State_Abbrev":"LA"},
"geometry":{ "type": "Point", "coordinates": [-90.693634,30.061913]}},
{ "type": "Feature", "properties": {"Name":"Grand Cane village","State":"Louisiana","State_Abbrev":"LA"},
"geometry":{ "type": "Point", "coordinates": [-93.80895,32.083851]}},
{ "type": "Feature", "properties": {"Name":"Grand Coteau town","State":"Louisiana","State_Abbrev":"LA"},
"geometry":{ "type": "Point", "coordinates": [-92.04379,30.420237]}},
{ "type": "Feature", "properties": {"Name":"Grand Isle town","State":"Louisiana","State_Abbrev":"LA"},
"geometry":{ "type": "Point", "coordinates": [-90.029115,29.212857]}},
{ "type": "Feature", "properties": {"Name":"Grand Point CDP","State":"Louisiana","State_Abbrev":"LA"},
"geometry":{ "type": "Point", "coordinates": [-90.750071,30.047208]}},
{ "type": "Feature", "properties": {"Name":"Gray CDP","State":"Louisiana","State_Abbrev":"LA"},
"geometry":{ "type": "Point", "coordinates": [-90.783138,29.678003]}},
{ "type": "Feature", "properties": {"Name":"Grayson village","State":"Louisiana","State_Abbrev":"LA"},
"geometry":{ "type": "Point", "coordinates": [-92.111571,32.049173]}},
{ "type": "Feature", "properties": {"Name":"Greensburg town","State":"Louisiana","State_Abbrev":"LA"},
"geometry":{ "type": "Point", "coordinates": [-90.669859,30.82964]}},
{ "type": "Feature", "properties": {"Name":"Greenwood town","State":"Louisiana","State_Abbrev":"LA"},
"geometry":{ "type": "Point", "coordinates": [-93.959889,32.43147]}},
{ "type": "Feature", "properties": {"Name":"Gretna city","State":"Louisiana","State_Abbrev":"LA"},
"geometry":{ "type": "Point", "coordinates": [-90.051721,29.910946]}},
{ "type": "Feature", "properties": {"Name":"Grosse Tete village","State":"Louisiana","State_Abbrev":"LA"},
"geometry":{ "type": "Point", "coordinates": [-91.4394,30.415418]}},
{ "type": "Feature", "properties": {"Name":"Gueydan town","State":"Louisiana","State_Abbrev":"LA"},
"geometry":{ "type": "Point", "coordinates": [-92.506985,30.029017]}},
{ "type": "Feature", "properties": {"Name":"Hackberry CDP","State":"Louisiana","State_Abbrev":"LA"},
"geometry":{ "type": "Point", "coordinates": [-93.410178,29.964958]}},
{ "type": "Feature", "properties": {"Name":"Hahnville CDP","State":"Louisiana","State_Abbrev":"LA"},
"geometry":{ "type": "Point", "coordinates": [-90.423964,29.961289]}},
{ "type": "Feature", "properties": {"Name":"Hall Summit village","State":"Louisiana","State_Abbrev":"LA"},
"geometry":{ "type": "Point", "coordinates": [-93.305105,32.177023]}},
{ "type": "Feature", "properties": {"Name":"Hammond city","State":"Louisiana","State_Abbrev":"LA"},
"geometry":{ "type": "Point", "coordinates": [-90.456493,30.50565]}},
{ "type": "Feature", "properties": {"Name":"Harahan city","State":"Louisiana","State_Abbrev":"LA"},
"geometry":{ "type": "Point", "coordinates": [-90.202659,29.936366]}},
{ "type": "Feature", "properties": {"Name":"Harrisonburg village","State":"Louisiana","State_Abbrev":"LA"},
"geometry":{ "type": "Point", "coordinates": [-91.823014,31.768456]}},
{ "type": "Feature", "properties": {"Name":"Harvey CDP","State":"Louisiana","State_Abbrev":"LA"},
"geometry":{ "type": "Point", "coordinates": [-90.06641,29.888796]}},
{ "type": "Feature", "properties": {"Name":"Haughton town","State":"Louisiana","State_Abbrev":"LA"},
"geometry":{ "type": "Point", "coordinates": [-93.504172,32.527609]}},
{ "type": "Feature", "properties": {"Name":"Hayes CDP","State":"Louisiana","State_Abbrev":"LA"},
"geometry":{ "type": "Point", "coordinates": [-92.923911,30.111069]}},
{ "type": "Feature", "properties": {"Name":"Haynesville town","State":"Louisiana","State_Abbrev":"LA"},
"geometry":{ "type": "Point", "coordinates": [-93.138141,32.966337]}},
{ "type": "Feature", "properties": {"Name":"Heflin village","State":"Louisiana","State_Abbrev":"LA"},
"geometry":{ "type": "Point", "coordinates": [-93.273075,32.459066]}},
{ "type": "Feature", "properties": {"Name":"Henderson town","State":"Louisiana","State_Abbrev":"LA"},
"geometry":{ "type": "Point", "coordinates": [-91.803708,30.31781]}},
{ "type": "Feature", "properties": {"Name":"Hessmer village","State":"Louisiana","State_Abbrev":"LA"},
"geometry":{ "type": "Point", "coordinates": [-92.121487,31.053373]}},
{ "type": "Feature", "properties": {"Name":"Hester CDP","State":"Louisiana","State_Abbrev":"LA"},
"geometry":{ "type": "Point", "coordinates": [-90.770238,30.025982]}},
{ "type": "Feature", "properties": {"Name":"Hodge village","State":"Louisiana","State_Abbrev":"LA"},
"geometry":{ "type": "Point", "coordinates": [-92.72968,32.270019]}},
{ "type": "Feature", "properties": {"Name":"Homer town","State":"Louisiana","State_Abbrev":"LA"},
"geometry":{ "type": "Point", "coordinates": [-93.059087,32.793797]}},
{ "type": "Feature", "properties": {"Name":"Hornbeck town","State":"Louisiana","State_Abbrev":"LA"},
"geometry":{ "type": "Point", "coordinates": [-93.395808,31.326045]}},
{ "type": "Feature", "properties": {"Name":"Hosston village","State":"Louisiana","State_Abbrev":"LA"},
"geometry":{ "type": "Point", "coordinates": [-93.882689,32.88608]}},
{ "type": "Feature", "properties": {"Name":"Houma city","State":"Louisiana","State_Abbrev":"LA"},
"geometry":{ "type": "Point", "coordinates": [-90.708023,29.578681]}},
{ "type": "Feature", "properties": {"Name":"Ida village","State":"Louisiana","State_Abbrev":"LA"},
"geometry":{ "type": "Point", "coordinates": [-93.896379,32.998902]}},
{ "type": "Feature", "properties": {"Name":"Independence town","State":"Louisiana","State_Abbrev":"LA"},
"geometry":{ "type": "Point", "coordinates": [-90.505172,30.636052]}},
{ "type": "Feature", "properties": {"Name":"Inniswold CDP","State":"Louisiana","State_Abbrev":"LA"},
"geometry":{ "type": "Point", "coordinates": [-91.070948,30.398219]}},
{ "type": "Feature", "properties": {"Name":"Iota town","State":"Louisiana","State_Abbrev":"LA"},
"geometry":{ "type": "Point", "coordinates": [-92.495612,30.326054]}},
{ "type": "Feature", "properties": {"Name":"Iowa town","State":"Louisiana","State_Abbrev":"LA"},
"geometry":{ "type": "Point", "coordinates": [-93.013028,30.241367]}},
{ "type": "Feature", "properties": {"Name":"Jackson town","State":"Louisiana","State_Abbrev":"LA"},
"geometry":{ "type": "Point", "coordinates": [-91.208479,30.83463]}},
{ "type": "Feature", "properties": {"Name":"Jamestown village","State":"Louisiana","State_Abbrev":"LA"},
"geometry":{ "type": "Point", "coordinates": [-93.206609,32.341862]}},
{ "type": "Feature", "properties": {"Name":"Jeanerette city","State":"Louisiana","State_Abbrev":"LA"},
"geometry":{ "type": "Point", "coordinates": [-91.676308,29.915237]}},
{ "type": "Feature", "properties": {"Name":"Jean Lafitte town","State":"Louisiana","State_Abbrev":"LA"},
"geometry":{ "type": "Point", "coordinates": [-90.101568,29.753403]}},
{ "type": "Feature", "properties": {"Name":"Jefferson CDP","State":"Louisiana","State_Abbrev":"LA"},
"geometry":{ "type": "Point", "coordinates": [-90.155912,29.960355]}},
{ "type": "Feature", "properties": {"Name":"Jena town","State":"Louisiana","State_Abbrev":"LA"},
"geometry":{ "type": "Point", "coordinates": [-92.128582,31.690215]}},
{ "type": "Feature", "properties": {"Name":"Jennings city","State":"Louisiana","State_Abbrev":"LA"},
"geometry":{ "type": "Point", "coordinates": [-92.658295,30.223978]}},
{ "type": "Feature", "properties": {"Name":"Jonesboro town","State":"Louisiana","State_Abbrev":"LA"},
"geometry":{ "type": "Point", "coordinates": [-92.710619,32.233544]}},
{ "type": "Feature", "properties": {"Name":"Jonesville town","State":"Louisiana","State_Abbrev":"LA"},
"geometry":{ "type": "Point", "coordinates": [-91.83443,31.622318]}},
{ "type": "Feature", "properties": {"Name":"Jordan Hill CDP","State":"Louisiana","State_Abbrev":"LA"},
"geometry":{ "type": "Point", "coordinates": [-92.515624,31.859105]}},
{ "type": "Feature", "properties": {"Name":"Joyce CDP","State":"Louisiana","State_Abbrev":"LA"},
"geometry":{ "type": "Point", "coordinates": [-92.585073,31.9347]}},
{ "type": "Feature", "properties": {"Name":"Junction City village","State":"Louisiana","State_Abbrev":"LA"},
"geometry":{ "type": "Point", "coordinates": [-92.722416,33.007273]}},
{ "type": "Feature", "properties": {"Name":"Kaplan city","State":"Louisiana","State_Abbrev":"LA"},
"geometry":{ "type": "Point", "coordinates": [-92.283875,30.005958]}},
{ "type": "Feature", "properties": {"Name":"Keachi town","State":"Louisiana","State_Abbrev":"LA"},
"geometry":{ "type": "Point", "coordinates": [-93.914523,32.168]}},
{ "type": "Feature", "properties": {"Name":"Kenner city","State":"Louisiana","State_Abbrev":"LA"},
"geometry":{ "type": "Point", "coordinates": [-90.25482,30.010227]}},
{ "type": "Feature", "properties": {"Name":"Kentwood town","State":"Louisiana","State_Abbrev":"LA"},
"geometry":{ "type": "Point", "coordinates": [-90.515162,30.933755]}},
{ "type": "Feature", "properties": {"Name":"Kilbourne village","State":"Louisiana","State_Abbrev":"LA"},
"geometry":{ "type": "Point", "coordinates": [-91.313905,32.997184]}},
{ "type": "Feature", "properties": {"Name":"Killian town","State":"Louisiana","State_Abbrev":"LA"},
"geometry":{ "type": "Point", "coordinates": [-90.580925,30.352612]}},
{ "type": "Feature", "properties": {"Name":"Killona CDP","State":"Louisiana","State_Abbrev":"LA"},
"geometry":{ "type": "Point", "coordinates": [-90.484239,29.996836]}},
{ "type": "Feature", "properties": {"Name":"Kinder town","State":"Louisiana","State_Abbrev":"LA"},
"geometry":{ "type": "Point", "coordinates": [-92.851983,30.483093]}},
{ "type": "Feature", "properties": {"Name":"Kraemer CDP","State":"Louisiana","State_Abbrev":"LA"},
"geometry":{ "type": "Point", "coordinates": [-90.625597,29.859217]}},
{ "type": "Feature", "properties": {"Name":"Krotz Springs town","State":"Louisiana","State_Abbrev":"LA"},
"geometry":{ "type": "Point", "coordinates": [-91.754876,30.5294]}},
{ "type": "Feature", "properties": {"Name":"Labadieville CDP","State":"Louisiana","State_Abbrev":"LA"},
"geometry":{ "type": "Point", "coordinates": [-90.952554,29.824616]}},
{ "type": "Feature", "properties": {"Name":"Lacassine CDP","State":"Louisiana","State_Abbrev":"LA"},
"geometry":{ "type": "Point", "coordinates": [-92.920831,30.233129]}},
{ "type": "Feature", "properties": {"Name":"Lacombe CDP","State":"Louisiana","State_Abbrev":"LA"},
"geometry":{ "type": "Point", "coordinates": [-89.930581,30.314145]}},
{ "type": "Feature", "properties": {"Name":"Lafayette city","State":"Louisiana","State_Abbrev":"LA"},
"geometry":{ "type": "Point", "coordinates": [-92.028058,30.2056]}},
{ "type": "Feature", "properties": {"Name":"Lafitte CDP","State":"Louisiana","State_Abbrev":"LA"},
"geometry":{ "type": "Point", "coordinates": [-90.096784,29.710879]}},
{ "type": "Feature", "properties": {"Name":"Lafourche Crossing CDP","State":"Louisiana","State_Abbrev":"LA"},
"geometry":{ "type": "Point", "coordinates": [-90.769686,29.767458]}},
{ "type": "Feature", "properties": {"Name":"Lake Arthur town","State":"Louisiana","State_Abbrev":"LA"},
"geometry":{ "type": "Point", "coordinates": [-92.67741,30.079967]}},
{ "type": "Feature", "properties": {"Name":"Lake Charles city","State":"Louisiana","State_Abbrev":"LA"},
"geometry":{ "type": "Point", "coordinates": [-93.210835,30.19902]}},
{ "type": "Feature", "properties": {"Name":"Lake Providence town","State":"Louisiana","State_Abbrev":"LA"},
"geometry":{ "type": "Point", "coordinates": [-91.175232,32.801973]}},
{ "type": "Feature", "properties": {"Name":"Lakeshore CDP","State":"Louisiana","State_Abbrev":"LA"},
"geometry":{ "type": "Point", "coordinates": [-92.033806,32.53487]}},
{ "type": "Feature", "properties": {"Name":"Lakeview CDP","State":"Louisiana","State_Abbrev":"LA"},
"geometry":{ "type": "Point", "coordinates": [-93.829755,32.523847]}},
{ "type": "Feature", "properties": {"Name":"Laplace CDP","State":"Louisiana","State_Abbrev":"LA"},
"geometry":{ "type": "Point", "coordinates": [-90.477008,30.072157]}},
{ "type": "Feature", "properties": {"Name":"Larose CDP","State":"Louisiana","State_Abbrev":"LA"},
"geometry":{ "type": "Point", "coordinates": [-90.376167,29.565196]}},
{ "type": "Feature", "properties": {"Name":"Lawtell CDP","State":"Louisiana","State_Abbrev":"LA"},
"geometry":{ "type": "Point", "coordinates": [-92.183207,30.512644]}},
{ "type": "Feature", "properties": {"Name":"Lecompte town","State":"Louisiana","State_Abbrev":"LA"},
"geometry":{ "type": "Point", "coordinates": [-92.39987,31.088156]}},
{ "type": "Feature", "properties": {"Name":"Leesville city","State":"Louisiana","State_Abbrev":"LA"},
"geometry":{ "type": "Point", "coordinates": [-93.28423,31.14112]}},
{ "type": "Feature", "properties": {"Name":"Lemannville CDP","State":"Louisiana","State_Abbrev":"LA"},
"geometry":{ "type": "Point", "coordinates": [-90.928409,30.100975]}},
{ "type": "Feature", "properties": {"Name":"Leonville town","State":"Louisiana","State_Abbrev":"LA"},
"geometry":{ "type": "Point", "coordinates": [-91.983452,30.461914]}},
{ "type": "Feature", "properties": {"Name":"Lewisburg CDP","State":"Louisiana","State_Abbrev":"LA"},
"geometry":{ "type": "Point", "coordinates": [-90.102032,30.367567]}},
{ "type": "Feature", "properties": {"Name":"Lillie village","State":"Louisiana","State_Abbrev":"LA"},
"geometry":{ "type": "Point", "coordinates": [-92.661297,32.920012]}},
{ "type": "Feature", "properties": {"Name":"Lisbon village","State":"Louisiana","State_Abbrev":"LA"},
"geometry":{ "type": "Point", "coordinates": [-92.867206,32.789367]}},
{ "type": "Feature", "properties": {"Name":"Livingston town","State":"Louisiana","State_Abbrev":"LA"},
"geometry":{ "type": "Point", "coordinates": [-90.746698,30.495289]}},
{ "type": "Feature", "properties": {"Name":"Livonia town","State":"Louisiana","State_Abbrev":"LA"},
"geometry":{ "type": "Point", "coordinates": [-91.550112,30.562248]}},
{ "type": "Feature", "properties": {"Name":"Lockport town","State":"Louisiana","State_Abbrev":"LA"},
"geometry":{ "type": "Point", "coordinates": [-90.531558,29.644075]}},
{ "type": "Feature", "properties": {"Name":"Lockport Heights CDP","State":"Louisiana","State_Abbrev":"LA"},
"geometry":{ "type": "Point", "coordinates": [-90.550607,29.658958]}},
{ "type": "Feature", "properties": {"Name":"Logansport town","State":"Louisiana","State_Abbrev":"LA"},
"geometry":{ "type": "Point", "coordinates": [-93.993363,31.975805]}},
{ "type": "Feature", "properties": {"Name":"Longstreet village","State":"Louisiana","State_Abbrev":"LA"},
"geometry":{ "type": "Point", "coordinates": [-93.949851,32.097976]}},
{ "type": "Feature", "properties": {"Name":"Longville CDP","State":"Louisiana","State_Abbrev":"LA"},
"geometry":{ "type": "Point", "coordinates": [-93.225046,30.610611]}},
{ "type": "Feature", "properties": {"Name":"Loreauville village","State":"Louisiana","State_Abbrev":"LA"},
"geometry":{ "type": "Point", "coordinates": [-91.738831,30.05885]}},
{ "type": "Feature", "properties": {"Name":"Lucky village","State":"Louisiana","State_Abbrev":"LA"},
"geometry":{ "type": "Point", "coordinates": [-93.013336,32.244082]}},
{ "type": "Feature", "properties": {"Name":"Luling CDP","State":"Louisiana","State_Abbrev":"LA"},
"geometry":{ "type": "Point", "coordinates": [-90.353161,29.898452]}},
{ "type": "Feature", "properties": {"Name":"Lutcher town","State":"Louisiana","State_Abbrev":"LA"},
"geometry":{ "type": "Point", "coordinates": [-90.711681,30.06305]}},
{ "type": "Feature", "properties": {"Name":"Lydia CDP","State":"Louisiana","State_Abbrev":"LA"},
"geometry":{ "type": "Point", "coordinates": [-91.781258,29.926286]}},
{ "type": "Feature", "properties": {"Name":"McNary village","State":"Louisiana","State_Abbrev":"LA"},
"geometry":{ "type": "Point", "coordinates": [-92.581458,30.990436]}},
{ "type": "Feature", "properties": {"Name":"Madisonville town","State":"Louisiana","State_Abbrev":"LA"},
"geometry":{ "type": "Point", "coordinates": [-90.166044,30.398489]}},
{ "type": "Feature", "properties": {"Name":"Mamou town","State":"Louisiana","State_Abbrev":"LA"},
"geometry":{ "type": "Point", "coordinates": [-92.417918,30.634871]}},
{ "type": "Feature", "properties": {"Name":"Mandeville city","State":"Louisiana","State_Abbrev":"LA"},
"geometry":{ "type": "Point", "coordinates": [-90.094517,30.377549]}},
{ "type": "Feature", "properties": {"Name":"Mangham town","State":"Louisiana","State_Abbrev":"LA"},
"geometry":{ "type": "Point", "coordinates": [-91.779435,32.309276]}},
{ "type": "Feature", "properties": {"Name":"Mansfield city","State":"Louisiana","State_Abbrev":"LA"},
"geometry":{ "type": "Point", "coordinates": [-93.699665,32.035341]}},
{ "type": "Feature", "properties": {"Name":"Mansura town","State":"Louisiana","State_Abbrev":"LA"},
"geometry":{ "type": "Point", "coordinates": [-92.052825,31.067324]}},
{ "type": "Feature", "properties": {"Name":"Many town","State":"Louisiana","State_Abbrev":"LA"},
"geometry":{ "type": "Point", "coordinates": [-93.477234,31.566074]}},
{ "type": "Feature", "properties": {"Name":"Maringouin town","State":"Louisiana","State_Abbrev":"LA"},
"geometry":{ "type": "Point", "coordinates": [-91.518562,30.490776]}},
{ "type": "Feature", "properties": {"Name":"Marion town","State":"Louisiana","State_Abbrev":"LA"},
"geometry":{ "type": "Point", "coordinates": [-92.240401,32.897914]}},
{ "type": "Feature", "properties": {"Name":"Marksville city","State":"Louisiana","State_Abbrev":"LA"},
"geometry":{ "type": "Point", "coordinates": [-92.065119,31.125431]}},
{ "type": "Feature", "properties": {"Name":"Marrero CDP","State":"Louisiana","State_Abbrev":"LA"},
"geometry":{ "type": "Point", "coordinates": [-90.113221,29.885726]}},
{ "type": "Feature", "properties": {"Name":"Marthaville CDP","State":"Louisiana","State_Abbrev":"LA"},
"geometry":{ "type": "Point", "coordinates": [-93.389964,31.737983]}},
{ "type": "Feature", "properties": {"Name":"Martin village","State":"Louisiana","State_Abbrev":"LA"},
"geometry":{ "type": "Point", "coordinates": [-93.219128,32.099862]}},
{ "type": "Feature", "properties": {"Name":"Mathews CDP","State":"Louisiana","State_Abbrev":"LA"},
"geometry":{ "type": "Point", "coordinates": [-90.5559,29.682154]}},
{ "type": "Feature", "properties": {"Name":"Maurice village","State":"Louisiana","State_Abbrev":"LA"},
"geometry":{ "type": "Point", "coordinates": [-92.12108,30.104115]}},
{ "type": "Feature", "properties": {"Name":"Melville town","State":"Louisiana","State_Abbrev":"LA"},
"geometry":{ "type": "Point", "coordinates": [-91.750508,30.691974]}},
{ "type": "Feature", "properties": {"Name":"Meraux CDP","State":"Louisiana","State_Abbrev":"LA"},
"geometry":{ "type": "Point", "coordinates": [-89.91921,29.927459]}},
{ "type": "Feature", "properties": {"Name":"Mermentau village","State":"Louisiana","State_Abbrev":"LA"},
"geometry":{ "type": "Point", "coordinates": [-92.58381,30.188007]}},
{ "type": "Feature", "properties": {"Name":"Mer Rouge village","State":"Louisiana","State_Abbrev":"LA"},
"geometry":{ "type": "Point", "coordinates": [-91.794367,32.776921]}},
{ "type": "Feature", "properties": {"Name":"Merrydale CDP","State":"Louisiana","State_Abbrev":"LA"},
"geometry":{ "type": "Point", "coordinates": [-91.108129,30.499807]}},
{ "type": "Feature", "properties": {"Name":"Merryville town","State":"Louisiana","State_Abbrev":"LA"},
"geometry":{ "type": "Point", "coordinates": [-93.525588,30.755974]}},
{ "type": "Feature", "properties": {"Name":"Metairie CDP","State":"Louisiana","State_Abbrev":"LA"},
"geometry":{ "type": "Point", "coordinates": [-90.177781,29.997837]}},
{ "type": "Feature", "properties": {"Name":"Midland CDP","State":"Louisiana","State_Abbrev":"LA"},
"geometry":{ "type": "Point", "coordinates": [-92.501474,30.180455]}},
{ "type": "Feature", "properties": {"Name":"Midway CDP","State":"Louisiana","State_Abbrev":"LA"},
"geometry":{ "type": "Point", "coordinates": [-92.146581,31.675565]}},
{ "type": "Feature", "properties": {"Name":"Milton CDP","State":"Louisiana","State_Abbrev":"LA"},
"geometry":{ "type": "Point", "coordinates": [-92.069079,30.11395]}},
{ "type": "Feature", "properties": {"Name":"Minden city","State":"Louisiana","State_Abbrev":"LA"},
"geometry":{ "type": "Point", "coordinates": [-93.272754,32.619146]}},
{ "type": "Feature", "properties": {"Name":"Minorca CDP","State":"Louisiana","State_Abbrev":"LA"},
"geometry":{ "type": "Point", "coordinates": [-91.490688,31.572989]}},
{ "type": "Feature", "properties": {"Name":"Monroe city","State":"Louisiana","State_Abbrev":"LA"},
"geometry":{ "type": "Point", "coordinates": [-92.07718,32.518986]}},
{ "type": "Feature", "properties": {"Name":"Montegut CDP","State":"Louisiana","State_Abbrev":"LA"},
"geometry":{ "type": "Point", "coordinates": [-90.560803,29.440619]}},
{ "type": "Feature", "properties": {"Name":"Monterey CDP","State":"Louisiana","State_Abbrev":"LA"},
"geometry":{ "type": "Point", "coordinates": [-91.718679,31.444332]}},
{ "type": "Feature", "properties": {"Name":"Montgomery town","State":"Louisiana","State_Abbrev":"LA"},
"geometry":{ "type": "Point", "coordinates": [-92.887108,31.667442]}},
{ "type": "Feature", "properties": {"Name":"Monticello CDP","State":"Louisiana","State_Abbrev":"LA"},
"geometry":{ "type": "Point", "coordinates": [-91.044734,30.488097]}},
{ "type": "Feature", "properties": {"Name":"Montpelier village","State":"Louisiana","State_Abbrev":"LA"},
"geometry":{ "type": "Point", "coordinates": [-90.656568,30.685207]}},
{ "type": "Feature", "properties": {"Name":"Montz CDP","State":"Louisiana","State_Abbrev":"LA"},
"geometry":{ "type": "Point", "coordinates": [-90.466079,30.016195]}},
{ "type": "Feature", "properties": {"Name":"Moonshine CDP","State":"Louisiana","State_Abbrev":"LA"},
"geometry":{ "type": "Point", "coordinates": [-90.813015,29.96495]}},
{ "type": "Feature", "properties": {"Name":"Mooringsport town","State":"Louisiana","State_Abbrev":"LA"},
"geometry":{ "type": "Point", "coordinates": [-93.960152,32.679359]}},
{ "type": "Feature", "properties": {"Name":"Moreauville village","State":"Louisiana","State_Abbrev":"LA"},
"geometry":{ "type": "Point", "coordinates": [-91.981714,31.034175]}},
{ "type": "Feature", "properties": {"Name":"Morgan City city","State":"Louisiana","State_Abbrev":"LA"},
"geometry":{ "type": "Point", "coordinates": [-91.191542,29.710332]}},
{ "type": "Feature", "properties": {"Name":"Morganza village","State":"Louisiana","State_Abbrev":"LA"},
"geometry":{ "type": "Point", "coordinates": [-91.591594,30.738125]}},
{ "type": "Feature", "properties": {"Name":"Morrow CDP","State":"Louisiana","State_Abbrev":"LA"},
"geometry":{ "type": "Point", "coordinates": [-92.082036,30.829385]}},
{ "type": "Feature", "properties": {"Name":"Morse village","State":"Louisiana","State_Abbrev":"LA"},
"geometry":{ "type": "Point", "coordinates": [-92.498435,30.122097]}},
{ "type": "Feature", "properties": {"Name":"Moss Bluff CDP","State":"Louisiana","State_Abbrev":"LA"},
"geometry":{ "type": "Point", "coordinates": [-93.207913,30.308838]}},
{ "type": "Feature", "properties": {"Name":"Mound village","State":"Louisiana","State_Abbrev":"LA"},
"geometry":{ "type": "Point", "coordinates": [-91.024535,32.331847]}},
{ "type": "Feature", "properties": {"Name":"Mount Lebanon town","State":"Louisiana","State_Abbrev":"LA"},
"geometry":{ "type": "Point", "coordinates": [-93.049923,32.505248]}},
{ "type": "Feature", "properties": {"Name":"Napoleonville village","State":"Louisiana","State_Abbrev":"LA"},
"geometry":{ "type": "Point", "coordinates": [-91.026361,29.938267]}},
{ "type": "Feature", "properties": {"Name":"Natalbany CDP","State":"Louisiana","State_Abbrev":"LA"},
"geometry":{ "type": "Point", "coordinates": [-90.487542,30.548924]}},
{ "type": "Feature", "properties": {"Name":"Natchez village","State":"Louisiana","State_Abbrev":"LA"},
"geometry":{ "type": "Point", "coordinates": [-93.045496,31.674069]}},
{ "type": "Feature", "properties": {"Name":"Natchitoches city","State":"Louisiana","State_Abbrev":"LA"},
"geometry":{ "type": "Point", "coordinates": [-93.100942,31.734775]}},
{ "type": "Feature", "properties": {"Name":"Newellton town","State":"Louisiana","State_Abbrev":"LA"},
"geometry":{ "type": "Point", "coordinates": [-91.239269,32.072601]}},
{ "type": "Feature", "properties": {"Name":"New Iberia city","State":"Louisiana","State_Abbrev":"LA"},
"geometry":{ "type": "Point", "coordinates": [-91.820307,30.005493]}},
{ "type": "Feature", "properties": {"Name":"New Llano town","State":"Louisiana","State_Abbrev":"LA"},
"geometry":{ "type": "Point", "coordinates": [-93.269609,31.105733]}},
{ "type": "Feature", "properties": {"Name":"New Orleans city","State":"Louisiana","State_Abbrev":"LA"},
"geometry":{ "type": "Point", "coordinates": [-89.934502,30.05342]}},
{ "type": "Feature", "properties": {"Name":"New Orleans Station CDP","State":"Louisiana","State_Abbrev":"LA"},
"geometry":{ "type": "Point", "coordinates": [-90.024987,29.827388]}},
{ "type": "Feature", "properties": {"Name":"New Roads city","State":"Louisiana","State_Abbrev":"LA"},
"geometry":{ "type": "Point", "coordinates": [-91.453794,30.695921]}},
{ "type": "Feature", "properties": {"Name":"New Sarpy CDP","State":"Louisiana","State_Abbrev":"LA"},
"geometry":{ "type": "Point", "coordinates": [-90.383165,29.980898]}},
{ "type": "Feature", "properties": {"Name":"Noble village","State":"Louisiana","State_Abbrev":"LA"},
"geometry":{ "type": "Point", "coordinates": [-93.683209,31.689902]}},
{ "type": "Feature", "properties": {"Name":"Norco CDP","State":"Louisiana","State_Abbrev":"LA"},
"geometry":{ "type": "Point", "coordinates": [-90.404535,29.998287]}},
{ "type": "Feature", "properties": {"Name":"North Hodge village","State":"Louisiana","State_Abbrev":"LA"},
"geometry":{ "type": "Point", "coordinates": [-92.718413,32.282505]}},
{ "type": "Feature", "properties": {"Name":"North Vacherie CDP","State":"Louisiana","State_Abbrev":"LA"},
"geometry":{ "type": "Point", "coordinates": [-90.711935,30.007471]}},
{ "type": "Feature", "properties": {"Name":"Norwood village","State":"Louisiana","State_Abbrev":"LA"},
"geometry":{ "type": "Point", "coordinates": [-91.110346,30.973378]}},
{ "type": "Feature", "properties": {"Name":"Oakdale city","State":"Louisiana","State_Abbrev":"LA"},
"geometry":{ "type": "Point", "coordinates": [-92.655855,30.816418]}},
{ "type": "Feature", "properties": {"Name":"Oak Grove town","State":"Louisiana","State_Abbrev":"LA"},
"geometry":{ "type": "Point", "coordinates": [-91.391173,32.862421]}},
{ "type": "Feature", "properties": {"Name":"Oak Hills Place CDP","State":"Louisiana","State_Abbrev":"LA"},
"geometry":{ "type": "Point", "coordinates": [-91.087723,30.370683]}},
{ "type": "Feature", "properties": {"Name":"Oak Ridge village","State":"Louisiana","State_Abbrev":"LA"},
"geometry":{ "type": "Point", "coordinates": [-91.773125,32.624353]}},
{ "type": "Feature", "properties": {"Name":"Oberlin town","State":"Louisiana","State_Abbrev":"LA"},
"geometry":{ "type": "Point", "coordinates": [-92.774982,30.608097]}},
{ "type": "Feature", "properties": {"Name":"Oil City town","State":"Louisiana","State_Abbrev":"LA"},
"geometry":{ "type": "Point", "coordinates": [-93.975098,32.745752]}},
{ "type": "Feature", "properties": {"Name":"Old Jefferson CDP","State":"Louisiana","State_Abbrev":"LA"},
"geometry":{ "type": "Point", "coordinates": [-91.006,30.377548]}},
{ "type": "Feature", "properties": {"Name":"Olla town","State":"Louisiana","State_Abbrev":"LA"},
"geometry":{ "type": "Point", "coordinates": [-92.240406,31.898075]}},
{ "type": "Feature", "properties": {"Name":"Opelousas city","State":"Louisiana","State_Abbrev":"LA"},
"geometry":{ "type": "Point", "coordinates": [-92.081654,30.524897]}},
{ "type": "Feature", "properties": {"Name":"Oretta CDP","State":"Louisiana","State_Abbrev":"LA"},
"geometry":{ "type": "Point", "coordinates": [-93.439092,30.528934]}},
{ "type": "Feature", "properties": {"Name":"Ossun CDP","State":"Louisiana","State_Abbrev":"LA"},
"geometry":{ "type": "Point", "coordinates": [-92.107027,30.283394]}},
{ "type": "Feature", "properties": {"Name":"Paincourtville CDP","State":"Louisiana","State_Abbrev":"LA"},
"geometry":{ "type": "Point", "coordinates": [-91.055436,29.988584]}},
{ "type": "Feature", "properties": {"Name":"Palmetto village","State":"Louisiana","State_Abbrev":"LA"},
"geometry":{ "type": "Point", "coordinates": [-91.909118,30.717738]}},
{ "type": "Feature", "properties": {"Name":"Paradis CDP","State":"Louisiana","State_Abbrev":"LA"},
"geometry":{ "type": "Point", "coordinates": [-90.439998,29.866462]}},
{ "type": "Feature", "properties": {"Name":"Parks village","State":"Louisiana","State_Abbrev":"LA"},
"geometry":{ "type": "Point", "coordinates": [-91.827593,30.217809]}},
{ "type": "Feature", "properties": {"Name":"Patterson city","State":"Louisiana","State_Abbrev":"LA"},
"geometry":{ "type": "Point", "coordinates": [-91.309533,29.690891]}},
{ "type": "Feature", "properties": {"Name":"Paulina CDP","State":"Louisiana","State_Abbrev":"LA"},
"geometry":{ "type": "Point", "coordinates": [-90.722028,30.036972]}},
{ "type": "Feature", "properties": {"Name":"Pearl River town","State":"Louisiana","State_Abbrev":"LA"},
"geometry":{ "type": "Point", "coordinates": [-89.750359,30.371353]}},
{ "type": "Feature", "properties": {"Name":"Perry CDP","State":"Louisiana","State_Abbrev":"LA"},
"geometry":{ "type": "Point", "coordinates": [-92.152919,29.953208]}},
{ "type": "Feature", "properties": {"Name":"Pierre Part CDP","State":"Louisiana","State_Abbrev":"LA"},
"geometry":{ "type": "Point", "coordinates": [-91.202843,29.955356]}},
{ "type": "Feature", "properties": {"Name":"Pine Prairie village","State":"Louisiana","State_Abbrev":"LA"},
"geometry":{ "type": "Point", "coordinates": [-92.421989,30.782025]}},
{ "type": "Feature", "properties": {"Name":"Pineville city","State":"Louisiana","State_Abbrev":"LA"},
"geometry":{ "type": "Point", "coordinates": [-92.40893,31.342926]}},
{ "type": "Feature", "properties": {"Name":"Pioneer village","State":"Louisiana","State_Abbrev":"LA"},
"geometry":{ "type": "Point", "coordinates": [-91.438129,32.738099]}},
{ "type": "Feature", "properties": {"Name":"Pitkin CDP","State":"Louisiana","State_Abbrev":"LA"},
"geometry":{ "type": "Point", "coordinates": [-92.930018,30.93636]}},
{ "type": "Feature", "properties": {"Name":"Plain Dealing town","State":"Louisiana","State_Abbrev":"LA"},
"geometry":{ "type": "Point", "coordinates": [-93.699237,32.907025]}},
{ "type": "Feature", "properties": {"Name":"Plaquemine city","State":"Louisiana","State_Abbrev":"LA"},
"geometry":{ "type": "Point", "coordinates": [-91.243812,30.283156]}},
{ "type": "Feature", "properties": {"Name":"Plaucheville village","State":"Louisiana","State_Abbrev":"LA"},
"geometry":{ "type": "Point", "coordinates": [-91.983655,30.964692]}},
{ "type": "Feature", "properties": {"Name":"Pleasant Hill village","State":"Louisiana","State_Abbrev":"LA"},
"geometry":{ "type": "Point", "coordinates": [-93.5164,31.815363]}},
{ "type": "Feature", "properties": {"Name":"Pleasure Bend CDP","State":"Louisiana","State_Abbrev":"LA"},
"geometry":{ "type": "Point", "coordinates": [-90.641206,29.922091]}},
{ "type": "Feature", "properties": {"Name":"Pointe a la Hache CDP","State":"Louisiana","State_Abbrev":"LA"},
"geometry":{ "type": "Point", "coordinates": [-89.780848,29.573756]}},
{ "type": "Feature", "properties": {"Name":"Point Place CDP","State":"Louisiana","State_Abbrev":"LA"},
"geometry":{ "type": "Point", "coordinates": [-93.024981,31.68758]}},
{ "type": "Feature", "properties": {"Name":"Pollock town","State":"Louisiana","State_Abbrev":"LA"},
"geometry":{ "type": "Point", "coordinates": [-92.441289,31.494069]}},
{ "type": "Feature", "properties": {"Name":"Ponchatoula city","State":"Louisiana","State_Abbrev":"LA"},
"geometry":{ "type": "Point", "coordinates": [-90.442791,30.440598]}},
{ "type": "Feature", "properties": {"Name":"Port Allen city","State":"Louisiana","State_Abbrev":"LA"},
"geometry":{ "type": "Point", "coordinates": [-91.20741,30.443835]}},
{ "type": "Feature", "properties": {"Name":"Port Barre town","State":"Louisiana","State_Abbrev":"LA"},
"geometry":{ "type": "Point", "coordinates": [-91.955962,30.555523]}},
{ "type": "Feature", "properties": {"Name":"Port Sulphur CDP","State":"Louisiana","State_Abbrev":"LA"},
"geometry":{ "type": "Point", "coordinates": [-89.721978,29.504507]}},
{ "type": "Feature", "properties": {"Name":"Port Vincent village","State":"Louisiana","State_Abbrev":"LA"},
"geometry":{ "type": "Point", "coordinates": [-90.843602,30.336352]}},
{ "type": "Feature", "properties": {"Name":"Powhatan village","State":"Louisiana","State_Abbrev":"LA"},
"geometry":{ "type": "Point", "coordinates": [-93.203239,31.873775]}},
{ "type": "Feature", "properties": {"Name":"Poydras CDP","State":"Louisiana","State_Abbrev":"LA"},
"geometry":{ "type": "Point", "coordinates": [-89.887271,29.859573]}},
{ "type": "Feature", "properties": {"Name":"Prairieville CDP","State":"Louisiana","State_Abbrev":"LA"},
"geometry":{ "type": "Point", "coordinates": [-90.958112,30.313529]}},
{ "type": "Feature", "properties": {"Name":"Presquille CDP","State":"Louisiana","State_Abbrev":"LA"},
"geometry":{ "type": "Point", "coordinates": [-90.638566,29.558619]}},
{ "type": "Feature", "properties": {"Name":"Prien CDP","State":"Louisiana","State_Abbrev":"LA"},
"geometry":{ "type": "Point", "coordinates": [-93.274152,30.15104]}},
{ "type": "Feature", "properties": {"Name":"Prospect CDP","State":"Louisiana","State_Abbrev":"LA"},
"geometry":{ "type": "Point", "coordinates": [-92.496403,31.446402]}},
{ "type": "Feature", "properties": {"Name":"Provencal village","State":"Louisiana","State_Abbrev":"LA"},
"geometry":{ "type": "Point", "coordinates": [-93.200118,31.654738]}},
{ "type": "Feature", "properties": {"Name":"Quitman village","State":"Louisiana","State_Abbrev":"LA"},
"geometry":{ "type": "Point", "coordinates": [-92.72347,32.353094]}},
{ "type": "Feature", "properties": {"Name":"Raceland CDP","State":"Louisiana","State_Abbrev":"LA"},
"geometry":{ "type": "Point", "coordinates": [-90.629751,29.723489]}},
{ "type": "Feature", "properties": {"Name":"Rayne city","State":"Louisiana","State_Abbrev":"LA"},
"geometry":{ "type": "Point", "coordinates": [-92.267335,30.240513]}},
{ "type": "Feature", "properties": {"Name":"Rayville town","State":"Louisiana","State_Abbrev":"LA"},
"geometry":{ "type": "Point", "coordinates": [-91.757449,32.470982]}},
{ "type": "Feature", "properties": {"Name":"Red Chute CDP","State":"Louisiana","State_Abbrev":"LA"},
"geometry":{ "type": "Point", "coordinates": [-93.613073,32.570318]}},
{ "type": "Feature", "properties": {"Name":"Reddell CDP","State":"Louisiana","State_Abbrev":"LA"},
"geometry":{ "type": "Point", "coordinates": [-92.426825,30.668747]}},
{ "type": "Feature", "properties": {"Name":"Reeves village","State":"Louisiana","State_Abbrev":"LA"},
"geometry":{ "type": "Point", "coordinates": [-93.036234,30.521695]}},
{ "type": "Feature", "properties": {"Name":"Reserve CDP","State":"Louisiana","State_Abbrev":"LA"},
"geometry":{ "type": "Point", "coordinates": [-90.555022,30.072962]}},
{ "type": "Feature", "properties": {"Name":"Richmond village","State":"Louisiana","State_Abbrev":"LA"},
"geometry":{ "type": "Point", "coordinates": [-91.180409,32.388372]}},
{ "type": "Feature", "properties": {"Name":"Richwood town","State":"Louisiana","State_Abbrev":"LA"},
"geometry":{ "type": "Point", "coordinates": [-92.07732,32.448648]}},
{ "type": "Feature", "properties": {"Name":"Ridgecrest town","State":"Louisiana","State_Abbrev":"LA"},
"geometry":{ "type": "Point", "coordinates": [-91.530421,31.601805]}},
{ "type": "Feature", "properties": {"Name":"Ringgold town","State":"Louisiana","State_Abbrev":"LA"},
"geometry":{ "type": "Point", "coordinates": [-93.283599,32.326545]}},
{ "type": "Feature", "properties": {"Name":"Rio CDP","State":"Louisiana","State_Abbrev":"LA"},
"geometry":{ "type": "Point", "coordinates": [-89.889641,30.691387]}},
{ "type": "Feature", "properties": {"Name":"River Ridge CDP","State":"Louisiana","State_Abbrev":"LA"},
"geometry":{ "type": "Point", "coordinates": [-90.222046,29.95861]}},
{ "type": "Feature", "properties": {"Name":"Roanoke CDP","State":"Louisiana","State_Abbrev":"LA"},
"geometry":{ "type": "Point", "coordinates": [-92.748141,30.235526]}},
{ "type": "Feature", "properties": {"Name":"Robeline village","State":"Louisiana","State_Abbrev":"LA"},
"geometry":{ "type": "Point", "coordinates": [-93.303937,31.689825]}},
{ "type": "Feature", "properties": {"Name":"Rock Hill CDP","State":"Louisiana","State_Abbrev":"LA"},
"geometry":{ "type": "Point", "coordinates": [-92.575935,31.43903]}},
{ "type": "Feature", "properties": {"Name":"Rodessa village","State":"Louisiana","State_Abbrev":"LA"},
"geometry":{ "type": "Point", "coordinates": [-93.997163,32.973605]}},
{ "type": "Feature", "properties": {"Name":"Romeville CDP","State":"Louisiana","State_Abbrev":"LA"},
"geometry":{ "type": "Point", "coordinates": [-90.827406,30.068681]}},
{ "type": "Feature", "properties": {"Name":"Rosedale village","State":"Louisiana","State_Abbrev":"LA"},
"geometry":{ "type": "Point", "coordinates": [-91.460114,30.4429]}},
{ "type": "Feature", "properties": {"Name":"Roseland town","State":"Louisiana","State_Abbrev":"LA"},
"geometry":{ "type": "Point", "coordinates": [-90.5106,30.763881]}},
{ "type": "Feature", "properties": {"Name":"Rosepine town","State":"Louisiana","State_Abbrev":"LA"},
"geometry":{ "type": "Point", "coordinates": [-93.288479,30.924461]}},
{ "type": "Feature", "properties": {"Name":"Ruston city","State":"Louisiana","State_Abbrev":"LA"},
"geometry":{ "type": "Point", "coordinates": [-92.635327,32.532986]}},
{ "type": "Feature", "properties": {"Name":"St. Francisville town","State":"Louisiana","State_Abbrev":"LA"},
"geometry":{ "type": "Point", "coordinates": [-91.376417,30.784234]}},
{ "type": "Feature", "properties": {"Name":"St. Gabriel city","State":"Louisiana","State_Abbrev":"LA"},
"geometry":{ "type": "Point", "coordinates": [-91.100363,30.255202]}},
{ "type": "Feature", "properties": {"Name":"St. James CDP","State":"Louisiana","State_Abbrev":"LA"},
"geometry":{ "type": "Point", "coordinates": [-90.850881,30.018643]}},
{ "type": "Feature", "properties": {"Name":"St. Joseph town","State":"Louisiana","State_Abbrev":"LA"},
"geometry":{ "type": "Point", "coordinates": [-91.24004,31.920284]}},
{ "type": "Feature", "properties": {"Name":"St. Martinville city","State":"Louisiana","State_Abbrev":"LA"},
"geometry":{ "type": "Point", "coordinates": [-91.831118,30.127002]}},
{ "type": "Feature", "properties": {"Name":"St. Maurice CDP","State":"Louisiana","State_Abbrev":"LA"},
"geometry":{ "type": "Point", "coordinates": [-92.938907,31.761274]}},
{ "type": "Feature", "properties": {"Name":"St. Rose CDP","State":"Louisiana","State_Abbrev":"LA"},
"geometry":{ "type": "Point", "coordinates": [-90.307893,29.963475]}},
{ "type": "Feature", "properties": {"Name":"Saline village","State":"Louisiana","State_Abbrev":"LA"},
"geometry":{ "type": "Point", "coordinates": [-92.976778,32.163124]}},
{ "type": "Feature", "properties": {"Name":"Sarepta town","State":"Louisiana","State_Abbrev":"LA"},
"geometry":{ "type": "Point", "coordinates": [-93.451462,32.895017]}},
{ "type": "Feature", "properties": {"Name":"Schriever CDP","State":"Louisiana","State_Abbrev":"LA"},
"geometry":{ "type": "Point", "coordinates": [-90.835398,29.728672]}},
{ "type": "Feature", "properties": {"Name":"Scott city","State":"Louisiana","State_Abbrev":"LA"},
"geometry":{ "type": "Point", "coordinates": [-92.094826,30.23982]}},
{ "type": "Feature", "properties": {"Name":"Shenandoah CDP","State":"Louisiana","State_Abbrev":"LA"},
"geometry":{ "type": "Point", "coordinates": [-91.003741,30.402581]}},
{ "type": "Feature", "properties": {"Name":"Shongaloo village","State":"Louisiana","State_Abbrev":"LA"},
"geometry":{ "type": "Point", "coordinates": [-93.293215,32.9403]}},
{ "type": "Feature", "properties": {"Name":"Shreveport city","State":"Louisiana","State_Abbrev":"LA"},
"geometry":{ "type": "Point", "coordinates": [-93.792193,32.466879]}},
{ "type": "Feature", "properties": {"Name":"Sibley town","State":"Louisiana","State_Abbrev":"LA"},
"geometry":{ "type": "Point", "coordinates": [-93.293939,32.542462]}},
{ "type": "Feature", "properties": {"Name":"Sicily Island village","State":"Louisiana","State_Abbrev":"LA"},
"geometry":{ "type": "Point", "coordinates": [-91.659358,31.848832]}},
{ "type": "Feature", "properties": {"Name":"Sikes village","State":"Louisiana","State_Abbrev":"LA"},
"geometry":{ "type": "Point", "coordinates": [-92.48627,32.078981]}},
{ "type": "Feature", "properties": {"Name":"Simmesport town","State":"Louisiana","State_Abbrev":"LA"},
"geometry":{ "type": "Point", "coordinates": [-91.814269,30.980959]}},
{ "type": "Feature", "properties": {"Name":"Simpson village","State":"Louisiana","State_Abbrev":"LA"},
"geometry":{ "type": "Point", "coordinates": [-93.016124,31.264633]}},
{ "type": "Feature", "properties": {"Name":"Simsboro village","State":"Louisiana","State_Abbrev":"LA"},
"geometry":{ "type": "Point", "coordinates": [-92.783913,32.532325]}},
{ "type": "Feature", "properties": {"Name":"Singer CDP","State":"Louisiana","State_Abbrev":"LA"},
"geometry":{ "type": "Point", "coordinates": [-93.41172,30.651199]}},
{ "type": "Feature", "properties": {"Name":"Siracusaville CDP","State":"Louisiana","State_Abbrev":"LA"},
"geometry":{ "type": "Point", "coordinates": [-91.151052,29.688022]}},
{ "type": "Feature", "properties": {"Name":"Slaughter town","State":"Louisiana","State_Abbrev":"LA"},
"geometry":{ "type": "Point", "coordinates": [-91.136122,30.727639]}},
{ "type": "Feature", "properties": {"Name":"Slidell city","State":"Louisiana","State_Abbrev":"LA"},
"geometry":{ "type": "Point", "coordinates": [-89.783293,30.290421]}},
{ "type": "Feature", "properties": {"Name":"Sorrel CDP","State":"Louisiana","State_Abbrev":"LA"},
"geometry":{ "type": "Point", "coordinates": [-91.626585,29.888402]}},
{ "type": "Feature", "properties": {"Name":"Sorrento town","State":"Louisiana","State_Abbrev":"LA"},
"geometry":{ "type": "Point", "coordinates": [-90.866567,30.183623]}},
{ "type": "Feature", "properties": {"Name":"South Mansfield village","State":"Louisiana","State_Abbrev":"LA"},
"geometry":{ "type": "Point", "coordinates": [-93.718039,32.017057]}},
{ "type": "Feature", "properties": {"Name":"South Vacherie CDP","State":"Louisiana","State_Abbrev":"LA"},
"geometry":{ "type": "Point", "coordinates": [-90.687698,29.940238]}},
{ "type": "Feature", "properties": {"Name":"Spearsville village","State":"Louisiana","State_Abbrev":"LA"},
"geometry":{ "type": "Point", "coordinates": [-92.600113,32.93201]}},
{ "type": "Feature", "properties": {"Name":"Spokane CDP","State":"Louisiana","State_Abbrev":"LA"},
"geometry":{ "type": "Point", "coordinates": [-91.460529,31.704064]}},
{ "type": "Feature", "properties": {"Name":"Springfield town","State":"Louisiana","State_Abbrev":"LA"},
"geometry":{ "type": "Point", "coordinates": [-90.544414,30.425552]}},
{ "type": "Feature", "properties": {"Name":"Springhill city","State":"Louisiana","State_Abbrev":"LA"},
"geometry":{ "type": "Point", "coordinates": [-93.461511,33.001934]}},
{ "type": "Feature", "properties": {"Name":"Stanley village","State":"Louisiana","State_Abbrev":"LA"},
"geometry":{ "type": "Point", "coordinates": [-93.904775,31.956654]}},
{ "type": "Feature", "properties": {"Name":"Starks CDP","State":"Louisiana","State_Abbrev":"LA"},
"geometry":{ "type": "Point", "coordinates": [-93.666698,30.310462]}},
{ "type": "Feature", "properties": {"Name":"Start CDP","State":"Louisiana","State_Abbrev":"LA"},
"geometry":{ "type": "Point", "coordinates": [-91.867816,32.491661]}},
{ "type": "Feature", "properties": {"Name":"Sterlington town","State":"Louisiana","State_Abbrev":"LA"},
"geometry":{ "type": "Point", "coordinates": [-92.060339,32.688888]}},
{ "type": "Feature", "properties": {"Name":"Stonewall town","State":"Louisiana","State_Abbrev":"LA"},
"geometry":{ "type": "Point", "coordinates": [-93.807388,32.271272]}},
{ "type": "Feature", "properties": {"Name":"Sugartown CDP","State":"Louisiana","State_Abbrev":"LA"},
"geometry":{ "type": "Point", "coordinates": [-93.009971,30.842303]}},
{ "type": "Feature", "properties": {"Name":"Sulphur city","State":"Louisiana","State_Abbrev":"LA"},
"geometry":{ "type": "Point", "coordinates": [-93.356343,30.229792]}},
{ "type": "Feature", "properties": {"Name":"Sun village","State":"Louisiana","State_Abbrev":"LA"},
"geometry":{ "type": "Point", "coordinates": [-89.910499,30.652478]}},
{ "type": "Feature", "properties": {"Name":"Sunset town","State":"Louisiana","State_Abbrev":"LA"},
"geometry":{ "type": "Point", "coordinates": [-92.062366,30.405875]}},
{ "type": "Feature", "properties": {"Name":"Supreme CDP","State":"Louisiana","State_Abbrev":"LA"},
"geometry":{ "type": "Point", "coordinates": [-90.992667,29.861876]}},
{ "type": "Feature", "properties": {"Name":"Swartz CDP","State":"Louisiana","State_Abbrev":"LA"},
"geometry":{ "type": "Point", "coordinates": [-91.986889,32.580871]}},
{ "type": "Feature", "properties": {"Name":"Taft CDP","State":"Louisiana","State_Abbrev":"LA"},
"geometry":{ "type": "Point", "coordinates": [-90.452429,29.985128]}},
{ "type": "Feature", "properties": {"Name":"Tallulah city","State":"Louisiana","State_Abbrev":"LA"},
"geometry":{ "type": "Point", "coordinates": [-91.1917,32.406696]}},
{ "type": "Feature", "properties": {"Name":"Tangipahoa village","State":"Louisiana","State_Abbrev":"LA"},
"geometry":{ "type": "Point", "coordinates": [-90.51384,30.875781]}},
{ "type": "Feature", "properties": {"Name":"Terrytown CDP","State":"Louisiana","State_Abbrev":"LA"},
"geometry":{ "type": "Point", "coordinates": [-90.028139,29.902462]}},
{ "type": "Feature", "properties": {"Name":"Thibodaux city","State":"Louisiana","State_Abbrev":"LA"},
"geometry":{ "type": "Point", "coordinates": [-90.814578,29.794874]}},
{ "type": "Feature", "properties": {"Name":"Tickfaw village","State":"Louisiana","State_Abbrev":"LA"},
"geometry":{ "type": "Point", "coordinates": [-90.487126,30.576939]}},
{ "type": "Feature", "properties": {"Name":"Timberlane CDP","State":"Louisiana","State_Abbrev":"LA"},
"geometry":{ "type": "Point", "coordinates": [-90.029193,29.876985]}},
{ "type": "Feature", "properties": {"Name":"Triumph CDP","State":"Louisiana","State_Abbrev":"LA"},
"geometry":{ "type": "Point", "coordinates": [-89.48155,29.339544]}},
{ "type": "Feature", "properties": {"Name":"Trout CDP","State":"Louisiana","State_Abbrev":"LA"},
"geometry":{ "type": "Point", "coordinates": [-92.179709,31.696724]}},
{ "type": "Feature", "properties": {"Name":"Tullos town","State":"Louisiana","State_Abbrev":"LA"},
"geometry":{ "type": "Point", "coordinates": [-92.326714,31.81735]}},
{ "type": "Feature", "properties": {"Name":"Turkey Creek village","State":"Louisiana","State_Abbrev":"LA"},
"geometry":{ "type": "Point", "coordinates": [-92.416982,30.873238]}},
{ "type": "Feature", "properties": {"Name":"Union CDP","State":"Louisiana","State_Abbrev":"LA"},
"geometry":{ "type": "Point", "coordinates": [-90.888951,30.086131]}},
{ "type": "Feature", "properties": {"Name":"Urania town","State":"Louisiana","State_Abbrev":"LA"},
"geometry":{ "type": "Point", "coordinates": [-92.290978,31.863388]}},
{ "type": "Feature", "properties": {"Name":"Varnado village","State":"Louisiana","State_Abbrev":"LA"},
"geometry":{ "type": "Point", "coordinates": [-89.831865,30.895301]}},
{ "type": "Feature", "properties": {"Name":"Venice CDP","State":"Louisiana","State_Abbrev":"LA"},
"geometry":{ "type": "Point", "coordinates": [-89.364396,29.287639]}},
{ "type": "Feature", "properties": {"Name":"Ventress CDP","State":"Louisiana","State_Abbrev":"LA"},
"geometry":{ "type": "Point", "coordinates": [-91.430525,30.678922]}},
{ "type": "Feature", "properties": {"Name":"Vidalia town","State":"Louisiana","State_Abbrev":"LA"},
"geometry":{ "type": "Point", "coordinates": [-91.440444,31.566751]}},
{ "type": "Feature", "properties": {"Name":"Vienna town","State":"Louisiana","State_Abbrev":"LA"},
"geometry":{ "type": "Point", "coordinates": [-92.64806,32.609177]}},
{ "type": "Feature", "properties": {"Name":"Vienna Bend CDP","State":"Louisiana","State_Abbrev":"LA"},
"geometry":{ "type": "Point", "coordinates": [-93.034627,31.739651]}},
{ "type": "Feature", "properties": {"Name":"Village St. George CDP","State":"Louisiana","State_Abbrev":"LA"},
"geometry":{ "type": "Point", "coordinates": [-91.067205,30.359799]}},
{ "type": "Feature", "properties": {"Name":"Ville Platte city","State":"Louisiana","State_Abbrev":"LA"},
"geometry":{ "type": "Point", "coordinates": [-92.274165,30.689858]}},
{ "type": "Feature", "properties": {"Name":"Vinton town","State":"Louisiana","State_Abbrev":"LA"},
"geometry":{ "type": "Point", "coordinates": [-93.582246,30.195435]}},
{ "type": "Feature", "properties": {"Name":"Violet CDP","State":"Louisiana","State_Abbrev":"LA"},
"geometry":{ "type": "Point", "coordinates": [-89.892881,29.896744]}},
{ "type": "Feature", "properties": {"Name":"Vivian town","State":"Louisiana","State_Abbrev":"LA"},
"geometry":{ "type": "Point", "coordinates": [-93.986249,32.871072]}},
{ "type": "Feature", "properties": {"Name":"Waggaman CDP","State":"Louisiana","State_Abbrev":"LA"},
"geometry":{ "type": "Point", "coordinates": [-90.231218,29.937754]}},
{ "type": "Feature", "properties": {"Name":"Walker town","State":"Louisiana","State_Abbrev":"LA"},
"geometry":{ "type": "Point", "coordinates": [-90.865623,30.486375]}},
{ "type": "Feature", "properties": {"Name":"Wallace CDP","State":"Louisiana","State_Abbrev":"LA"},
"geometry":{ "type": "Point", "coordinates": [-90.658997,30.024587]}},
{ "type": "Feature", "properties": {"Name":"Wallace Ridge CDP","State":"Louisiana","State_Abbrev":"LA"},
"geometry":{ "type": "Point", "coordinates": [-91.828708,31.68406]}},
{ "type": "Feature", "properties": {"Name":"Washington town","State":"Louisiana","State_Abbrev":"LA"},
"geometry":{ "type": "Point", "coordinates": [-92.059866,30.615559]}},
{ "type": "Feature", "properties": {"Name":"Waterproof town","State":"Louisiana","State_Abbrev":"LA"},
"geometry":{ "type": "Point", "coordinates": [-91.386146,31.807159]}},
{ "type": "Feature", "properties": {"Name":"Watson CDP","State":"Louisiana","State_Abbrev":"LA"},
"geometry":{ "type": "Point", "coordinates": [-90.950797,30.5749]}},
{ "type": "Feature", "properties": {"Name":"Welcome CDP","State":"Louisiana","State_Abbrev":"LA"},
"geometry":{ "type": "Point", "coordinates": [-90.883526,30.044277]}},
{ "type": "Feature", "properties": {"Name":"Welsh town","State":"Louisiana","State_Abbrev":"LA"},
"geometry":{ "type": "Point", "coordinates": [-92.812387,30.235589]}},
{ "type": "Feature", "properties": {"Name":"Westlake city","State":"Louisiana","State_Abbrev":"LA"},
"geometry":{ "type": "Point", "coordinates": [-93.263512,30.260996]}},
{ "type": "Feature", "properties": {"Name":"Westminster CDP","State":"Louisiana","State_Abbrev":"LA"},
"geometry":{ "type": "Point", "coordinates": [-91.089997,30.407648]}},
{ "type": "Feature", "properties": {"Name":"West Monroe city","State":"Louisiana","State_Abbrev":"LA"},
"geometry":{ "type": "Point", "coordinates": [-92.15107,32.51234]}},
{ "type": "Feature", "properties": {"Name":"Westwego city","State":"Louisiana","State_Abbrev":"LA"},
"geometry":{ "type": "Point", "coordinates": [-90.143545,29.905363]}},
{ "type": "Feature", "properties": {"Name":"White Castle town","State":"Louisiana","State_Abbrev":"LA"},
"geometry":{ "type": "Point", "coordinates": [-91.148535,30.161694]}},
{ "type": "Feature", "properties": {"Name":"Wilson village","State":"Louisiana","State_Abbrev":"LA"},
"geometry":{ "type": "Point", "coordinates": [-91.105287,30.925561]}},
{ "type": "Feature", "properties": {"Name":"Winnfield city","State":"Louisiana","State_Abbrev":"LA"},
"geometry":{ "type": "Point", "coordinates": [-92.642475,31.923969]}},
{ "type": "Feature", "properties": {"Name":"Winnsboro city","State":"Louisiana","State_Abbrev":"LA"},
"geometry":{ "type": "Point", "coordinates": [-91.720647,32.16469]}},
{ "type": "Feature", "properties": {"Name":"Wisner town","State":"Louisiana","State_Abbrev":"LA"},
"geometry":{ "type": "Point", "coordinates": [-91.65509,31.980428]}},
{ "type": "Feature", "properties": {"Name":"Woodmere CDP","State":"Louisiana","State_Abbrev":"LA"},
"geometry":{ "type": "Point", "coordinates": [-90.077427,29.838725]}},
{ "type": "Feature", "properties": {"Name":"Woodworth town","State":"Louisiana","State_Abbrev":"LA"},
"geometry":{ "type": "Point", "coordinates": [-92.520418,31.173893]}},
{ "type": "Feature", "properties": {"Name":"Youngsville city","State":"Louisiana","State_Abbrev":"LA"},
"geometry":{ "type": "Point", "coordinates": [-91.996506,30.095751]}},
{ "type": "Feature", "properties": {"Name":"Zachary city","State":"Louisiana","State_Abbrev":"LA"},
"geometry":{ "type": "Point", "coordinates": [-91.165778,30.664377]}},
{ "type": "Feature", "properties": {"Name":"Zwolle town","State":"Louisiana","State_Abbrev":"LA"},
"geometry":{ "type": "Point", "coordinates": [-93.641138,31.639433]}}]}
