{"type":"FeatureCollection","features":[
{ "type": "Feature", "properties": {"Name":"Alfred CDP","State":"Maine","State_Abbrev":"ME"},
"geometry":{ "type": "Point", "coordinates": [-70.727091,43.478568]}},
{ "type": "Feature", "properties": {"Name":"Anson CDP","State":"Maine","State_Abbrev":"ME"},
"geometry":{ "type": "Point", "coordinates": [-69.900241,44.796732]}},
{ "type": "Feature", "properties": {"Name":"Ashland CDP","State":"Maine","State_Abbrev":"ME"},
"geometry":{ "type": "Point", "coordinates": [-68.392826,46.616868]}},
{ "type": "Feature", "properties": {"Name":"Auburn city","State":"Maine","State_Abbrev":"ME"},
"geometry":{ "type": "Point", "coordinates": [-70.249649,44.084537]}},
{ "type": "Feature", "properties": {"Name":"Augusta city","State":"Maine","State_Abbrev":"ME"},
"geometry":{ "type": "Point", "coordinates": [-69.734199,44.334904]}},
{ "type": "Feature", "properties": {"Name":"Bangor city","State":"Maine","State_Abbrev":"ME"},
"geometry":{ "type": "Point", "coordinates": [-68.788767,44.829625]}},
{ "type": "Feature", "properties": {"Name":"Bar Harbor CDP","State":"Maine","State_Abbrev":"ME"},
"geometry":{ "type": "Point", "coordinates": [-68.211131,44.381307]}},
{ "type": "Feature", "properties": {"Name":"Bath city","State":"Maine","State_Abbrev":"ME"},
"geometry":{ "type": "Point", "coordinates": [-69.847186,43.93253]}},
{ "type": "Feature", "properties": {"Name":"Belfast city","State":"Maine","State_Abbrev":"ME"},
"geometry":{ "type": "Point", "coordinates": [-69.026418,44.425874]}},
{ "type": "Feature", "properties": {"Name":"Berwick CDP","State":"Maine","State_Abbrev":"ME"},
"geometry":{ "type": "Point", "coordinates": [-70.86243,43.269956]}},
{ "type": "Feature", "properties": {"Name":"Bethel CDP","State":"Maine","State_Abbrev":"ME"},
"geometry":{ "type": "Point", "coordinates": [-70.786351,44.403804]}},
{ "type": "Feature", "properties": {"Name":"Biddeford city","State":"Maine","State_Abbrev":"ME"},
"geometry":{ "type": "Point", "coordinates": [-70.392943,43.438733]}},
{ "type": "Feature", "properties": {"Name":"Bingham CDP","State":"Maine","State_Abbrev":"ME"},
"geometry":{ "type": "Point", "coordinates": [-69.873054,45.05808]}},
{ "type": "Feature", "properties": {"Name":"Blaine CDP","State":"Maine","State_Abbrev":"ME"},
"geometry":{ "type": "Point", "coordinates": [-67.868766,46.498998]}},
{ "type": "Feature", "properties": {"Name":"Blue Hill CDP","State":"Maine","State_Abbrev":"ME"},
"geometry":{ "type": "Point", "coordinates": [-68.581027,44.398651]}},
{ "type": "Feature", "properties": {"Name":"Boothbay Harbor CDP","State":"Maine","State_Abbrev":"ME"},
"geometry":{ "type": "Point", "coordinates": [-69.623337,43.855619]}},
{ "type": "Feature", "properties": {"Name":"Bowdoinham CDP","State":"Maine","State_Abbrev":"ME"},
"geometry":{ "type": "Point", "coordinates": [-69.901263,44.021214]}},
{ "type": "Feature", "properties": {"Name":"Bradley CDP","State":"Maine","State_Abbrev":"ME"},
"geometry":{ "type": "Point", "coordinates": [-68.621528,44.911832]}},
{ "type": "Feature", "properties": {"Name":"Brewer city","State":"Maine","State_Abbrev":"ME"},
"geometry":{ "type": "Point", "coordinates": [-68.734559,44.784461]}},
{ "type": "Feature", "properties": {"Name":"Bridgton CDP","State":"Maine","State_Abbrev":"ME"},
"geometry":{ "type": "Point", "coordinates": [-70.715469,44.076464]}},
{ "type": "Feature", "properties": {"Name":"Brownville Junction CDP","State":"Maine","State_Abbrev":"ME"},
"geometry":{ "type": "Point", "coordinates": [-69.056093,45.348651]}},
{ "type": "Feature", "properties": {"Name":"Brunswick CDP","State":"Maine","State_Abbrev":"ME"},
"geometry":{ "type": "Point", "coordinates": [-69.942623,43.887452]}},
{ "type": "Feature", "properties": {"Name":"Bucksport CDP","State":"Maine","State_Abbrev":"ME"},
"geometry":{ "type": "Point", "coordinates": [-68.798635,44.588434]}},
{ "type": "Feature", "properties": {"Name":"Calais city","State":"Maine","State_Abbrev":"ME"},
"geometry":{ "type": "Point", "coordinates": [-67.217529,45.142952]}},
{ "type": "Feature", "properties": {"Name":"Camden CDP","State":"Maine","State_Abbrev":"ME"},
"geometry":{ "type": "Point", "coordinates": [-69.068463,44.213771]}},
{ "type": "Feature", "properties": {"Name":"Cape Neddick CDP","State":"Maine","State_Abbrev":"ME"},
"geometry":{ "type": "Point", "coordinates": [-70.623743,43.171985]}},
{ "type": "Feature", "properties": {"Name":"Caribou city","State":"Maine","State_Abbrev":"ME"},
"geometry":{ "type": "Point", "coordinates": [-67.936056,46.836549]}},
{ "type": "Feature", "properties": {"Name":"Casco CDP","State":"Maine","State_Abbrev":"ME"},
"geometry":{ "type": "Point", "coordinates": [-70.532759,44.00169]}},
{ "type": "Feature", "properties": {"Name":"Castine CDP","State":"Maine","State_Abbrev":"ME"},
"geometry":{ "type": "Point", "coordinates": [-68.806019,44.393981]}},
{ "type": "Feature", "properties": {"Name":"Chisholm CDP","State":"Maine","State_Abbrev":"ME"},
"geometry":{ "type": "Point", "coordinates": [-70.1926,44.492894]}},
{ "type": "Feature", "properties": {"Name":"Clinton CDP","State":"Maine","State_Abbrev":"ME"},
"geometry":{ "type": "Point", "coordinates": [-69.488656,44.644629]}},
{ "type": "Feature", "properties": {"Name":"Corinna CDP","State":"Maine","State_Abbrev":"ME"},
"geometry":{ "type": "Point", "coordinates": [-69.265852,44.922741]}},
{ "type": "Feature", "properties": {"Name":"Cornish CDP","State":"Maine","State_Abbrev":"ME"},
"geometry":{ "type": "Point", "coordinates": [-70.795141,43.800122]}},
{ "type": "Feature", "properties": {"Name":"Cousins Island CDP","State":"Maine","State_Abbrev":"ME"},
"geometry":{ "type": "Point", "coordinates": [-70.143025,43.766803]}},
{ "type": "Feature", "properties": {"Name":"Cumberland Center CDP","State":"Maine","State_Abbrev":"ME"},
"geometry":{ "type": "Point", "coordinates": [-70.24406,43.794744]}},
{ "type": "Feature", "properties": {"Name":"Damariscotta CDP","State":"Maine","State_Abbrev":"ME"},
"geometry":{ "type": "Point", "coordinates": [-69.520232,44.017173]}},
{ "type": "Feature", "properties": {"Name":"Danforth CDP","State":"Maine","State_Abbrev":"ME"},
"geometry":{ "type": "Point", "coordinates": [-67.868308,45.659603]}},
{ "type": "Feature", "properties": {"Name":"Dexter CDP","State":"Maine","State_Abbrev":"ME"},
"geometry":{ "type": "Point", "coordinates": [-69.294664,45.016208]}},
{ "type": "Feature", "properties": {"Name":"Dixfield CDP","State":"Maine","State_Abbrev":"ME"},
"geometry":{ "type": "Point", "coordinates": [-70.446031,44.537951]}},
{ "type": "Feature", "properties": {"Name":"Dover-Foxcroft CDP","State":"Maine","State_Abbrev":"ME"},
"geometry":{ "type": "Point", "coordinates": [-69.223215,45.205071]}},
{ "type": "Feature", "properties": {"Name":"Dunstan CDP","State":"Maine","State_Abbrev":"ME"},
"geometry":{ "type": "Point", "coordinates": [-70.386202,43.569119]}},
{ "type": "Feature", "properties": {"Name":"Eagle Lake CDP","State":"Maine","State_Abbrev":"ME"},
"geometry":{ "type": "Point", "coordinates": [-68.588953,47.034443]}},
{ "type": "Feature", "properties": {"Name":"East Millinocket CDP","State":"Maine","State_Abbrev":"ME"},
"geometry":{ "type": "Point", "coordinates": [-68.573771,45.627097]}},
{ "type": "Feature", "properties": {"Name":"Eastport city","State":"Maine","State_Abbrev":"ME"},
"geometry":{ "type": "Point", "coordinates": [-67.009163,44.910939]}},
{ "type": "Feature", "properties": {"Name":"Ellsworth city","State":"Maine","State_Abbrev":"ME"},
"geometry":{ "type": "Point", "coordinates": [-68.480094,44.58293]}},
{ "type": "Feature", "properties": {"Name":"Fairfield CDP","State":"Maine","State_Abbrev":"ME"},
"geometry":{ "type": "Point", "coordinates": [-69.605215,44.590339]}},
{ "type": "Feature", "properties": {"Name":"Falmouth CDP","State":"Maine","State_Abbrev":"ME"},
"geometry":{ "type": "Point", "coordinates": [-70.231058,43.716012]}},
{ "type": "Feature", "properties": {"Name":"Falmouth Foreside CDP","State":"Maine","State_Abbrev":"ME"},
"geometry":{ "type": "Point", "coordinates": [-70.21802,43.732346]}},
{ "type": "Feature", "properties": {"Name":"Farmingdale CDP","State":"Maine","State_Abbrev":"ME"},
"geometry":{ "type": "Point", "coordinates": [-69.783526,44.25096]}},
{ "type": "Feature", "properties": {"Name":"Farmington CDP","State":"Maine","State_Abbrev":"ME"},
"geometry":{ "type": "Point", "coordinates": [-70.144039,44.668373]}},
{ "type": "Feature", "properties": {"Name":"Fort Fairfield CDP","State":"Maine","State_Abbrev":"ME"},
"geometry":{ "type": "Point", "coordinates": [-67.83194,46.767065]}},
{ "type": "Feature", "properties": {"Name":"Fort Kent CDP","State":"Maine","State_Abbrev":"ME"},
"geometry":{ "type": "Point", "coordinates": [-68.587216,47.251738]}},
{ "type": "Feature", "properties": {"Name":"Freeport CDP","State":"Maine","State_Abbrev":"ME"},
"geometry":{ "type": "Point", "coordinates": [-70.102593,43.857051]}},
{ "type": "Feature", "properties": {"Name":"Fryeburg CDP","State":"Maine","State_Abbrev":"ME"},
"geometry":{ "type": "Point", "coordinates": [-70.971998,44.02011]}},
{ "type": "Feature", "properties": {"Name":"Gardiner city","State":"Maine","State_Abbrev":"ME"},
"geometry":{ "type": "Point", "coordinates": [-69.793771,44.195091]}},
{ "type": "Feature", "properties": {"Name":"Gorham CDP","State":"Maine","State_Abbrev":"ME"},
"geometry":{ "type": "Point", "coordinates": [-70.434962,43.693238]}},
{ "type": "Feature", "properties": {"Name":"Grand Isle CDP","State":"Maine","State_Abbrev":"ME"},
"geometry":{ "type": "Point", "coordinates": [-68.158702,47.307363]}},
{ "type": "Feature", "properties": {"Name":"Gray CDP","State":"Maine","State_Abbrev":"ME"},
"geometry":{ "type": "Point", "coordinates": [-70.324087,43.886386]}},
{ "type": "Feature", "properties": {"Name":"Greene CDP","State":"Maine","State_Abbrev":"ME"},
"geometry":{ "type": "Point", "coordinates": [-70.145088,44.189754]}},
{ "type": "Feature", "properties": {"Name":"Greenville CDP","State":"Maine","State_Abbrev":"ME"},
"geometry":{ "type": "Point", "coordinates": [-69.577856,45.466113]}},
{ "type": "Feature", "properties": {"Name":"Guilford CDP","State":"Maine","State_Abbrev":"ME"},
"geometry":{ "type": "Point", "coordinates": [-69.395037,45.178621]}},
{ "type": "Feature", "properties": {"Name":"Hallowell city","State":"Maine","State_Abbrev":"ME"},
"geometry":{ "type": "Point", "coordinates": [-69.81804,44.287241]}},
{ "type": "Feature", "properties": {"Name":"Hampden CDP","State":"Maine","State_Abbrev":"ME"},
"geometry":{ "type": "Point", "coordinates": [-68.839879,44.747602]}},
{ "type": "Feature", "properties": {"Name":"Hartland CDP","State":"Maine","State_Abbrev":"ME"},
"geometry":{ "type": "Point", "coordinates": [-69.469166,44.885558]}},
{ "type": "Feature", "properties": {"Name":"Houlton CDP","State":"Maine","State_Abbrev":"ME"},
"geometry":{ "type": "Point", "coordinates": [-67.83221,46.121447]}},
{ "type": "Feature", "properties": {"Name":"Howland CDP","State":"Maine","State_Abbrev":"ME"},
"geometry":{ "type": "Point", "coordinates": [-68.658098,45.269601]}},
{ "type": "Feature", "properties": {"Name":"Island Falls CDP","State":"Maine","State_Abbrev":"ME"},
"geometry":{ "type": "Point", "coordinates": [-68.263937,46.008708]}},
{ "type": "Feature", "properties": {"Name":"Jonesport CDP","State":"Maine","State_Abbrev":"ME"},
"geometry":{ "type": "Point", "coordinates": [-67.607594,44.535373]}},
{ "type": "Feature", "properties": {"Name":"Kennebunk CDP","State":"Maine","State_Abbrev":"ME"},
"geometry":{ "type": "Point", "coordinates": [-70.544165,43.384106]}},
{ "type": "Feature", "properties": {"Name":"Kennebunkport CDP","State":"Maine","State_Abbrev":"ME"},
"geometry":{ "type": "Point", "coordinates": [-70.460284,43.363237]}},
{ "type": "Feature", "properties": {"Name":"Kezar Falls CDP","State":"Maine","State_Abbrev":"ME"},
"geometry":{ "type": "Point", "coordinates": [-70.875302,43.807122]}},
{ "type": "Feature", "properties": {"Name":"Kingfield CDP","State":"Maine","State_Abbrev":"ME"},
"geometry":{ "type": "Point", "coordinates": [-70.164518,44.954503]}},
{ "type": "Feature", "properties": {"Name":"Kittery CDP","State":"Maine","State_Abbrev":"ME"},
"geometry":{ "type": "Point", "coordinates": [-70.738321,43.089985]}},
{ "type": "Feature", "properties": {"Name":"Kittery Point CDP","State":"Maine","State_Abbrev":"ME"},
"geometry":{ "type": "Point", "coordinates": [-70.69096,43.09381]}},
{ "type": "Feature", "properties": {"Name":"Lake Arrowhead CDP","State":"Maine","State_Abbrev":"ME"},
"geometry":{ "type": "Point", "coordinates": [-70.742002,43.661676]}},
{ "type": "Feature", "properties": {"Name":"Lewiston city","State":"Maine","State_Abbrev":"ME"},
"geometry":{ "type": "Point", "coordinates": [-70.172095,44.089513]}},
{ "type": "Feature", "properties": {"Name":"Limestone CDP","State":"Maine","State_Abbrev":"ME"},
"geometry":{ "type": "Point", "coordinates": [-67.830828,46.911205]}},
{ "type": "Feature", "properties": {"Name":"Lincoln CDP","State":"Maine","State_Abbrev":"ME"},
"geometry":{ "type": "Point", "coordinates": [-68.50173,45.362677]}},
{ "type": "Feature", "properties": {"Name":"Lisbon CDP","State":"Maine","State_Abbrev":"ME"},
"geometry":{ "type": "Point", "coordinates": [-70.107521,44.029707]}},
{ "type": "Feature", "properties": {"Name":"Lisbon Falls CDP","State":"Maine","State_Abbrev":"ME"},
"geometry":{ "type": "Point", "coordinates": [-70.057636,44.008612]}},
{ "type": "Feature", "properties": {"Name":"Little Falls CDP","State":"Maine","State_Abbrev":"ME"},
"geometry":{ "type": "Point", "coordinates": [-70.43538,43.735434]}},
{ "type": "Feature", "properties": {"Name":"Littlejohn Island CDP","State":"Maine","State_Abbrev":"ME"},
"geometry":{ "type": "Point", "coordinates": [-70.126559,43.760664]}},
{ "type": "Feature", "properties": {"Name":"Livermore Falls CDP","State":"Maine","State_Abbrev":"ME"},
"geometry":{ "type": "Point", "coordinates": [-70.180804,44.472574]}},
{ "type": "Feature", "properties": {"Name":"Lubec CDP","State":"Maine","State_Abbrev":"ME"},
"geometry":{ "type": "Point", "coordinates": [-66.989856,44.855069]}},
{ "type": "Feature", "properties": {"Name":"Machias CDP","State":"Maine","State_Abbrev":"ME"},
"geometry":{ "type": "Point", "coordinates": [-67.478612,44.70064]}},
{ "type": "Feature", "properties": {"Name":"Madawaska CDP","State":"Maine","State_Abbrev":"ME"},
"geometry":{ "type": "Point", "coordinates": [-68.333444,47.34245]}},
{ "type": "Feature", "properties": {"Name":"Madison CDP","State":"Maine","State_Abbrev":"ME"},
"geometry":{ "type": "Point", "coordinates": [-69.850366,44.807789]}},
{ "type": "Feature", "properties": {"Name":"Mapleton CDP","State":"Maine","State_Abbrev":"ME"},
"geometry":{ "type": "Point", "coordinates": [-68.151187,46.68076]}},
{ "type": "Feature", "properties": {"Name":"Mars Hill CDP","State":"Maine","State_Abbrev":"ME"},
"geometry":{ "type": "Point", "coordinates": [-67.869714,46.51919]}},
{ "type": "Feature", "properties": {"Name":"Mattawamkeag CDP","State":"Maine","State_Abbrev":"ME"},
"geometry":{ "type": "Point", "coordinates": [-68.351659,45.517717]}},
{ "type": "Feature", "properties": {"Name":"Mechanic Falls CDP","State":"Maine","State_Abbrev":"ME"},
"geometry":{ "type": "Point", "coordinates": [-70.394051,44.11167]}},
{ "type": "Feature", "properties": {"Name":"Mexico CDP","State":"Maine","State_Abbrev":"ME"},
"geometry":{ "type": "Point", "coordinates": [-70.533745,44.556949]}},
{ "type": "Feature", "properties": {"Name":"Milbridge CDP","State":"Maine","State_Abbrev":"ME"},
"geometry":{ "type": "Point", "coordinates": [-67.894896,44.529183]}},
{ "type": "Feature", "properties": {"Name":"Milford CDP","State":"Maine","State_Abbrev":"ME"},
"geometry":{ "type": "Point", "coordinates": [-68.630943,44.95743]}},
{ "type": "Feature", "properties": {"Name":"Millinocket CDP","State":"Maine","State_Abbrev":"ME"},
"geometry":{ "type": "Point", "coordinates": [-68.698148,45.659216]}},
{ "type": "Feature", "properties": {"Name":"Milo CDP","State":"Maine","State_Abbrev":"ME"},
"geometry":{ "type": "Point", "coordinates": [-68.950555,45.248324]}},
{ "type": "Feature", "properties": {"Name":"Naples CDP","State":"Maine","State_Abbrev":"ME"},
"geometry":{ "type": "Point", "coordinates": [-70.602285,43.960578]}},
{ "type": "Feature", "properties": {"Name":"Newcastle CDP","State":"Maine","State_Abbrev":"ME"},
"geometry":{ "type": "Point", "coordinates": [-69.53326,44.048601]}},
{ "type": "Feature", "properties": {"Name":"Newport CDP","State":"Maine","State_Abbrev":"ME"},
"geometry":{ "type": "Point", "coordinates": [-69.254846,44.836429]}},
{ "type": "Feature", "properties": {"Name":"Norridgewock CDP","State":"Maine","State_Abbrev":"ME"},
"geometry":{ "type": "Point", "coordinates": [-69.763068,44.722822]}},
{ "type": "Feature", "properties": {"Name":"North Anson CDP","State":"Maine","State_Abbrev":"ME"},
"geometry":{ "type": "Point", "coordinates": [-69.898983,44.863866]}},
{ "type": "Feature", "properties": {"Name":"North Berwick CDP","State":"Maine","State_Abbrev":"ME"},
"geometry":{ "type": "Point", "coordinates": [-70.730953,43.296215]}},
{ "type": "Feature", "properties": {"Name":"Northeast Harbor CDP","State":"Maine","State_Abbrev":"ME"},
"geometry":{ "type": "Point", "coordinates": [-68.290853,44.290163]}},
{ "type": "Feature", "properties": {"Name":"North Windham CDP","State":"Maine","State_Abbrev":"ME"},
"geometry":{ "type": "Point", "coordinates": [-70.431252,43.826344]}},
{ "type": "Feature", "properties": {"Name":"Norway CDP","State":"Maine","State_Abbrev":"ME"},
"geometry":{ "type": "Point", "coordinates": [-70.563437,44.23076]}},
{ "type": "Feature", "properties": {"Name":"Oakfield CDP","State":"Maine","State_Abbrev":"ME"},
"geometry":{ "type": "Point", "coordinates": [-68.151648,46.101981]}},
{ "type": "Feature", "properties": {"Name":"Oak Hill CDP","State":"Maine","State_Abbrev":"ME"},
"geometry":{ "type": "Point", "coordinates": [-70.34085,43.596355]}},
{ "type": "Feature", "properties": {"Name":"Oakland CDP","State":"Maine","State_Abbrev":"ME"},
"geometry":{ "type": "Point", "coordinates": [-69.706143,44.552474]}},
{ "type": "Feature", "properties": {"Name":"Old Orchard Beach CDP","State":"Maine","State_Abbrev":"ME"},
"geometry":{ "type": "Point", "coordinates": [-70.356845,43.533771]}},
{ "type": "Feature", "properties": {"Name":"Old Town city","State":"Maine","State_Abbrev":"ME"},
"geometry":{ "type": "Point", "coordinates": [-68.739689,44.954171]}},
{ "type": "Feature", "properties": {"Name":"Orono CDP","State":"Maine","State_Abbrev":"ME"},
"geometry":{ "type": "Point", "coordinates": [-68.688144,44.878261]}},
{ "type": "Feature", "properties": {"Name":"Oxford CDP","State":"Maine","State_Abbrev":"ME"},
"geometry":{ "type": "Point", "coordinates": [-70.523871,44.14487]}},
{ "type": "Feature", "properties": {"Name":"Patten CDP","State":"Maine","State_Abbrev":"ME"},
"geometry":{ "type": "Point", "coordinates": [-68.442762,46.004343]}},
{ "type": "Feature", "properties": {"Name":"Pittsfield CDP","State":"Maine","State_Abbrev":"ME"},
"geometry":{ "type": "Point", "coordinates": [-69.372732,44.763273]}},
{ "type": "Feature", "properties": {"Name":"Portland city","State":"Maine","State_Abbrev":"ME"},
"geometry":{ "type": "Point", "coordinates": [-70.185305,43.633157]}},
{ "type": "Feature", "properties": {"Name":"Presque Isle city","State":"Maine","State_Abbrev":"ME"},
"geometry":{ "type": "Point", "coordinates": [-67.991914,46.688952]}},
{ "type": "Feature", "properties": {"Name":"Randolph CDP","State":"Maine","State_Abbrev":"ME"},
"geometry":{ "type": "Point", "coordinates": [-69.751247,44.237286]}},
{ "type": "Feature", "properties": {"Name":"Rangeley CDP","State":"Maine","State_Abbrev":"ME"},
"geometry":{ "type": "Point", "coordinates": [-70.652146,44.965902]}},
{ "type": "Feature", "properties": {"Name":"Richmond CDP","State":"Maine","State_Abbrev":"ME"},
"geometry":{ "type": "Point", "coordinates": [-69.809567,44.099038]}},
{ "type": "Feature", "properties": {"Name":"Rockland city","State":"Maine","State_Abbrev":"ME"},
"geometry":{ "type": "Point", "coordinates": [-69.130452,44.123883]}},
{ "type": "Feature", "properties": {"Name":"Rumford CDP","State":"Maine","State_Abbrev":"ME"},
"geometry":{ "type": "Point", "coordinates": [-70.560194,44.544842]}},
{ "type": "Feature", "properties": {"Name":"Sabattus CDP","State":"Maine","State_Abbrev":"ME"},
"geometry":{ "type": "Point", "coordinates": [-70.103776,44.120119]}},
{ "type": "Feature", "properties": {"Name":"Saco city","State":"Maine","State_Abbrev":"ME"},
"geometry":{ "type": "Point", "coordinates": [-70.419571,43.527959]}},
{ "type": "Feature", "properties": {"Name":"Sanford city","State":"Maine","State_Abbrev":"ME"},
"geometry":{ "type": "Point", "coordinates": [-70.757859,43.424142]}},
{ "type": "Feature", "properties": {"Name":"Searsport CDP","State":"Maine","State_Abbrev":"ME"},
"geometry":{ "type": "Point", "coordinates": [-68.915604,44.474953]}},
{ "type": "Feature", "properties": {"Name":"Skowhegan CDP","State":"Maine","State_Abbrev":"ME"},
"geometry":{ "type": "Point", "coordinates": [-69.712196,44.778149]}},
{ "type": "Feature", "properties": {"Name":"South Berwick CDP","State":"Maine","State_Abbrev":"ME"},
"geometry":{ "type": "Point", "coordinates": [-70.798143,43.230047]}},
{ "type": "Feature", "properties": {"Name":"South Eliot CDP","State":"Maine","State_Abbrev":"ME"},
"geometry":{ "type": "Point", "coordinates": [-70.793156,43.135079]}},
{ "type": "Feature", "properties": {"Name":"South Paris CDP","State":"Maine","State_Abbrev":"ME"},
"geometry":{ "type": "Point", "coordinates": [-70.513021,44.217818]}},
{ "type": "Feature", "properties": {"Name":"South Portland city","State":"Maine","State_Abbrev":"ME"},
"geometry":{ "type": "Point", "coordinates": [-70.285989,43.631402]}},
{ "type": "Feature", "properties": {"Name":"Southwest Harbor CDP","State":"Maine","State_Abbrev":"ME"},
"geometry":{ "type": "Point", "coordinates": [-68.32858,44.27839]}},
{ "type": "Feature", "properties": {"Name":"South Windham CDP","State":"Maine","State_Abbrev":"ME"},
"geometry":{ "type": "Point", "coordinates": [-70.421901,43.738793]}},
{ "type": "Feature", "properties": {"Name":"Standish CDP","State":"Maine","State_Abbrev":"ME"},
"geometry":{ "type": "Point", "coordinates": [-70.552499,43.735342]}},
{ "type": "Feature", "properties": {"Name":"Steep Falls CDP","State":"Maine","State_Abbrev":"ME"},
"geometry":{ "type": "Point", "coordinates": [-70.613863,43.791219]}},
{ "type": "Feature", "properties": {"Name":"Thomaston CDP","State":"Maine","State_Abbrev":"ME"},
"geometry":{ "type": "Point", "coordinates": [-69.179452,44.081867]}},
{ "type": "Feature", "properties": {"Name":"Topsham CDP","State":"Maine","State_Abbrev":"ME"},
"geometry":{ "type": "Point", "coordinates": [-69.931653,43.947393]}},
{ "type": "Feature", "properties": {"Name":"Turner CDP","State":"Maine","State_Abbrev":"ME"},
"geometry":{ "type": "Point", "coordinates": [-70.257865,44.257811]}},
{ "type": "Feature", "properties": {"Name":"Unity CDP","State":"Maine","State_Abbrev":"ME"},
"geometry":{ "type": "Point", "coordinates": [-69.344585,44.618683]}},
{ "type": "Feature", "properties": {"Name":"Van Buren CDP","State":"Maine","State_Abbrev":"ME"},
"geometry":{ "type": "Point", "coordinates": [-67.948881,47.167047]}},
{ "type": "Feature", "properties": {"Name":"Vanceboro CDP","State":"Maine","State_Abbrev":"ME"},
"geometry":{ "type": "Point", "coordinates": [-67.429217,45.567243]}},
{ "type": "Feature", "properties": {"Name":"Veazie CDP","State":"Maine","State_Abbrev":"ME"},
"geometry":{ "type": "Point", "coordinates": [-68.714189,44.847442]}},
{ "type": "Feature", "properties": {"Name":"Waldoboro CDP","State":"Maine","State_Abbrev":"ME"},
"geometry":{ "type": "Point", "coordinates": [-69.378435,44.093318]}},
{ "type": "Feature", "properties": {"Name":"Washburn CDP","State":"Maine","State_Abbrev":"ME"},
"geometry":{ "type": "Point", "coordinates": [-68.139604,46.788399]}},
{ "type": "Feature", "properties": {"Name":"Waterville city","State":"Maine","State_Abbrev":"ME"},
"geometry":{ "type": "Point", "coordinates": [-69.661396,44.545285]}},
{ "type": "Feature", "properties": {"Name":"Westbrook city","State":"Maine","State_Abbrev":"ME"},
"geometry":{ "type": "Point", "coordinates": [-70.352602,43.70792]}},
{ "type": "Feature", "properties": {"Name":"West Kennebunk CDP","State":"Maine","State_Abbrev":"ME"},
"geometry":{ "type": "Point", "coordinates": [-70.580993,43.414187]}},
{ "type": "Feature", "properties": {"Name":"Wilton CDP","State":"Maine","State_Abbrev":"ME"},
"geometry":{ "type": "Point", "coordinates": [-70.237522,44.59435]}},
{ "type": "Feature", "properties": {"Name":"Winslow CDP","State":"Maine","State_Abbrev":"ME"},
"geometry":{ "type": "Point", "coordinates": [-69.60845,44.553429]}},
{ "type": "Feature", "properties": {"Name":"Winter Harbor CDP","State":"Maine","State_Abbrev":"ME"},
"geometry":{ "type": "Point", "coordinates": [-68.091657,44.392798]}},
{ "type": "Feature", "properties": {"Name":"Winterport CDP","State":"Maine","State_Abbrev":"ME"},
"geometry":{ "type": "Point", "coordinates": [-68.861253,44.648126]}},
{ "type": "Feature", "properties": {"Name":"Winthrop CDP","State":"Maine","State_Abbrev":"ME"},
"geometry":{ "type": "Point", "coordinates": [-69.950795,44.323383]}},
{ "type": "Feature", "properties": {"Name":"Wiscasset CDP","State":"Maine","State_Abbrev":"ME"},
"geometry":{ "type": "Point", "coordinates": [-69.678028,44.010754]}},
{ "type": "Feature", "properties": {"Name":"Woodland CDP","State":"Maine","State_Abbrev":"ME"},
"geometry":{ "type": "Point", "coordinates": [-67.409736,45.158208]}},
{ "type": "Feature", "properties": {"Name":"Yarmouth CDP","State":"Maine","State_Abbrev":"ME"},
"geometry":{ "type": "Point", "coordinates": [-70.18858,43.803815]}},
{ "type": "Feature", "properties": {"Name":"York Harbor CDP","State":"Maine","State_Abbrev":"ME"},
"geometry":{ "type": "Point", "coordinates": [-70.647489,43.143022]}}]}
