{"type":"FeatureCollection","features":[
{ "type": "Feature", "properties": {"Name":"Aberdeen city","State":"Maryland","State_Abbrev":"MD"},
"geometry":{ "type": "Point", "coordinates": [-76.174518,39.516403]}},
{ "type": "Feature", "properties": {"Name":"Aberdeen Proving Ground CDP","State":"Maryland","State_Abbrev":"MD"},
"geometry":{ "type": "Point", "coordinates": [-76.133542,39.454232]}},
{ "type": "Feature", "properties": {"Name":"Abingdon CDP","State":"Maryland","State_Abbrev":"MD"},
"geometry":{ "type": "Point", "coordinates": [-76.27314,39.463472]}},
{ "type": "Feature", "properties": {"Name":"Accident town","State":"Maryland","State_Abbrev":"MD"},
"geometry":{ "type": "Point", "coordinates": [-79.319958,39.625688]}},
{ "type": "Feature", "properties": {"Name":"Accokeek CDP","State":"Maryland","State_Abbrev":"MD"},
"geometry":{ "type": "Point", "coordinates": [-77.000518,38.676533]}},
{ "type": "Feature", "properties": {"Name":"Adamstown CDP","State":"Maryland","State_Abbrev":"MD"},
"geometry":{ "type": "Point", "coordinates": [-77.469296,39.307001]}},
{ "type": "Feature", "properties": {"Name":"Adelphi CDP","State":"Maryland","State_Abbrev":"MD"},
"geometry":{ "type": "Point", "coordinates": [-76.966783,38.997067]}},
{ "type": "Feature", "properties": {"Name":"Algonquin CDP","State":"Maryland","State_Abbrev":"MD"},
"geometry":{ "type": "Point", "coordinates": [-76.091558,38.589853]}},
{ "type": "Feature", "properties": {"Name":"Allen CDP","State":"Maryland","State_Abbrev":"MD"},
"geometry":{ "type": "Point", "coordinates": [-75.693051,38.288387]}},
{ "type": "Feature", "properties": {"Name":"Andrews AFB CDP","State":"Maryland","State_Abbrev":"MD"},
"geometry":{ "type": "Point", "coordinates": [-76.869158,38.809803]}},
{ "type": "Feature", "properties": {"Name":"Annapolis city","State":"Maryland","State_Abbrev":"MD"},
"geometry":{ "type": "Point", "coordinates": [-76.505332,38.972152]}},
{ "type": "Feature", "properties": {"Name":"Annapolis Neck CDP","State":"Maryland","State_Abbrev":"MD"},
"geometry":{ "type": "Point", "coordinates": [-76.498084,38.936562]}},
{ "type": "Feature", "properties": {"Name":"Antietam CDP","State":"Maryland","State_Abbrev":"MD"},
"geometry":{ "type": "Point", "coordinates": [-77.736484,39.415082]}},
{ "type": "Feature", "properties": {"Name":"Aquasco CDP","State":"Maryland","State_Abbrev":"MD"},
"geometry":{ "type": "Point", "coordinates": [-76.697125,38.591534]}},
{ "type": "Feature", "properties": {"Name":"Arbutus CDP","State":"Maryland","State_Abbrev":"MD"},
"geometry":{ "type": "Point", "coordinates": [-76.692133,39.242673]}},
{ "type": "Feature", "properties": {"Name":"Arden on the Severn CDP","State":"Maryland","State_Abbrev":"MD"},
"geometry":{ "type": "Point", "coordinates": [-76.596488,39.06771]}},
{ "type": "Feature", "properties": {"Name":"Arnold CDP","State":"Maryland","State_Abbrev":"MD"},
"geometry":{ "type": "Point", "coordinates": [-76.504985,39.043227]}},
{ "type": "Feature", "properties": {"Name":"Ashton-Sandy Spring CDP","State":"Maryland","State_Abbrev":"MD"},
"geometry":{ "type": "Point", "coordinates": [-76.999085,39.148685]}},
{ "type": "Feature", "properties": {"Name":"Aspen Hill CDP","State":"Maryland","State_Abbrev":"MD"},
"geometry":{ "type": "Point", "coordinates": [-77.081985,39.093635]}},
{ "type": "Feature", "properties": {"Name":"Baden CDP","State":"Maryland","State_Abbrev":"MD"},
"geometry":{ "type": "Point", "coordinates": [-76.744221,38.669485]}},
{ "type": "Feature", "properties": {"Name":"Bagtown CDP","State":"Maryland","State_Abbrev":"MD"},
"geometry":{ "type": "Point", "coordinates": [-77.613885,39.582982]}},
{ "type": "Feature", "properties": {"Name":"Bakersville CDP","State":"Maryland","State_Abbrev":"MD"},
"geometry":{ "type": "Point", "coordinates": [-77.757048,39.514829]}},
{ "type": "Feature", "properties": {"Name":"Ballenger Creek CDP","State":"Maryland","State_Abbrev":"MD"},
"geometry":{ "type": "Point", "coordinates": [-77.420179,39.381131]}},
{ "type": "Feature", "properties": {"Name":"Baltimore city","State":"Maryland","State_Abbrev":"MD"},
"geometry":{ "type": "Point", "coordinates": [-76.610476,39.300032]}},
{ "type": "Feature", "properties": {"Name":"Baltimore Highlands CDP","State":"Maryland","State_Abbrev":"MD"},
"geometry":{ "type": "Point", "coordinates": [-76.637402,39.235932]}},
{ "type": "Feature", "properties": {"Name":"Barclay town","State":"Maryland","State_Abbrev":"MD"},
"geometry":{ "type": "Point", "coordinates": [-75.864433,39.146454]}},
{ "type": "Feature", "properties": {"Name":"Barnesville town","State":"Maryland","State_Abbrev":"MD"},
"geometry":{ "type": "Point", "coordinates": [-77.376106,39.22392]}},
{ "type": "Feature", "properties": {"Name":"Barrelville CDP","State":"Maryland","State_Abbrev":"MD"},
"geometry":{ "type": "Point", "coordinates": [-78.842454,39.702653]}},
{ "type": "Feature", "properties": {"Name":"Barton town","State":"Maryland","State_Abbrev":"MD"},
"geometry":{ "type": "Point", "coordinates": [-79.016785,39.532283]}},
{ "type": "Feature", "properties": {"Name":"Bartonsville CDP","State":"Maryland","State_Abbrev":"MD"},
"geometry":{ "type": "Point", "coordinates": [-77.352961,39.388795]}},
{ "type": "Feature", "properties": {"Name":"Beaver Creek CDP","State":"Maryland","State_Abbrev":"MD"},
"geometry":{ "type": "Point", "coordinates": [-77.651338,39.581545]}},
{ "type": "Feature", "properties": {"Name":"Bel Air CDP","State":"Maryland","State_Abbrev":"MD"},
"geometry":{ "type": "Point", "coordinates": [-78.855471,39.581262]}},
{ "type": "Feature", "properties": {"Name":"Bel Air town","State":"Maryland","State_Abbrev":"MD"},
"geometry":{ "type": "Point", "coordinates": [-76.346323,39.534942]}},
{ "type": "Feature", "properties": {"Name":"Bel Air North CDP","State":"Maryland","State_Abbrev":"MD"},
"geometry":{ "type": "Point", "coordinates": [-76.372942,39.553404]}},
{ "type": "Feature", "properties": {"Name":"Bel Air South CDP","State":"Maryland","State_Abbrev":"MD"},
"geometry":{ "type": "Point", "coordinates": [-76.309365,39.508061]}},
{ "type": "Feature", "properties": {"Name":"Beltsville CDP","State":"Maryland","State_Abbrev":"MD"},
"geometry":{ "type": "Point", "coordinates": [-76.920443,39.039903]}},
{ "type": "Feature", "properties": {"Name":"Benedict CDP","State":"Maryland","State_Abbrev":"MD"},
"geometry":{ "type": "Point", "coordinates": [-76.67967,38.511529]}},
{ "type": "Feature", "properties": {"Name":"Bensville CDP","State":"Maryland","State_Abbrev":"MD"},
"geometry":{ "type": "Point", "coordinates": [-77.004735,38.612971]}},
{ "type": "Feature", "properties": {"Name":"Berlin town","State":"Maryland","State_Abbrev":"MD"},
"geometry":{ "type": "Point", "coordinates": [-75.215434,38.331533]}},
{ "type": "Feature", "properties": {"Name":"Berwyn Heights town","State":"Maryland","State_Abbrev":"MD"},
"geometry":{ "type": "Point", "coordinates": [-76.913451,38.992854]}},
{ "type": "Feature", "properties": {"Name":"Bethesda CDP","State":"Maryland","State_Abbrev":"MD"},
"geometry":{ "type": "Point", "coordinates": [-77.118612,38.987292]}},
{ "type": "Feature", "properties": {"Name":"Betterton town","State":"Maryland","State_Abbrev":"MD"},
"geometry":{ "type": "Point", "coordinates": [-76.072496,39.367115]}},
{ "type": "Feature", "properties": {"Name":"Bier CDP","State":"Maryland","State_Abbrev":"MD"},
"geometry":{ "type": "Point", "coordinates": [-78.871122,39.55513]}},
{ "type": "Feature", "properties": {"Name":"Big Pool CDP","State":"Maryland","State_Abbrev":"MD"},
"geometry":{ "type": "Point", "coordinates": [-78.016168,39.625094]}},
{ "type": "Feature", "properties": {"Name":"Big Spring CDP","State":"Maryland","State_Abbrev":"MD"},
"geometry":{ "type": "Point", "coordinates": [-77.939632,39.625902]}},
{ "type": "Feature", "properties": {"Name":"Bishopville CDP","State":"Maryland","State_Abbrev":"MD"},
"geometry":{ "type": "Point", "coordinates": [-75.209507,38.438642]}},
{ "type": "Feature", "properties": {"Name":"Bivalve CDP","State":"Maryland","State_Abbrev":"MD"},
"geometry":{ "type": "Point", "coordinates": [-75.880628,38.306205]}},
{ "type": "Feature", "properties": {"Name":"Bladensburg town","State":"Maryland","State_Abbrev":"MD"},
"geometry":{ "type": "Point", "coordinates": [-76.92591,38.942368]}},
{ "type": "Feature", "properties": {"Name":"Bloomington CDP","State":"Maryland","State_Abbrev":"MD"},
"geometry":{ "type": "Point", "coordinates": [-79.07851,39.481331]}},
{ "type": "Feature", "properties": {"Name":"Boonsboro town","State":"Maryland","State_Abbrev":"MD"},
"geometry":{ "type": "Point", "coordinates": [-77.664745,39.510648]}},
{ "type": "Feature", "properties": {"Name":"Bowie city","State":"Maryland","State_Abbrev":"MD"},
"geometry":{ "type": "Point", "coordinates": [-76.738834,38.954703]}},
{ "type": "Feature", "properties": {"Name":"Bowleys Quarters CDP","State":"Maryland","State_Abbrev":"MD"},
"geometry":{ "type": "Point", "coordinates": [-76.38227,39.31281]}},
{ "type": "Feature", "properties": {"Name":"Bowling Green CDP","State":"Maryland","State_Abbrev":"MD"},
"geometry":{ "type": "Point", "coordinates": [-78.805046,39.62713]}},
{ "type": "Feature", "properties": {"Name":"Bowmans Addition CDP","State":"Maryland","State_Abbrev":"MD"},
"geometry":{ "type": "Point", "coordinates": [-78.755028,39.686344]}},
{ "type": "Feature", "properties": {"Name":"Braddock Heights CDP","State":"Maryland","State_Abbrev":"MD"},
"geometry":{ "type": "Point", "coordinates": [-77.493564,39.409522]}},
{ "type": "Feature", "properties": {"Name":"Brandywine CDP","State":"Maryland","State_Abbrev":"MD"},
"geometry":{ "type": "Point", "coordinates": [-76.885993,38.685077]}},
{ "type": "Feature", "properties": {"Name":"Breathedsville CDP","State":"Maryland","State_Abbrev":"MD"},
"geometry":{ "type": "Point", "coordinates": [-77.724548,39.54601]}},
{ "type": "Feature", "properties": {"Name":"Brentwood town","State":"Maryland","State_Abbrev":"MD"},
"geometry":{ "type": "Point", "coordinates": [-76.957046,38.943883]}},
{ "type": "Feature", "properties": {"Name":"Brock Hall CDP","State":"Maryland","State_Abbrev":"MD"},
"geometry":{ "type": "Point", "coordinates": [-76.742435,38.855852]}},
{ "type": "Feature", "properties": {"Name":"Brookeville town","State":"Maryland","State_Abbrev":"MD"},
"geometry":{ "type": "Point", "coordinates": [-77.059725,39.182514]}},
{ "type": "Feature", "properties": {"Name":"Brooklyn Park CDP","State":"Maryland","State_Abbrev":"MD"},
"geometry":{ "type": "Point", "coordinates": [-76.620921,39.2195]}},
{ "type": "Feature", "properties": {"Name":"Brookmont CDP","State":"Maryland","State_Abbrev":"MD"},
"geometry":{ "type": "Point", "coordinates": [-77.12902,38.953831]}},
{ "type": "Feature", "properties": {"Name":"Brookview town","State":"Maryland","State_Abbrev":"MD"},
"geometry":{ "type": "Point", "coordinates": [-75.792963,38.574011]}},
{ "type": "Feature", "properties": {"Name":"Broomes Island CDP","State":"Maryland","State_Abbrev":"MD"},
"geometry":{ "type": "Point", "coordinates": [-76.548803,38.411433]}},
{ "type": "Feature", "properties": {"Name":"Brown Station CDP","State":"Maryland","State_Abbrev":"MD"},
"geometry":{ "type": "Point", "coordinates": [-76.797065,38.855332]}},
{ "type": "Feature", "properties": {"Name":"Brownsville CDP","State":"Maryland","State_Abbrev":"MD"},
"geometry":{ "type": "Point", "coordinates": [-77.661555,39.378174]}},
{ "type": "Feature", "properties": {"Name":"Brunswick city","State":"Maryland","State_Abbrev":"MD"},
"geometry":{ "type": "Point", "coordinates": [-77.62528,39.31799]}},
{ "type": "Feature", "properties": {"Name":"Bryans Road CDP","State":"Maryland","State_Abbrev":"MD"},
"geometry":{ "type": "Point", "coordinates": [-77.092279,38.6044]}},
{ "type": "Feature", "properties": {"Name":"Bryantown CDP","State":"Maryland","State_Abbrev":"MD"},
"geometry":{ "type": "Point", "coordinates": [-76.842182,38.548839]}},
{ "type": "Feature", "properties": {"Name":"Buckeystown CDP","State":"Maryland","State_Abbrev":"MD"},
"geometry":{ "type": "Point", "coordinates": [-77.428135,39.324138]}},
{ "type": "Feature", "properties": {"Name":"Burkittsville town","State":"Maryland","State_Abbrev":"MD"},
"geometry":{ "type": "Point", "coordinates": [-77.627788,39.393497]}},
{ "type": "Feature", "properties": {"Name":"Burnt Mills CDP","State":"Maryland","State_Abbrev":"MD"},
"geometry":{ "type": "Point", "coordinates": [-76.998272,39.033984]}},
{ "type": "Feature", "properties": {"Name":"Burtonsville CDP","State":"Maryland","State_Abbrev":"MD"},
"geometry":{ "type": "Point", "coordinates": [-76.936675,39.120921]}},
{ "type": "Feature", "properties": {"Name":"Butlertown CDP","State":"Maryland","State_Abbrev":"MD"},
"geometry":{ "type": "Point", "coordinates": [-76.099165,39.282194]}},
{ "type": "Feature", "properties": {"Name":"Cabin John CDP","State":"Maryland","State_Abbrev":"MD"},
"geometry":{ "type": "Point", "coordinates": [-77.163841,38.974014]}},
{ "type": "Feature", "properties": {"Name":"California CDP","State":"Maryland","State_Abbrev":"MD"},
"geometry":{ "type": "Point", "coordinates": [-76.492143,38.297599]}},
{ "type": "Feature", "properties": {"Name":"Callaway CDP","State":"Maryland","State_Abbrev":"MD"},
"geometry":{ "type": "Point", "coordinates": [-76.528932,38.233918]}},
{ "type": "Feature", "properties": {"Name":"Calvert Beach CDP","State":"Maryland","State_Abbrev":"MD"},
"geometry":{ "type": "Point", "coordinates": [-76.489676,38.472799]}},
{ "type": "Feature", "properties": {"Name":"Calverton CDP","State":"Maryland","State_Abbrev":"MD"},
"geometry":{ "type": "Point", "coordinates": [-76.950848,39.058085]}},
{ "type": "Feature", "properties": {"Name":"Cambridge city","State":"Maryland","State_Abbrev":"MD"},
"geometry":{ "type": "Point", "coordinates": [-76.077116,38.554063]}},
{ "type": "Feature", "properties": {"Name":"Camp Springs CDP","State":"Maryland","State_Abbrev":"MD"},
"geometry":{ "type": "Point", "coordinates": [-76.918565,38.805072]}},
{ "type": "Feature", "properties": {"Name":"Cape St. Claire CDP","State":"Maryland","State_Abbrev":"MD"},
"geometry":{ "type": "Point", "coordinates": [-76.445339,39.043634]}},
{ "type": "Feature", "properties": {"Name":"Capitol Heights town","State":"Maryland","State_Abbrev":"MD"},
"geometry":{ "type": "Point", "coordinates": [-76.907569,38.876687]}},
{ "type": "Feature", "properties": {"Name":"Carlos CDP","State":"Maryland","State_Abbrev":"MD"},
"geometry":{ "type": "Point", "coordinates": [-78.95668,39.623743]}},
{ "type": "Feature", "properties": {"Name":"Carney CDP","State":"Maryland","State_Abbrev":"MD"},
"geometry":{ "type": "Point", "coordinates": [-76.522725,39.404896]}},
{ "type": "Feature", "properties": {"Name":"Catonsville CDP","State":"Maryland","State_Abbrev":"MD"},
"geometry":{ "type": "Point", "coordinates": [-76.741694,39.264456]}},
{ "type": "Feature", "properties": {"Name":"Cavetown CDP","State":"Maryland","State_Abbrev":"MD"},
"geometry":{ "type": "Point", "coordinates": [-77.5932,39.642658]}},
{ "type": "Feature", "properties": {"Name":"Cearfoss CDP","State":"Maryland","State_Abbrev":"MD"},
"geometry":{ "type": "Point", "coordinates": [-77.77634,39.699133]}},
{ "type": "Feature", "properties": {"Name":"Cecilton town","State":"Maryland","State_Abbrev":"MD"},
"geometry":{ "type": "Point", "coordinates": [-75.867412,39.404824]}},
{ "type": "Feature", "properties": {"Name":"Cedar Heights CDP","State":"Maryland","State_Abbrev":"MD"},
"geometry":{ "type": "Point", "coordinates": [-76.905879,38.903738]}},
{ "type": "Feature", "properties": {"Name":"Cedarville CDP","State":"Maryland","State_Abbrev":"MD"},
"geometry":{ "type": "Point", "coordinates": [-76.82201,38.656912]}},
{ "type": "Feature", "properties": {"Name":"Centreville town","State":"Maryland","State_Abbrev":"MD"},
"geometry":{ "type": "Point", "coordinates": [-76.062538,39.042265]}},
{ "type": "Feature", "properties": {"Name":"Chance CDP","State":"Maryland","State_Abbrev":"MD"},
"geometry":{ "type": "Point", "coordinates": [-75.938788,38.17804]}},
{ "type": "Feature", "properties": {"Name":"Charlestown town","State":"Maryland","State_Abbrev":"MD"},
"geometry":{ "type": "Point", "coordinates": [-75.986712,39.582121]}},
{ "type": "Feature", "properties": {"Name":"Charlotte Hall CDP","State":"Maryland","State_Abbrev":"MD"},
"geometry":{ "type": "Point", "coordinates": [-76.782645,38.468236]}},
{ "type": "Feature", "properties": {"Name":"Charlton CDP","State":"Maryland","State_Abbrev":"MD"},
"geometry":{ "type": "Point", "coordinates": [-77.894364,39.634401]}},
{ "type": "Feature", "properties": {"Name":"Chesapeake Beach town","State":"Maryland","State_Abbrev":"MD"},
"geometry":{ "type": "Point", "coordinates": [-76.554404,38.689456]}},
{ "type": "Feature", "properties": {"Name":"Chesapeake City town","State":"Maryland","State_Abbrev":"MD"},
"geometry":{ "type": "Point", "coordinates": [-75.811653,39.527212]}},
{ "type": "Feature", "properties": {"Name":"Chesapeake Landing CDP","State":"Maryland","State_Abbrev":"MD"},
"geometry":{ "type": "Point", "coordinates": [-76.157236,39.269347]}},
{ "type": "Feature", "properties": {"Name":"Chesapeake Ranch Estates CDP","State":"Maryland","State_Abbrev":"MD"},
"geometry":{ "type": "Point", "coordinates": [-76.417351,38.357625]}},
{ "type": "Feature", "properties": {"Name":"Chester CDP","State":"Maryland","State_Abbrev":"MD"},
"geometry":{ "type": "Point", "coordinates": [-76.287616,38.960094]}},
{ "type": "Feature", "properties": {"Name":"Chestertown town","State":"Maryland","State_Abbrev":"MD"},
"geometry":{ "type": "Point", "coordinates": [-76.070517,39.220419]}},
{ "type": "Feature", "properties": {"Name":"Cheverly town","State":"Maryland","State_Abbrev":"MD"},
"geometry":{ "type": "Point", "coordinates": [-76.913468,38.925931]}},
{ "type": "Feature", "properties": {"Name":"Chevy Chase town","State":"Maryland","State_Abbrev":"MD"},
"geometry":{ "type": "Point", "coordinates": [-77.083197,38.981893]}},
{ "type": "Feature", "properties": {"Name":"Chevy Chase CDP","State":"Maryland","State_Abbrev":"MD"},
"geometry":{ "type": "Point", "coordinates": [-77.074905,38.992542]}},
{ "type": "Feature", "properties": {"Name":"Chevy Chase Section Five village","State":"Maryland","State_Abbrev":"MD"},
"geometry":{ "type": "Point", "coordinates": [-77.074027,38.98398]}},
{ "type": "Feature", "properties": {"Name":"Chevy Chase Section Three village","State":"Maryland","State_Abbrev":"MD"},
"geometry":{ "type": "Point", "coordinates": [-77.074187,38.979259]}},
{ "type": "Feature", "properties": {"Name":"Chevy Chase View town","State":"Maryland","State_Abbrev":"MD"},
"geometry":{ "type": "Point", "coordinates": [-77.081104,39.019201]}},
{ "type": "Feature", "properties": {"Name":"Chevy Chase Village town","State":"Maryland","State_Abbrev":"MD"},
"geometry":{ "type": "Point", "coordinates": [-77.07934,38.969781]}},
{ "type": "Feature", "properties": {"Name":"Chewsville CDP","State":"Maryland","State_Abbrev":"MD"},
"geometry":{ "type": "Point", "coordinates": [-77.631239,39.648415]}},
{ "type": "Feature", "properties": {"Name":"Chillum CDP","State":"Maryland","State_Abbrev":"MD"},
"geometry":{ "type": "Point", "coordinates": [-76.978885,38.966667]}},
{ "type": "Feature", "properties": {"Name":"Choptank CDP","State":"Maryland","State_Abbrev":"MD"},
"geometry":{ "type": "Point", "coordinates": [-75.949398,38.682282]}},
{ "type": "Feature", "properties": {"Name":"Church Creek town","State":"Maryland","State_Abbrev":"MD"},
"geometry":{ "type": "Point", "coordinates": [-76.15403,38.504888]}},
{ "type": "Feature", "properties": {"Name":"Church Hill town","State":"Maryland","State_Abbrev":"MD"},
"geometry":{ "type": "Point", "coordinates": [-75.98077,39.145]}},
{ "type": "Feature", "properties": {"Name":"Clarksburg CDP","State":"Maryland","State_Abbrev":"MD"},
"geometry":{ "type": "Point", "coordinates": [-77.266079,39.222893]}},
{ "type": "Feature", "properties": {"Name":"Clarysville CDP","State":"Maryland","State_Abbrev":"MD"},
"geometry":{ "type": "Point", "coordinates": [-78.888947,39.642026]}},
{ "type": "Feature", "properties": {"Name":"Clear Spring town","State":"Maryland","State_Abbrev":"MD"},
"geometry":{ "type": "Point", "coordinates": [-77.930373,39.65605]}},
{ "type": "Feature", "properties": {"Name":"Clinton CDP","State":"Maryland","State_Abbrev":"MD"},
"geometry":{ "type": "Point", "coordinates": [-76.902669,38.750917]}},
{ "type": "Feature", "properties": {"Name":"Cloverly CDP","State":"Maryland","State_Abbrev":"MD"},
"geometry":{ "type": "Point", "coordinates": [-76.994829,39.103947]}},
{ "type": "Feature", "properties": {"Name":"Cobb Island CDP","State":"Maryland","State_Abbrev":"MD"},
"geometry":{ "type": "Point", "coordinates": [-76.848986,38.263698]}},
{ "type": "Feature", "properties": {"Name":"Cockeysville CDP","State":"Maryland","State_Abbrev":"MD"},
"geometry":{ "type": "Point", "coordinates": [-76.630796,39.478003]}},
{ "type": "Feature", "properties": {"Name":"Colesville CDP","State":"Maryland","State_Abbrev":"MD"},
"geometry":{ "type": "Point", "coordinates": [-77.00058,39.07284]}},
{ "type": "Feature", "properties": {"Name":"College Park city","State":"Maryland","State_Abbrev":"MD"},
"geometry":{ "type": "Point", "coordinates": [-76.935594,38.996276]}},
{ "type": "Feature", "properties": {"Name":"Colmar Manor town","State":"Maryland","State_Abbrev":"MD"},
"geometry":{ "type": "Point", "coordinates": [-76.943842,38.926833]}},
{ "type": "Feature", "properties": {"Name":"Columbia CDP","State":"Maryland","State_Abbrev":"MD"},
"geometry":{ "type": "Point", "coordinates": [-76.85905,39.201146]}},
{ "type": "Feature", "properties": {"Name":"Coral Hills CDP","State":"Maryland","State_Abbrev":"MD"},
"geometry":{ "type": "Point", "coordinates": [-76.920979,38.872313]}},
{ "type": "Feature", "properties": {"Name":"Cordova CDP","State":"Maryland","State_Abbrev":"MD"},
"geometry":{ "type": "Point", "coordinates": [-75.998885,38.86801]}},
{ "type": "Feature", "properties": {"Name":"Corriganville CDP","State":"Maryland","State_Abbrev":"MD"},
"geometry":{ "type": "Point", "coordinates": [-78.79726,39.694646]}},
{ "type": "Feature", "properties": {"Name":"Cottage City town","State":"Maryland","State_Abbrev":"MD"},
"geometry":{ "type": "Point", "coordinates": [-76.949445,38.938399]}},
{ "type": "Feature", "properties": {"Name":"Crellin CDP","State":"Maryland","State_Abbrev":"MD"},
"geometry":{ "type": "Point", "coordinates": [-79.468471,39.388631]}},
{ "type": "Feature", "properties": {"Name":"Cresaptown CDP","State":"Maryland","State_Abbrev":"MD"},
"geometry":{ "type": "Point", "coordinates": [-78.83505,39.593506]}},
{ "type": "Feature", "properties": {"Name":"Crisfield city","State":"Maryland","State_Abbrev":"MD"},
"geometry":{ "type": "Point", "coordinates": [-75.854542,37.975457]}},
{ "type": "Feature", "properties": {"Name":"Crofton CDP","State":"Maryland","State_Abbrev":"MD"},
"geometry":{ "type": "Point", "coordinates": [-76.680007,39.014439]}},
{ "type": "Feature", "properties": {"Name":"Croom CDP","State":"Maryland","State_Abbrev":"MD"},
"geometry":{ "type": "Point", "coordinates": [-76.755192,38.739799]}},
{ "type": "Feature", "properties": {"Name":"Crownsville CDP","State":"Maryland","State_Abbrev":"MD"},
"geometry":{ "type": "Point", "coordinates": [-76.590377,39.022462]}},
{ "type": "Feature", "properties": {"Name":"Crumpton CDP","State":"Maryland","State_Abbrev":"MD"},
"geometry":{ "type": "Point", "coordinates": [-75.922049,39.233174]}},
{ "type": "Feature", "properties": {"Name":"Cumberland city","State":"Maryland","State_Abbrev":"MD"},
"geometry":{ "type": "Point", "coordinates": [-78.758378,39.651902]}},
{ "type": "Feature", "properties": {"Name":"Damascus CDP","State":"Maryland","State_Abbrev":"MD"},
"geometry":{ "type": "Point", "coordinates": [-77.196834,39.270995]}},
{ "type": "Feature", "properties": {"Name":"Dames Quarter CDP","State":"Maryland","State_Abbrev":"MD"},
"geometry":{ "type": "Point", "coordinates": [-75.890024,38.17292]}},
{ "type": "Feature", "properties": {"Name":"Danville CDP","State":"Maryland","State_Abbrev":"MD"},
"geometry":{ "type": "Point", "coordinates": [-78.917545,39.510165]}},
{ "type": "Feature", "properties": {"Name":"Dargan CDP","State":"Maryland","State_Abbrev":"MD"},
"geometry":{ "type": "Point", "coordinates": [-77.734045,39.376676]}},
{ "type": "Feature", "properties": {"Name":"Darlington CDP","State":"Maryland","State_Abbrev":"MD"},
"geometry":{ "type": "Point", "coordinates": [-76.203521,39.642448]}},
{ "type": "Feature", "properties": {"Name":"Darnestown CDP","State":"Maryland","State_Abbrev":"MD"},
"geometry":{ "type": "Point", "coordinates": [-77.311779,39.088709]}},
{ "type": "Feature", "properties": {"Name":"Dawson CDP","State":"Maryland","State_Abbrev":"MD"},
"geometry":{ "type": "Point", "coordinates": [-78.945207,39.477083]}},
{ "type": "Feature", "properties": {"Name":"Deale CDP","State":"Maryland","State_Abbrev":"MD"},
"geometry":{ "type": "Point", "coordinates": [-76.540708,38.786091]}},
{ "type": "Feature", "properties": {"Name":"Deal Island CDP","State":"Maryland","State_Abbrev":"MD"},
"geometry":{ "type": "Point", "coordinates": [-75.939954,38.152793]}},
{ "type": "Feature", "properties": {"Name":"Deer Park town","State":"Maryland","State_Abbrev":"MD"},
"geometry":{ "type": "Point", "coordinates": [-79.325986,39.423961]}},
{ "type": "Feature", "properties": {"Name":"Delmar town","State":"Maryland","State_Abbrev":"MD"},
"geometry":{ "type": "Point", "coordinates": [-75.560422,38.442149]}},
{ "type": "Feature", "properties": {"Name":"Denton town","State":"Maryland","State_Abbrev":"MD"},
"geometry":{ "type": "Point", "coordinates": [-75.824452,38.879421]}},
{ "type": "Feature", "properties": {"Name":"Derwood CDP","State":"Maryland","State_Abbrev":"MD"},
"geometry":{ "type": "Point", "coordinates": [-77.150228,39.114116]}},
{ "type": "Feature", "properties": {"Name":"Detmold CDP","State":"Maryland","State_Abbrev":"MD"},
"geometry":{ "type": "Point", "coordinates": [-78.991143,39.557365]}},
{ "type": "Feature", "properties": {"Name":"District Heights city","State":"Maryland","State_Abbrev":"MD"},
"geometry":{ "type": "Point", "coordinates": [-76.888436,38.858871]}},
{ "type": "Feature", "properties": {"Name":"Downsville CDP","State":"Maryland","State_Abbrev":"MD"},
"geometry":{ "type": "Point", "coordinates": [-77.80163,39.55482]}},
{ "type": "Feature", "properties": {"Name":"Drum Point CDP","State":"Maryland","State_Abbrev":"MD"},
"geometry":{ "type": "Point", "coordinates": [-76.435985,38.330395]}},
{ "type": "Feature", "properties": {"Name":"Dundalk CDP","State":"Maryland","State_Abbrev":"MD"},
"geometry":{ "type": "Point", "coordinates": [-76.496531,39.266824]}},
{ "type": "Feature", "properties": {"Name":"Dunkirk CDP","State":"Maryland","State_Abbrev":"MD"},
"geometry":{ "type": "Point", "coordinates": [-76.676782,38.718193]}},
{ "type": "Feature", "properties": {"Name":"Eagle Harbor town","State":"Maryland","State_Abbrev":"MD"},
"geometry":{ "type": "Point", "coordinates": [-76.687125,38.566453]}},
{ "type": "Feature", "properties": {"Name":"Eakles Mill CDP","State":"Maryland","State_Abbrev":"MD"},
"geometry":{ "type": "Point", "coordinates": [-77.68596,39.467067]}},
{ "type": "Feature", "properties": {"Name":"East New Market town","State":"Maryland","State_Abbrev":"MD"},
"geometry":{ "type": "Point", "coordinates": [-75.923126,38.597025]}},
{ "type": "Feature", "properties": {"Name":"Easton town","State":"Maryland","State_Abbrev":"MD"},
"geometry":{ "type": "Point", "coordinates": [-76.070478,38.776262]}},
{ "type": "Feature", "properties": {"Name":"East Riverdale CDP","State":"Maryland","State_Abbrev":"MD"},
"geometry":{ "type": "Point", "coordinates": [-76.91102,38.959762]}},
{ "type": "Feature", "properties": {"Name":"Eckhart Mines CDP","State":"Maryland","State_Abbrev":"MD"},
"geometry":{ "type": "Point", "coordinates": [-78.89411,39.655233]}},
{ "type": "Feature", "properties": {"Name":"Eden CDP","State":"Maryland","State_Abbrev":"MD"},
"geometry":{ "type": "Point", "coordinates": [-75.654776,38.278223]}},
{ "type": "Feature", "properties": {"Name":"Edesville CDP","State":"Maryland","State_Abbrev":"MD"},
"geometry":{ "type": "Point", "coordinates": [-76.207235,39.153861]}},
{ "type": "Feature", "properties": {"Name":"Edgemere CDP","State":"Maryland","State_Abbrev":"MD"},
"geometry":{ "type": "Point", "coordinates": [-76.456375,39.220671]}},
{ "type": "Feature", "properties": {"Name":"Edgemont CDP","State":"Maryland","State_Abbrev":"MD"},
"geometry":{ "type": "Point", "coordinates": [-77.546948,39.676611]}},
{ "type": "Feature", "properties": {"Name":"Edgewater CDP","State":"Maryland","State_Abbrev":"MD"},
"geometry":{ "type": "Point", "coordinates": [-76.551401,38.939653]}},
{ "type": "Feature", "properties": {"Name":"Edgewood CDP","State":"Maryland","State_Abbrev":"MD"},
"geometry":{ "type": "Point", "coordinates": [-76.296846,39.42029]}},
{ "type": "Feature", "properties": {"Name":"Edmonston town","State":"Maryland","State_Abbrev":"MD"},
"geometry":{ "type": "Point", "coordinates": [-76.932196,38.949965]}},
{ "type": "Feature", "properties": {"Name":"Eldersburg CDP","State":"Maryland","State_Abbrev":"MD"},
"geometry":{ "type": "Point", "coordinates": [-76.952585,39.404192]}},
{ "type": "Feature", "properties": {"Name":"Eldorado town","State":"Maryland","State_Abbrev":"MD"},
"geometry":{ "type": "Point", "coordinates": [-75.790281,38.58304]}},
{ "type": "Feature", "properties": {"Name":"Elkridge CDP","State":"Maryland","State_Abbrev":"MD"},
"geometry":{ "type": "Point", "coordinates": [-76.741082,39.195483]}},
{ "type": "Feature", "properties": {"Name":"Elkton town","State":"Maryland","State_Abbrev":"MD"},
"geometry":{ "type": "Point", "coordinates": [-75.821686,39.605776]}},
{ "type": "Feature", "properties": {"Name":"Ellerslie CDP","State":"Maryland","State_Abbrev":"MD"},
"geometry":{ "type": "Point", "coordinates": [-78.776181,39.713709]}},
{ "type": "Feature", "properties": {"Name":"Ellicott City CDP","State":"Maryland","State_Abbrev":"MD"},
"geometry":{ "type": "Point", "coordinates": [-76.833952,39.276691]}},
{ "type": "Feature", "properties": {"Name":"Elliott CDP","State":"Maryland","State_Abbrev":"MD"},
"geometry":{ "type": "Point", "coordinates": [-76.010718,38.308141]}},
{ "type": "Feature", "properties": {"Name":"Emmitsburg town","State":"Maryland","State_Abbrev":"MD"},
"geometry":{ "type": "Point", "coordinates": [-77.321301,39.705192]}},
{ "type": "Feature", "properties": {"Name":"Ernstville CDP","State":"Maryland","State_Abbrev":"MD"},
"geometry":{ "type": "Point", "coordinates": [-78.023955,39.630387]}},
{ "type": "Feature", "properties": {"Name":"Essex CDP","State":"Maryland","State_Abbrev":"MD"},
"geometry":{ "type": "Point", "coordinates": [-76.444426,39.301359]}},
{ "type": "Feature", "properties": {"Name":"Fairland CDP","State":"Maryland","State_Abbrev":"MD"},
"geometry":{ "type": "Point", "coordinates": [-76.952544,39.08085]}},
{ "type": "Feature", "properties": {"Name":"Fairlee CDP","State":"Maryland","State_Abbrev":"MD"},
"geometry":{ "type": "Point", "coordinates": [-76.166332,39.22587]}},
{ "type": "Feature", "properties": {"Name":"Fairmount CDP","State":"Maryland","State_Abbrev":"MD"},
"geometry":{ "type": "Point", "coordinates": [-75.820564,38.109765]}},
{ "type": "Feature", "properties": {"Name":"Fairmount Heights town","State":"Maryland","State_Abbrev":"MD"},
"geometry":{ "type": "Point", "coordinates": [-76.915339,38.901591]}},
{ "type": "Feature", "properties": {"Name":"Fairplay CDP","State":"Maryland","State_Abbrev":"MD"},
"geometry":{ "type": "Point", "coordinates": [-77.74631,39.53567]}},
{ "type": "Feature", "properties": {"Name":"Fairview CDP","State":"Maryland","State_Abbrev":"MD"},
"geometry":{ "type": "Point", "coordinates": [-77.840616,39.711079]}},
{ "type": "Feature", "properties": {"Name":"Fairwood CDP","State":"Maryland","State_Abbrev":"MD"},
"geometry":{ "type": "Point", "coordinates": [-76.776544,38.954713]}},
{ "type": "Feature", "properties": {"Name":"Fallston CDP","State":"Maryland","State_Abbrev":"MD"},
"geometry":{ "type": "Point", "coordinates": [-76.438545,39.533804]}},
{ "type": "Feature", "properties": {"Name":"Federalsburg town","State":"Maryland","State_Abbrev":"MD"},
"geometry":{ "type": "Point", "coordinates": [-75.772465,38.692265]}},
{ "type": "Feature", "properties": {"Name":"Ferndale CDP","State":"Maryland","State_Abbrev":"MD"},
"geometry":{ "type": "Point", "coordinates": [-76.633107,39.18696]}},
{ "type": "Feature", "properties": {"Name":"Finzel CDP","State":"Maryland","State_Abbrev":"MD"},
"geometry":{ "type": "Point", "coordinates": [-78.951997,39.701721]}},
{ "type": "Feature", "properties": {"Name":"Fishing Creek CDP","State":"Maryland","State_Abbrev":"MD"},
"geometry":{ "type": "Point", "coordinates": [-76.221683,38.336953]}},
{ "type": "Feature", "properties": {"Name":"Flintstone CDP","State":"Maryland","State_Abbrev":"MD"},
"geometry":{ "type": "Point", "coordinates": [-78.575786,39.703531]}},
{ "type": "Feature", "properties": {"Name":"Flower Hill CDP","State":"Maryland","State_Abbrev":"MD"},
"geometry":{ "type": "Point", "coordinates": [-77.184443,39.168443]}},
{ "type": "Feature", "properties": {"Name":"Forest Glen CDP","State":"Maryland","State_Abbrev":"MD"},
"geometry":{ "type": "Point", "coordinates": [-77.045085,39.018914]}},
{ "type": "Feature", "properties": {"Name":"Forest Heights town","State":"Maryland","State_Abbrev":"MD"},
"geometry":{ "type": "Point", "coordinates": [-77.011691,38.803776]}},
{ "type": "Feature", "properties": {"Name":"Forestville CDP","State":"Maryland","State_Abbrev":"MD"},
"geometry":{ "type": "Point", "coordinates": [-76.870765,38.851737]}},
{ "type": "Feature", "properties": {"Name":"Fort Meade CDP","State":"Maryland","State_Abbrev":"MD"},
"geometry":{ "type": "Point", "coordinates": [-76.743278,39.1057]}},
{ "type": "Feature", "properties": {"Name":"Fort Ritchie CDP","State":"Maryland","State_Abbrev":"MD"},
"geometry":{ "type": "Point", "coordinates": [-77.506386,39.703659]}},
{ "type": "Feature", "properties": {"Name":"Fort Washington CDP","State":"Maryland","State_Abbrev":"MD"},
"geometry":{ "type": "Point", "coordinates": [-77.008662,38.731868]}},
{ "type": "Feature", "properties": {"Name":"Fountainhead-Orchard Hills CDP","State":"Maryland","State_Abbrev":"MD"},
"geometry":{ "type": "Point", "coordinates": [-77.717298,39.687838]}},
{ "type": "Feature", "properties": {"Name":"Four Corners CDP","State":"Maryland","State_Abbrev":"MD"},
"geometry":{ "type": "Point", "coordinates": [-77.010204,39.023312]}},
{ "type": "Feature", "properties": {"Name":"Franklin CDP","State":"Maryland","State_Abbrev":"MD"},
"geometry":{ "type": "Point", "coordinates": [-79.051562,39.498927]}},
{ "type": "Feature", "properties": {"Name":"Frederick city","State":"Maryland","State_Abbrev":"MD"},
"geometry":{ "type": "Point", "coordinates": [-77.414539,39.434089]}},
{ "type": "Feature", "properties": {"Name":"Frenchtown-Rumbly CDP","State":"Maryland","State_Abbrev":"MD"},
"geometry":{ "type": "Point", "coordinates": [-75.853323,38.07445]}},
{ "type": "Feature", "properties": {"Name":"Friendly CDP","State":"Maryland","State_Abbrev":"MD"},
"geometry":{ "type": "Point", "coordinates": [-76.966952,38.760284]}},
{ "type": "Feature", "properties": {"Name":"Friendship CDP","State":"Maryland","State_Abbrev":"MD"},
"geometry":{ "type": "Point", "coordinates": [-76.58782,38.735845]}},
{ "type": "Feature", "properties": {"Name":"Friendship Heights Village CDP","State":"Maryland","State_Abbrev":"MD"},
"geometry":{ "type": "Point", "coordinates": [-77.089792,38.963311]}},
{ "type": "Feature", "properties": {"Name":"Friendsville town","State":"Maryland","State_Abbrev":"MD"},
"geometry":{ "type": "Point", "coordinates": [-79.404414,39.662448]}},
{ "type": "Feature", "properties": {"Name":"Frostburg city","State":"Maryland","State_Abbrev":"MD"},
"geometry":{ "type": "Point", "coordinates": [-78.926793,39.650523]}},
{ "type": "Feature", "properties": {"Name":"Fruitland city","State":"Maryland","State_Abbrev":"MD"},
"geometry":{ "type": "Point", "coordinates": [-75.626502,38.320393]}},
{ "type": "Feature", "properties": {"Name":"Fulton CDP","State":"Maryland","State_Abbrev":"MD"},
"geometry":{ "type": "Point", "coordinates": [-76.911629,39.15311]}},
{ "type": "Feature", "properties": {"Name":"Funkstown town","State":"Maryland","State_Abbrev":"MD"},
"geometry":{ "type": "Point", "coordinates": [-77.705172,39.606663]}},
{ "type": "Feature", "properties": {"Name":"Gaithersburg city","State":"Maryland","State_Abbrev":"MD"},
"geometry":{ "type": "Point", "coordinates": [-77.195131,39.148601]}},
{ "type": "Feature", "properties": {"Name":"Galena town","State":"Maryland","State_Abbrev":"MD"},
"geometry":{ "type": "Point", "coordinates": [-75.878656,39.342568]}},
{ "type": "Feature", "properties": {"Name":"Galestown town","State":"Maryland","State_Abbrev":"MD"},
"geometry":{ "type": "Point", "coordinates": [-75.715814,38.562606]}},
{ "type": "Feature", "properties": {"Name":"Galesville CDP","State":"Maryland","State_Abbrev":"MD"},
"geometry":{ "type": "Point", "coordinates": [-76.554368,38.84077]}},
{ "type": "Feature", "properties": {"Name":"Gambrills CDP","State":"Maryland","State_Abbrev":"MD"},
"geometry":{ "type": "Point", "coordinates": [-76.651034,39.092725]}},
{ "type": "Feature", "properties": {"Name":"Gapland CDP","State":"Maryland","State_Abbrev":"MD"},
"geometry":{ "type": "Point", "coordinates": [-77.658288,39.40196]}},
{ "type": "Feature", "properties": {"Name":"Garrett Park town","State":"Maryland","State_Abbrev":"MD"},
"geometry":{ "type": "Point", "coordinates": [-77.093547,39.036129]}},
{ "type": "Feature", "properties": {"Name":"Garretts Mill CDP","State":"Maryland","State_Abbrev":"MD"},
"geometry":{ "type": "Point", "coordinates": [-77.688911,39.353335]}},
{ "type": "Feature", "properties": {"Name":"Garrison CDP","State":"Maryland","State_Abbrev":"MD"},
"geometry":{ "type": "Point", "coordinates": [-76.751847,39.402274]}},
{ "type": "Feature", "properties": {"Name":"Georgetown CDP","State":"Maryland","State_Abbrev":"MD"},
"geometry":{ "type": "Point", "coordinates": [-76.191772,39.221577]}},
{ "type": "Feature", "properties": {"Name":"Germantown CDP","State":"Maryland","State_Abbrev":"MD"},
"geometry":{ "type": "Point", "coordinates": [-77.263754,39.174252]}},
{ "type": "Feature", "properties": {"Name":"Gilmore CDP","State":"Maryland","State_Abbrev":"MD"},
"geometry":{ "type": "Point", "coordinates": [-78.951127,39.58326]}},
{ "type": "Feature", "properties": {"Name":"Girdletree CDP","State":"Maryland","State_Abbrev":"MD"},
"geometry":{ "type": "Point", "coordinates": [-75.400257,38.098879]}},
{ "type": "Feature", "properties": {"Name":"Glassmanor CDP","State":"Maryland","State_Abbrev":"MD"},
"geometry":{ "type": "Point", "coordinates": [-76.983152,38.818138]}},
{ "type": "Feature", "properties": {"Name":"Glenarden city","State":"Maryland","State_Abbrev":"MD"},
"geometry":{ "type": "Point", "coordinates": [-76.857691,38.929288]}},
{ "type": "Feature", "properties": {"Name":"Glen Burnie CDP","State":"Maryland","State_Abbrev":"MD"},
"geometry":{ "type": "Point", "coordinates": [-76.606996,39.156271]}},
{ "type": "Feature", "properties": {"Name":"Glen Echo town","State":"Maryland","State_Abbrev":"MD"},
"geometry":{ "type": "Point", "coordinates": [-77.141101,38.968167]}},
{ "type": "Feature", "properties": {"Name":"Glenmont CDP","State":"Maryland","State_Abbrev":"MD"},
"geometry":{ "type": "Point", "coordinates": [-77.046628,39.070413]}},
{ "type": "Feature", "properties": {"Name":"Glenn Dale CDP","State":"Maryland","State_Abbrev":"MD"},
"geometry":{ "type": "Point", "coordinates": [-76.800322,38.984395]}},
{ "type": "Feature", "properties": {"Name":"Golden Beach CDP","State":"Maryland","State_Abbrev":"MD"},
"geometry":{ "type": "Point", "coordinates": [-76.700689,38.489734]}},
{ "type": "Feature", "properties": {"Name":"Goldsboro town","State":"Maryland","State_Abbrev":"MD"},
"geometry":{ "type": "Point", "coordinates": [-75.780955,39.030003]}},
{ "type": "Feature", "properties": {"Name":"Gorman CDP","State":"Maryland","State_Abbrev":"MD"},
"geometry":{ "type": "Point", "coordinates": [-79.35275,39.292702]}},
{ "type": "Feature", "properties": {"Name":"Graceham CDP","State":"Maryland","State_Abbrev":"MD"},
"geometry":{ "type": "Point", "coordinates": [-77.387024,39.617423]}},
{ "type": "Feature", "properties": {"Name":"Grahamtown CDP","State":"Maryland","State_Abbrev":"MD"},
"geometry":{ "type": "Point", "coordinates": [-78.922288,39.644861]}},
{ "type": "Feature", "properties": {"Name":"Grantsville town","State":"Maryland","State_Abbrev":"MD"},
"geometry":{ "type": "Point", "coordinates": [-79.152849,39.696916]}},
{ "type": "Feature", "properties": {"Name":"Grasonville CDP","State":"Maryland","State_Abbrev":"MD"},
"geometry":{ "type": "Point", "coordinates": [-76.197803,38.957459]}},
{ "type": "Feature", "properties": {"Name":"Greenbelt city","State":"Maryland","State_Abbrev":"MD"},
"geometry":{ "type": "Point", "coordinates": [-76.885399,38.99467]}},
{ "type": "Feature", "properties": {"Name":"Greensboro town","State":"Maryland","State_Abbrev":"MD"},
"geometry":{ "type": "Point", "coordinates": [-75.808076,38.976354]}},
{ "type": "Feature", "properties": {"Name":"Greensburg CDP","State":"Maryland","State_Abbrev":"MD"},
"geometry":{ "type": "Point", "coordinates": [-77.561545,39.68075]}},
{ "type": "Feature", "properties": {"Name":"Green Valley CDP","State":"Maryland","State_Abbrev":"MD"},
"geometry":{ "type": "Point", "coordinates": [-77.240301,39.341841]}},
{ "type": "Feature", "properties": {"Name":"Hagerstown city","State":"Maryland","State_Abbrev":"MD"},
"geometry":{ "type": "Point", "coordinates": [-77.722691,39.640182]}},
{ "type": "Feature", "properties": {"Name":"Halfway CDP","State":"Maryland","State_Abbrev":"MD"},
"geometry":{ "type": "Point", "coordinates": [-77.770111,39.615861]}},
{ "type": "Feature", "properties": {"Name":"Hampstead town","State":"Maryland","State_Abbrev":"MD"},
"geometry":{ "type": "Point", "coordinates": [-76.854801,39.614597]}},
{ "type": "Feature", "properties": {"Name":"Hampton CDP","State":"Maryland","State_Abbrev":"MD"},
"geometry":{ "type": "Point", "coordinates": [-76.566473,39.424788]}},
{ "type": "Feature", "properties": {"Name":"Hancock town","State":"Maryland","State_Abbrev":"MD"},
"geometry":{ "type": "Point", "coordinates": [-78.16327,39.704578]}},
{ "type": "Feature", "properties": {"Name":"Havre de Grace city","State":"Maryland","State_Abbrev":"MD"},
"geometry":{ "type": "Point", "coordinates": [-76.113576,39.546572]}},
{ "type": "Feature", "properties": {"Name":"Hebron town","State":"Maryland","State_Abbrev":"MD"},
"geometry":{ "type": "Point", "coordinates": [-75.687135,38.424257]}},
{ "type": "Feature", "properties": {"Name":"Henderson town","State":"Maryland","State_Abbrev":"MD"},
"geometry":{ "type": "Point", "coordinates": [-75.766077,39.074942]}},
{ "type": "Feature", "properties": {"Name":"Herald Harbor CDP","State":"Maryland","State_Abbrev":"MD"},
"geometry":{ "type": "Point", "coordinates": [-76.57492,39.051265]}},
{ "type": "Feature", "properties": {"Name":"Highfield-Cascade CDP","State":"Maryland","State_Abbrev":"MD"},
"geometry":{ "type": "Point", "coordinates": [-77.494566,39.713592]}},
{ "type": "Feature", "properties": {"Name":"Highland CDP","State":"Maryland","State_Abbrev":"MD"},
"geometry":{ "type": "Point", "coordinates": [-76.956731,39.187223]}},
{ "type": "Feature", "properties": {"Name":"Highland Beach town","State":"Maryland","State_Abbrev":"MD"},
"geometry":{ "type": "Point", "coordinates": [-76.467018,38.931139]}},
{ "type": "Feature", "properties": {"Name":"Hillandale CDP","State":"Maryland","State_Abbrev":"MD"},
"geometry":{ "type": "Point", "coordinates": [-76.975202,39.026341]}},
{ "type": "Feature", "properties": {"Name":"Hillcrest Heights CDP","State":"Maryland","State_Abbrev":"MD"},
"geometry":{ "type": "Point", "coordinates": [-76.970583,38.836453]}},
{ "type": "Feature", "properties": {"Name":"Hillsboro town","State":"Maryland","State_Abbrev":"MD"},
"geometry":{ "type": "Point", "coordinates": [-75.941779,38.917043]}},
{ "type": "Feature", "properties": {"Name":"Honeygo CDP","State":"Maryland","State_Abbrev":"MD"},
"geometry":{ "type": "Point", "coordinates": [-76.430016,39.404969]}},
{ "type": "Feature", "properties": {"Name":"Hughesville CDP","State":"Maryland","State_Abbrev":"MD"},
"geometry":{ "type": "Point", "coordinates": [-76.772789,38.53742]}},
{ "type": "Feature", "properties": {"Name":"Huntingtown CDP","State":"Maryland","State_Abbrev":"MD"},
"geometry":{ "type": "Point", "coordinates": [-76.62154,38.61235]}},
{ "type": "Feature", "properties": {"Name":"Hurlock town","State":"Maryland","State_Abbrev":"MD"},
"geometry":{ "type": "Point", "coordinates": [-75.867186,38.625712]}},
{ "type": "Feature", "properties": {"Name":"Hutton CDP","State":"Maryland","State_Abbrev":"MD"},
"geometry":{ "type": "Point", "coordinates": [-79.480044,39.414494]}},
{ "type": "Feature", "properties": {"Name":"Hyattsville city","State":"Maryland","State_Abbrev":"MD"},
"geometry":{ "type": "Point", "coordinates": [-76.954935,38.961205]}},
{ "type": "Feature", "properties": {"Name":"Ilchester CDP","State":"Maryland","State_Abbrev":"MD"},
"geometry":{ "type": "Point", "coordinates": [-76.762058,39.21611]}},
{ "type": "Feature", "properties": {"Name":"Indian Head town","State":"Maryland","State_Abbrev":"MD"},
"geometry":{ "type": "Point", "coordinates": [-77.155654,38.598622]}},
{ "type": "Feature", "properties": {"Name":"Indian Springs CDP","State":"Maryland","State_Abbrev":"MD"},
"geometry":{ "type": "Point", "coordinates": [-78.007402,39.645634]}},
{ "type": "Feature", "properties": {"Name":"Jarrettsville CDP","State":"Maryland","State_Abbrev":"MD"},
"geometry":{ "type": "Point", "coordinates": [-76.47241,39.600745]}},
{ "type": "Feature", "properties": {"Name":"Jefferson CDP","State":"Maryland","State_Abbrev":"MD"},
"geometry":{ "type": "Point", "coordinates": [-77.540671,39.365345]}},
{ "type": "Feature", "properties": {"Name":"Jennings CDP","State":"Maryland","State_Abbrev":"MD"},
"geometry":{ "type": "Point", "coordinates": [-79.183497,39.648657]}},
{ "type": "Feature", "properties": {"Name":"Jessup CDP","State":"Maryland","State_Abbrev":"MD"},
"geometry":{ "type": "Point", "coordinates": [-76.776388,39.149094]}},
{ "type": "Feature", "properties": {"Name":"Jesterville CDP","State":"Maryland","State_Abbrev":"MD"},
"geometry":{ "type": "Point", "coordinates": [-75.889929,38.290479]}},
{ "type": "Feature", "properties": {"Name":"Joppatowne CDP","State":"Maryland","State_Abbrev":"MD"},
"geometry":{ "type": "Point", "coordinates": [-76.352171,39.416594]}},
{ "type": "Feature", "properties": {"Name":"Jugtown CDP","State":"Maryland","State_Abbrev":"MD"},
"geometry":{ "type": "Point", "coordinates": [-77.5943,39.614277]}},
{ "type": "Feature", "properties": {"Name":"Keedysville town","State":"Maryland","State_Abbrev":"MD"},
"geometry":{ "type": "Point", "coordinates": [-77.697973,39.48669]}},
{ "type": "Feature", "properties": {"Name":"Kemp Mill CDP","State":"Maryland","State_Abbrev":"MD"},
"geometry":{ "type": "Point", "coordinates": [-77.021995,39.041101]}},
{ "type": "Feature", "properties": {"Name":"Kemps Mill CDP","State":"Maryland","State_Abbrev":"MD"},
"geometry":{ "type": "Point", "coordinates": [-77.813902,39.62687]}},
{ "type": "Feature", "properties": {"Name":"Kennedyville CDP","State":"Maryland","State_Abbrev":"MD"},
"geometry":{ "type": "Point", "coordinates": [-75.994244,39.303213]}},
{ "type": "Feature", "properties": {"Name":"Kensington town","State":"Maryland","State_Abbrev":"MD"},
"geometry":{ "type": "Point", "coordinates": [-77.07371,39.026837]}},
{ "type": "Feature", "properties": {"Name":"Kent Narrows CDP","State":"Maryland","State_Abbrev":"MD"},
"geometry":{ "type": "Point", "coordinates": [-76.243412,38.976483]}},
{ "type": "Feature", "properties": {"Name":"Kettering CDP","State":"Maryland","State_Abbrev":"MD"},
"geometry":{ "type": "Point", "coordinates": [-76.790302,38.889656]}},
{ "type": "Feature", "properties": {"Name":"Kingstown CDP","State":"Maryland","State_Abbrev":"MD"},
"geometry":{ "type": "Point", "coordinates": [-76.04391,39.207626]}},
{ "type": "Feature", "properties": {"Name":"Kingsville CDP","State":"Maryland","State_Abbrev":"MD"},
"geometry":{ "type": "Point", "coordinates": [-76.430345,39.451907]}},
{ "type": "Feature", "properties": {"Name":"Kitzmiller town","State":"Maryland","State_Abbrev":"MD"},
"geometry":{ "type": "Point", "coordinates": [-79.183284,39.389159]}},
{ "type": "Feature", "properties": {"Name":"Klondike CDP","State":"Maryland","State_Abbrev":"MD"},
"geometry":{ "type": "Point", "coordinates": [-78.96314,39.610247]}},
{ "type": "Feature", "properties": {"Name":"Konterra CDP","State":"Maryland","State_Abbrev":"MD"},
"geometry":{ "type": "Point", "coordinates": [-76.899575,39.080797]}},
{ "type": "Feature", "properties": {"Name":"Lake Arbor CDP","State":"Maryland","State_Abbrev":"MD"},
"geometry":{ "type": "Point", "coordinates": [-76.830236,38.90957]}},
{ "type": "Feature", "properties": {"Name":"Lake Shore CDP","State":"Maryland","State_Abbrev":"MD"},
"geometry":{ "type": "Point", "coordinates": [-76.489628,39.091978]}},
{ "type": "Feature", "properties": {"Name":"Landover CDP","State":"Maryland","State_Abbrev":"MD"},
"geometry":{ "type": "Point", "coordinates": [-76.887604,38.924395]}},
{ "type": "Feature", "properties": {"Name":"Landover Hills town","State":"Maryland","State_Abbrev":"MD"},
"geometry":{ "type": "Point", "coordinates": [-76.894505,38.942465]}},
{ "type": "Feature", "properties": {"Name":"Langley Park CDP","State":"Maryland","State_Abbrev":"MD"},
"geometry":{ "type": "Point", "coordinates": [-76.980742,38.989499]}},
{ "type": "Feature", "properties": {"Name":"Lanham CDP","State":"Maryland","State_Abbrev":"MD"},
"geometry":{ "type": "Point", "coordinates": [-76.839173,38.962124]}},
{ "type": "Feature", "properties": {"Name":"Lansdowne CDP","State":"Maryland","State_Abbrev":"MD"},
"geometry":{ "type": "Point", "coordinates": [-76.664629,39.235573]}},
{ "type": "Feature", "properties": {"Name":"La Plata town","State":"Maryland","State_Abbrev":"MD"},
"geometry":{ "type": "Point", "coordinates": [-76.96979,38.543467]}},
{ "type": "Feature", "properties": {"Name":"Largo CDP","State":"Maryland","State_Abbrev":"MD"},
"geometry":{ "type": "Point", "coordinates": [-76.829266,38.88035]}},
{ "type": "Feature", "properties": {"Name":"Laurel city","State":"Maryland","State_Abbrev":"MD"},
"geometry":{ "type": "Point", "coordinates": [-76.861245,39.095075]}},
{ "type": "Feature", "properties": {"Name":"La Vale CDP","State":"Maryland","State_Abbrev":"MD"},
"geometry":{ "type": "Point", "coordinates": [-78.826759,39.67164]}},
{ "type": "Feature", "properties": {"Name":"Layhill CDP","State":"Maryland","State_Abbrev":"MD"},
"geometry":{ "type": "Point", "coordinates": [-77.039971,39.089652]}},
{ "type": "Feature", "properties": {"Name":"Laytonsville town","State":"Maryland","State_Abbrev":"MD"},
"geometry":{ "type": "Point", "coordinates": [-77.135313,39.208748]}},
{ "type": "Feature", "properties": {"Name":"Leisure World CDP","State":"Maryland","State_Abbrev":"MD"},
"geometry":{ "type": "Point", "coordinates": [-77.069828,39.103035]}},
{ "type": "Feature", "properties": {"Name":"Leitersburg CDP","State":"Maryland","State_Abbrev":"MD"},
"geometry":{ "type": "Point", "coordinates": [-77.620642,39.692806]}},
{ "type": "Feature", "properties": {"Name":"Leonardtown town","State":"Maryland","State_Abbrev":"MD"},
"geometry":{ "type": "Point", "coordinates": [-76.639653,38.303891]}},
{ "type": "Feature", "properties": {"Name":"Lewistown CDP","State":"Maryland","State_Abbrev":"MD"},
"geometry":{ "type": "Point", "coordinates": [-77.420555,39.54021]}},
{ "type": "Feature", "properties": {"Name":"Lexington Park CDP","State":"Maryland","State_Abbrev":"MD"},
"geometry":{ "type": "Point", "coordinates": [-76.449373,38.252105]}},
{ "type": "Feature", "properties": {"Name":"Libertytown CDP","State":"Maryland","State_Abbrev":"MD"},
"geometry":{ "type": "Point", "coordinates": [-77.256919,39.48911]}},
{ "type": "Feature", "properties": {"Name":"Linganore CDP","State":"Maryland","State_Abbrev":"MD"},
"geometry":{ "type": "Point", "coordinates": [-77.301232,39.413664]}},
{ "type": "Feature", "properties": {"Name":"Linthicum CDP","State":"Maryland","State_Abbrev":"MD"},
"geometry":{ "type": "Point", "coordinates": [-76.664741,39.209567]}},
{ "type": "Feature", "properties": {"Name":"Lisbon CDP","State":"Maryland","State_Abbrev":"MD"},
"geometry":{ "type": "Point", "coordinates": [-77.070491,39.336634]}},
{ "type": "Feature", "properties": {"Name":"Little Orleans CDP","State":"Maryland","State_Abbrev":"MD"},
"geometry":{ "type": "Point", "coordinates": [-78.395843,39.630509]}},
{ "type": "Feature", "properties": {"Name":"Lochearn CDP","State":"Maryland","State_Abbrev":"MD"},
"geometry":{ "type": "Point", "coordinates": [-76.727214,39.34793]}},
{ "type": "Feature", "properties": {"Name":"Loch Lynn Heights town","State":"Maryland","State_Abbrev":"MD"},
"geometry":{ "type": "Point", "coordinates": [-79.372671,39.391832]}},
{ "type": "Feature", "properties": {"Name":"Lonaconing town","State":"Maryland","State_Abbrev":"MD"},
"geometry":{ "type": "Point", "coordinates": [-78.978791,39.565581]}},
{ "type": "Feature", "properties": {"Name":"Long Beach CDP","State":"Maryland","State_Abbrev":"MD"},
"geometry":{ "type": "Point", "coordinates": [-76.473643,38.45884]}},
{ "type": "Feature", "properties": {"Name":"Luke town","State":"Maryland","State_Abbrev":"MD"},
"geometry":{ "type": "Point", "coordinates": [-79.058903,39.478781]}},
{ "type": "Feature", "properties": {"Name":"Lusby CDP","State":"Maryland","State_Abbrev":"MD"},
"geometry":{ "type": "Point", "coordinates": [-76.437915,38.362356]}},
{ "type": "Feature", "properties": {"Name":"Lutherville CDP","State":"Maryland","State_Abbrev":"MD"},
"geometry":{ "type": "Point", "coordinates": [-76.61767,39.423965]}},
{ "type": "Feature", "properties": {"Name":"McCoole CDP","State":"Maryland","State_Abbrev":"MD"},
"geometry":{ "type": "Point", "coordinates": [-78.973088,39.453357]}},
{ "type": "Feature", "properties": {"Name":"Madison CDP","State":"Maryland","State_Abbrev":"MD"},
"geometry":{ "type": "Point", "coordinates": [-76.204222,38.508928]}},
{ "type": "Feature", "properties": {"Name":"Manchester town","State":"Maryland","State_Abbrev":"MD"},
"geometry":{ "type": "Point", "coordinates": [-76.886735,39.653159]}},
{ "type": "Feature", "properties": {"Name":"Mapleville CDP","State":"Maryland","State_Abbrev":"MD"},
"geometry":{ "type": "Point", "coordinates": [-77.646244,39.535702]}},
{ "type": "Feature", "properties": {"Name":"Mardela Springs town","State":"Maryland","State_Abbrev":"MD"},
"geometry":{ "type": "Point", "coordinates": [-75.757123,38.459517]}},
{ "type": "Feature", "properties": {"Name":"Marlboro Meadows CDP","State":"Maryland","State_Abbrev":"MD"},
"geometry":{ "type": "Point", "coordinates": [-76.711958,38.841853]}},
{ "type": "Feature", "properties": {"Name":"Marlboro Village CDP","State":"Maryland","State_Abbrev":"MD"},
"geometry":{ "type": "Point", "coordinates": [-76.768824,38.834902]}},
{ "type": "Feature", "properties": {"Name":"Marlow Heights CDP","State":"Maryland","State_Abbrev":"MD"},
"geometry":{ "type": "Point", "coordinates": [-76.944294,38.821119]}},
{ "type": "Feature", "properties": {"Name":"Marlton CDP","State":"Maryland","State_Abbrev":"MD"},
"geometry":{ "type": "Point", "coordinates": [-76.786536,38.761088]}},
{ "type": "Feature", "properties": {"Name":"Martin's Additions village","State":"Maryland","State_Abbrev":"MD"},
"geometry":{ "type": "Point", "coordinates": [-77.069235,38.979552]}},
{ "type": "Feature", "properties": {"Name":"Marydel town","State":"Maryland","State_Abbrev":"MD"},
"geometry":{ "type": "Point", "coordinates": [-75.74951,39.113071]}},
{ "type": "Feature", "properties": {"Name":"Maryland City CDP","State":"Maryland","State_Abbrev":"MD"},
"geometry":{ "type": "Point", "coordinates": [-76.805188,39.101609]}},
{ "type": "Feature", "properties": {"Name":"Maryland Park CDP","State":"Maryland","State_Abbrev":"MD"},
"geometry":{ "type": "Point", "coordinates": [-76.907551,38.889009]}},
{ "type": "Feature", "properties": {"Name":"Maugansville CDP","State":"Maryland","State_Abbrev":"MD"},
"geometry":{ "type": "Point", "coordinates": [-77.747151,39.693681]}},
{ "type": "Feature", "properties": {"Name":"Mayo CDP","State":"Maryland","State_Abbrev":"MD"},
"geometry":{ "type": "Point", "coordinates": [-76.512842,38.904436]}},
{ "type": "Feature", "properties": {"Name":"Mays Chapel CDP","State":"Maryland","State_Abbrev":"MD"},
"geometry":{ "type": "Point", "coordinates": [-76.649846,39.432719]}},
{ "type": "Feature", "properties": {"Name":"Mechanicsville CDP","State":"Maryland","State_Abbrev":"MD"},
"geometry":{ "type": "Point", "coordinates": [-76.74664,38.42743]}},
{ "type": "Feature", "properties": {"Name":"Melwood CDP","State":"Maryland","State_Abbrev":"MD"},
"geometry":{ "type": "Point", "coordinates": [-76.841624,38.801893]}},
{ "type": "Feature", "properties": {"Name":"Mercersville CDP","State":"Maryland","State_Abbrev":"MD"},
"geometry":{ "type": "Point", "coordinates": [-77.765825,39.49921]}},
{ "type": "Feature", "properties": {"Name":"Middleburg CDP","State":"Maryland","State_Abbrev":"MD"},
"geometry":{ "type": "Point", "coordinates": [-77.723878,39.71768]}},
{ "type": "Feature", "properties": {"Name":"Middle River CDP","State":"Maryland","State_Abbrev":"MD"},
"geometry":{ "type": "Point", "coordinates": [-76.428702,39.339519]}},
{ "type": "Feature", "properties": {"Name":"Middletown town","State":"Maryland","State_Abbrev":"MD"},
"geometry":{ "type": "Point", "coordinates": [-77.535216,39.44134]}},
{ "type": "Feature", "properties": {"Name":"Midland town","State":"Maryland","State_Abbrev":"MD"},
"geometry":{ "type": "Point", "coordinates": [-78.9487,39.589623]}},
{ "type": "Feature", "properties": {"Name":"Midlothian CDP","State":"Maryland","State_Abbrev":"MD"},
"geometry":{ "type": "Point", "coordinates": [-78.951501,39.631868]}},
{ "type": "Feature", "properties": {"Name":"Milford Mill CDP","State":"Maryland","State_Abbrev":"MD"},
"geometry":{ "type": "Point", "coordinates": [-76.769409,39.348002]}},
{ "type": "Feature", "properties": {"Name":"Millington town","State":"Maryland","State_Abbrev":"MD"},
"geometry":{ "type": "Point", "coordinates": [-75.842031,39.256599]}},
{ "type": "Feature", "properties": {"Name":"Mitchellville CDP","State":"Maryland","State_Abbrev":"MD"},
"geometry":{ "type": "Point", "coordinates": [-76.808246,38.936432]}},
{ "type": "Feature", "properties": {"Name":"Monrovia CDP","State":"Maryland","State_Abbrev":"MD"},
"geometry":{ "type": "Point", "coordinates": [-77.274891,39.359462]}},
{ "type": "Feature", "properties": {"Name":"Montgomery Village CDP","State":"Maryland","State_Abbrev":"MD"},
"geometry":{ "type": "Point", "coordinates": [-77.205143,39.188512]}},
{ "type": "Feature", "properties": {"Name":"Morningside town","State":"Maryland","State_Abbrev":"MD"},
"geometry":{ "type": "Point", "coordinates": [-76.889622,38.826589]}},
{ "type": "Feature", "properties": {"Name":"Moscow CDP","State":"Maryland","State_Abbrev":"MD"},
"geometry":{ "type": "Point", "coordinates": [-79.009674,39.538292]}},
{ "type": "Feature", "properties": {"Name":"Mount Aetna CDP","State":"Maryland","State_Abbrev":"MD"},
"geometry":{ "type": "Point", "coordinates": [-77.612768,39.59888]}},
{ "type": "Feature", "properties": {"Name":"Mountain Lake Park town","State":"Maryland","State_Abbrev":"MD"},
"geometry":{ "type": "Point", "coordinates": [-79.381051,39.40003]}},
{ "type": "Feature", "properties": {"Name":"Mount Airy town","State":"Maryland","State_Abbrev":"MD"},
"geometry":{ "type": "Point", "coordinates": [-77.153807,39.374693]}},
{ "type": "Feature", "properties": {"Name":"Mount Briar CDP","State":"Maryland","State_Abbrev":"MD"},
"geometry":{ "type": "Point", "coordinates": [-77.687346,39.442571]}},
{ "type": "Feature", "properties": {"Name":"Mount Lena CDP","State":"Maryland","State_Abbrev":"MD"},
"geometry":{ "type": "Point", "coordinates": [-77.621891,39.554029]}},
{ "type": "Feature", "properties": {"Name":"Mount Rainier city","State":"Maryland","State_Abbrev":"MD"},
"geometry":{ "type": "Point", "coordinates": [-76.964578,38.942361]}},
{ "type": "Feature", "properties": {"Name":"Mount Savage CDP","State":"Maryland","State_Abbrev":"MD"},
"geometry":{ "type": "Point", "coordinates": [-78.876833,39.696684]}},
{ "type": "Feature", "properties": {"Name":"Mount Vernon CDP","State":"Maryland","State_Abbrev":"MD"},
"geometry":{ "type": "Point", "coordinates": [-75.785308,38.239562]}},
{ "type": "Feature", "properties": {"Name":"Myersville town","State":"Maryland","State_Abbrev":"MD"},
"geometry":{ "type": "Point", "coordinates": [-77.571363,39.510233]}},
{ "type": "Feature", "properties": {"Name":"Nanticoke CDP","State":"Maryland","State_Abbrev":"MD"},
"geometry":{ "type": "Point", "coordinates": [-75.886973,38.265488]}},
{ "type": "Feature", "properties": {"Name":"Nanticoke Acres CDP","State":"Maryland","State_Abbrev":"MD"},
"geometry":{ "type": "Point", "coordinates": [-75.905841,38.257873]}},
{ "type": "Feature", "properties": {"Name":"National CDP","State":"Maryland","State_Abbrev":"MD"},
"geometry":{ "type": "Point", "coordinates": [-78.940444,39.611928]}},
{ "type": "Feature", "properties": {"Name":"National Harbor CDP","State":"Maryland","State_Abbrev":"MD"},
"geometry":{ "type": "Point", "coordinates": [-77.008114,38.783231]}},
{ "type": "Feature", "properties": {"Name":"Naval Academy CDP","State":"Maryland","State_Abbrev":"MD"},
"geometry":{ "type": "Point", "coordinates": [-76.482628,38.984784]}},
{ "type": "Feature", "properties": {"Name":"Newark CDP","State":"Maryland","State_Abbrev":"MD"},
"geometry":{ "type": "Point", "coordinates": [-75.288638,38.268109]}},
{ "type": "Feature", "properties": {"Name":"New Carrollton city","State":"Maryland","State_Abbrev":"MD"},
"geometry":{ "type": "Point", "coordinates": [-76.877516,38.965593]}},
{ "type": "Feature", "properties": {"Name":"New Market town","State":"Maryland","State_Abbrev":"MD"},
"geometry":{ "type": "Point", "coordinates": [-77.285449,39.394636]}},
{ "type": "Feature", "properties": {"Name":"New Windsor town","State":"Maryland","State_Abbrev":"MD"},
"geometry":{ "type": "Point", "coordinates": [-77.099154,39.542947]}},
{ "type": "Feature", "properties": {"Name":"Nikep CDP","State":"Maryland","State_Abbrev":"MD"},
"geometry":{ "type": "Point", "coordinates": [-78.99773,39.551568]}},
{ "type": "Feature", "properties": {"Name":"North Beach town","State":"Maryland","State_Abbrev":"MD"},
"geometry":{ "type": "Point", "coordinates": [-76.5345,38.707736]}},
{ "type": "Feature", "properties": {"Name":"North Bethesda CDP","State":"Maryland","State_Abbrev":"MD"},
"geometry":{ "type": "Point", "coordinates": [-77.120336,39.036753]}},
{ "type": "Feature", "properties": {"Name":"North Brentwood town","State":"Maryland","State_Abbrev":"MD"},
"geometry":{ "type": "Point", "coordinates": [-76.950742,38.944806]}},
{ "type": "Feature", "properties": {"Name":"North Chevy Chase village","State":"Maryland","State_Abbrev":"MD"},
"geometry":{ "type": "Point", "coordinates": [-77.074145,39.002145]}},
{ "type": "Feature", "properties": {"Name":"North East town","State":"Maryland","State_Abbrev":"MD"},
"geometry":{ "type": "Point", "coordinates": [-75.941655,39.608037]}},
{ "type": "Feature", "properties": {"Name":"North Kensington CDP","State":"Maryland","State_Abbrev":"MD"},
"geometry":{ "type": "Point", "coordinates": [-77.071562,39.039196]}},
{ "type": "Feature", "properties": {"Name":"North Laurel CDP","State":"Maryland","State_Abbrev":"MD"},
"geometry":{ "type": "Point", "coordinates": [-76.846597,39.128849]}},
{ "type": "Feature", "properties": {"Name":"North Potomac CDP","State":"Maryland","State_Abbrev":"MD"},
"geometry":{ "type": "Point", "coordinates": [-77.238503,39.09677]}},
{ "type": "Feature", "properties": {"Name":"Oakland town","State":"Maryland","State_Abbrev":"MD"},
"geometry":{ "type": "Point", "coordinates": [-79.402352,39.417143]}},
{ "type": "Feature", "properties": {"Name":"Ocean CDP","State":"Maryland","State_Abbrev":"MD"},
"geometry":{ "type": "Point", "coordinates": [-78.945033,39.601533]}},
{ "type": "Feature", "properties": {"Name":"Ocean City town","State":"Maryland","State_Abbrev":"MD"},
"geometry":{ "type": "Point", "coordinates": [-75.071208,38.393125]}},
{ "type": "Feature", "properties": {"Name":"Ocean Pines CDP","State":"Maryland","State_Abbrev":"MD"},
"geometry":{ "type": "Point", "coordinates": [-75.148009,38.384784]}},
{ "type": "Feature", "properties": {"Name":"Odenton CDP","State":"Maryland","State_Abbrev":"MD"},
"geometry":{ "type": "Point", "coordinates": [-76.693788,39.06614]}},
{ "type": "Feature", "properties": {"Name":"Oldtown CDP","State":"Maryland","State_Abbrev":"MD"},
"geometry":{ "type": "Point", "coordinates": [-78.614743,39.544966]}},
{ "type": "Feature", "properties": {"Name":"Olney CDP","State":"Maryland","State_Abbrev":"MD"},
"geometry":{ "type": "Point", "coordinates": [-77.071429,39.14434]}},
{ "type": "Feature", "properties": {"Name":"Overlea CDP","State":"Maryland","State_Abbrev":"MD"},
"geometry":{ "type": "Point", "coordinates": [-76.517548,39.364143]}},
{ "type": "Feature", "properties": {"Name":"Owings CDP","State":"Maryland","State_Abbrev":"MD"},
"geometry":{ "type": "Point", "coordinates": [-76.603723,38.711906]}},
{ "type": "Feature", "properties": {"Name":"Owings Mills CDP","State":"Maryland","State_Abbrev":"MD"},
"geometry":{ "type": "Point", "coordinates": [-76.789371,39.410494]}},
{ "type": "Feature", "properties": {"Name":"Oxford town","State":"Maryland","State_Abbrev":"MD"},
"geometry":{ "type": "Point", "coordinates": [-76.168182,38.687407]}},
{ "type": "Feature", "properties": {"Name":"Oxon Hill CDP","State":"Maryland","State_Abbrev":"MD"},
"geometry":{ "type": "Point", "coordinates": [-76.971864,38.788793]}},
{ "type": "Feature", "properties": {"Name":"Paramount-Long Meadow CDP","State":"Maryland","State_Abbrev":"MD"},
"geometry":{ "type": "Point", "coordinates": [-77.692106,39.679776]}},
{ "type": "Feature", "properties": {"Name":"Parkville CDP","State":"Maryland","State_Abbrev":"MD"},
"geometry":{ "type": "Point", "coordinates": [-76.551876,39.383198]}},
{ "type": "Feature", "properties": {"Name":"Parole CDP","State":"Maryland","State_Abbrev":"MD"},
"geometry":{ "type": "Point", "coordinates": [-76.552716,38.987941]}},
{ "type": "Feature", "properties": {"Name":"Parsonsburg CDP","State":"Maryland","State_Abbrev":"MD"},
"geometry":{ "type": "Point", "coordinates": [-75.479581,38.391673]}},
{ "type": "Feature", "properties": {"Name":"Pasadena CDP","State":"Maryland","State_Abbrev":"MD"},
"geometry":{ "type": "Point", "coordinates": [-76.559807,39.155703]}},
{ "type": "Feature", "properties": {"Name":"Pecktonville CDP","State":"Maryland","State_Abbrev":"MD"},
"geometry":{ "type": "Point", "coordinates": [-78.048184,39.665971]}},
{ "type": "Feature", "properties": {"Name":"Peppermill Village CDP","State":"Maryland","State_Abbrev":"MD"},
"geometry":{ "type": "Point", "coordinates": [-76.887694,38.893998]}},
{ "type": "Feature", "properties": {"Name":"Perry Hall CDP","State":"Maryland","State_Abbrev":"MD"},
"geometry":{ "type": "Point", "coordinates": [-76.477793,39.406741]}},
{ "type": "Feature", "properties": {"Name":"Perryman CDP","State":"Maryland","State_Abbrev":"MD"},
"geometry":{ "type": "Point", "coordinates": [-76.215865,39.464679]}},
{ "type": "Feature", "properties": {"Name":"Perryville town","State":"Maryland","State_Abbrev":"MD"},
"geometry":{ "type": "Point", "coordinates": [-76.064923,39.572968]}},
{ "type": "Feature", "properties": {"Name":"Pikesville CDP","State":"Maryland","State_Abbrev":"MD"},
"geometry":{ "type": "Point", "coordinates": [-76.699634,39.391773]}},
{ "type": "Feature", "properties": {"Name":"Pinesburg CDP","State":"Maryland","State_Abbrev":"MD"},
"geometry":{ "type": "Point", "coordinates": [-77.856121,39.626891]}},
{ "type": "Feature", "properties": {"Name":"Piney Point CDP","State":"Maryland","State_Abbrev":"MD"},
"geometry":{ "type": "Point", "coordinates": [-76.522283,38.147854]}},
{ "type": "Feature", "properties": {"Name":"Pittsville town","State":"Maryland","State_Abbrev":"MD"},
"geometry":{ "type": "Point", "coordinates": [-75.407178,38.394002]}},
{ "type": "Feature", "properties": {"Name":"Pleasant Grove CDP","State":"Maryland","State_Abbrev":"MD"},
"geometry":{ "type": "Point", "coordinates": [-78.690514,39.680201]}},
{ "type": "Feature", "properties": {"Name":"Pleasant Hills CDP","State":"Maryland","State_Abbrev":"MD"},
"geometry":{ "type": "Point", "coordinates": [-76.393933,39.486182]}},
{ "type": "Feature", "properties": {"Name":"Pocomoke City city","State":"Maryland","State_Abbrev":"MD"},
"geometry":{ "type": "Point", "coordinates": [-75.559199,38.063177]}},
{ "type": "Feature", "properties": {"Name":"Point of Rocks CDP","State":"Maryland","State_Abbrev":"MD"},
"geometry":{ "type": "Point", "coordinates": [-77.529101,39.278194]}},
{ "type": "Feature", "properties": {"Name":"Pomfret CDP","State":"Maryland","State_Abbrev":"MD"},
"geometry":{ "type": "Point", "coordinates": [-77.030372,38.569904]}},
{ "type": "Feature", "properties": {"Name":"Pondsville CDP","State":"Maryland","State_Abbrev":"MD"},
"geometry":{ "type": "Point", "coordinates": [-77.591619,39.62341]}},
{ "type": "Feature", "properties": {"Name":"Poolesville town","State":"Maryland","State_Abbrev":"MD"},
"geometry":{ "type": "Point", "coordinates": [-77.410508,39.141827]}},
{ "type": "Feature", "properties": {"Name":"Port Deposit town","State":"Maryland","State_Abbrev":"MD"},
"geometry":{ "type": "Point", "coordinates": [-76.098074,39.610566]}},
{ "type": "Feature", "properties": {"Name":"Port Tobacco Village town","State":"Maryland","State_Abbrev":"MD"},
"geometry":{ "type": "Point", "coordinates": [-77.020487,38.512292]}},
{ "type": "Feature", "properties": {"Name":"Potomac CDP","State":"Maryland","State_Abbrev":"MD"},
"geometry":{ "type": "Point", "coordinates": [-77.193579,39.013332]}},
{ "type": "Feature", "properties": {"Name":"Potomac Heights CDP","State":"Maryland","State_Abbrev":"MD"},
"geometry":{ "type": "Point", "coordinates": [-77.132328,38.598207]}},
{ "type": "Feature", "properties": {"Name":"Potomac Park CDP","State":"Maryland","State_Abbrev":"MD"},
"geometry":{ "type": "Point", "coordinates": [-78.808251,39.612588]}},
{ "type": "Feature", "properties": {"Name":"Powellville CDP","State":"Maryland","State_Abbrev":"MD"},
"geometry":{ "type": "Point", "coordinates": [-75.374698,38.330069]}},
{ "type": "Feature", "properties": {"Name":"Preston town","State":"Maryland","State_Abbrev":"MD"},
"geometry":{ "type": "Point", "coordinates": [-75.907528,38.710212]}},
{ "type": "Feature", "properties": {"Name":"Prince Frederick CDP","State":"Maryland","State_Abbrev":"MD"},
"geometry":{ "type": "Point", "coordinates": [-76.587906,38.543791]}},
{ "type": "Feature", "properties": {"Name":"Princess Anne town","State":"Maryland","State_Abbrev":"MD"},
"geometry":{ "type": "Point", "coordinates": [-75.696384,38.205137]}},
{ "type": "Feature", "properties": {"Name":"Pylesville CDP","State":"Maryland","State_Abbrev":"MD"},
"geometry":{ "type": "Point", "coordinates": [-76.388427,39.687921]}},
{ "type": "Feature", "properties": {"Name":"Quantico CDP","State":"Maryland","State_Abbrev":"MD"},
"geometry":{ "type": "Point", "coordinates": [-75.755014,38.379983]}},
{ "type": "Feature", "properties": {"Name":"Queen Anne CDP","State":"Maryland","State_Abbrev":"MD"},
"geometry":{ "type": "Point", "coordinates": [-76.706271,38.906451]}},
{ "type": "Feature", "properties": {"Name":"Queen Anne town","State":"Maryland","State_Abbrev":"MD"},
"geometry":{ "type": "Point", "coordinates": [-75.953567,38.91907]}},
{ "type": "Feature", "properties": {"Name":"Queensland CDP","State":"Maryland","State_Abbrev":"MD"},
"geometry":{ "type": "Point", "coordinates": [-76.795634,38.795192]}},
{ "type": "Feature", "properties": {"Name":"Queenstown town","State":"Maryland","State_Abbrev":"MD"},
"geometry":{ "type": "Point", "coordinates": [-76.163342,38.986731]}},
{ "type": "Feature", "properties": {"Name":"Randallstown CDP","State":"Maryland","State_Abbrev":"MD"},
"geometry":{ "type": "Point", "coordinates": [-76.801926,39.371868]}},
{ "type": "Feature", "properties": {"Name":"Rawlings CDP","State":"Maryland","State_Abbrev":"MD"},
"geometry":{ "type": "Point", "coordinates": [-78.886762,39.539229]}},
{ "type": "Feature", "properties": {"Name":"Redland CDP","State":"Maryland","State_Abbrev":"MD"},
"geometry":{ "type": "Point", "coordinates": [-77.145448,39.132868]}},
{ "type": "Feature", "properties": {"Name":"Reid CDP","State":"Maryland","State_Abbrev":"MD"},
"geometry":{ "type": "Point", "coordinates": [-77.679313,39.712508]}},
{ "type": "Feature", "properties": {"Name":"Reisterstown CDP","State":"Maryland","State_Abbrev":"MD"},
"geometry":{ "type": "Point", "coordinates": [-76.816023,39.454112]}},
{ "type": "Feature", "properties": {"Name":"Ridgely town","State":"Maryland","State_Abbrev":"MD"},
"geometry":{ "type": "Point", "coordinates": [-75.882704,38.952933]}},
{ "type": "Feature", "properties": {"Name":"Ringgold CDP","State":"Maryland","State_Abbrev":"MD"},
"geometry":{ "type": "Point", "coordinates": [-77.568892,39.709169]}},
{ "type": "Feature", "properties": {"Name":"Rising Sun town","State":"Maryland","State_Abbrev":"MD"},
"geometry":{ "type": "Point", "coordinates": [-76.060181,39.701401]}},
{ "type": "Feature", "properties": {"Name":"Riva CDP","State":"Maryland","State_Abbrev":"MD"},
"geometry":{ "type": "Point", "coordinates": [-76.589928,38.945219]}},
{ "type": "Feature", "properties": {"Name":"Riverdale Park town","State":"Maryland","State_Abbrev":"MD"},
"geometry":{ "type": "Point", "coordinates": [-76.92715,38.966707]}},
{ "type": "Feature", "properties": {"Name":"Riverside CDP","State":"Maryland","State_Abbrev":"MD"},
"geometry":{ "type": "Point", "coordinates": [-76.241866,39.480652]}},
{ "type": "Feature", "properties": {"Name":"Riviera Beach CDP","State":"Maryland","State_Abbrev":"MD"},
"geometry":{ "type": "Point", "coordinates": [-76.527418,39.164543]}},
{ "type": "Feature", "properties": {"Name":"Robinwood CDP","State":"Maryland","State_Abbrev":"MD"},
"geometry":{ "type": "Point", "coordinates": [-77.662668,39.62647]}},
{ "type": "Feature", "properties": {"Name":"Rock Hall town","State":"Maryland","State_Abbrev":"MD"},
"geometry":{ "type": "Point", "coordinates": [-76.23951,39.137865]}},
{ "type": "Feature", "properties": {"Name":"Rock Point CDP","State":"Maryland","State_Abbrev":"MD"},
"geometry":{ "type": "Point", "coordinates": [-76.84275,38.275467]}},
{ "type": "Feature", "properties": {"Name":"Rockville city","State":"Maryland","State_Abbrev":"MD"},
"geometry":{ "type": "Point", "coordinates": [-77.155585,39.083666]}},
{ "type": "Feature", "properties": {"Name":"Rohrersville CDP","State":"Maryland","State_Abbrev":"MD"},
"geometry":{ "type": "Point", "coordinates": [-77.665474,39.434897]}},
{ "type": "Feature", "properties": {"Name":"Romancoke CDP","State":"Maryland","State_Abbrev":"MD"},
"geometry":{ "type": "Point", "coordinates": [-76.36078,38.891825]}},
{ "type": "Feature", "properties": {"Name":"Rosaryville CDP","State":"Maryland","State_Abbrev":"MD"},
"geometry":{ "type": "Point", "coordinates": [-76.828092,38.767603]}},
{ "type": "Feature", "properties": {"Name":"Rosedale CDP","State":"Maryland","State_Abbrev":"MD"},
"geometry":{ "type": "Point", "coordinates": [-76.508377,39.327159]}},
{ "type": "Feature", "properties": {"Name":"Rosemont village","State":"Maryland","State_Abbrev":"MD"},
"geometry":{ "type": "Point", "coordinates": [-77.62276,39.333729]}},
{ "type": "Feature", "properties": {"Name":"Rossville CDP","State":"Maryland","State_Abbrev":"MD"},
"geometry":{ "type": "Point", "coordinates": [-76.477894,39.356566]}},
{ "type": "Feature", "properties": {"Name":"Sabillasville CDP","State":"Maryland","State_Abbrev":"MD"},
"geometry":{ "type": "Point", "coordinates": [-77.457277,39.699364]}},
{ "type": "Feature", "properties": {"Name":"St. George Island CDP","State":"Maryland","State_Abbrev":"MD"},
"geometry":{ "type": "Point", "coordinates": [-76.476965,38.11554]}},
{ "type": "Feature", "properties": {"Name":"St. James CDP","State":"Maryland","State_Abbrev":"MD"},
"geometry":{ "type": "Point", "coordinates": [-77.748248,39.573816]}},
{ "type": "Feature", "properties": {"Name":"St. Leonard CDP","State":"Maryland","State_Abbrev":"MD"},
"geometry":{ "type": "Point", "coordinates": [-76.49863,38.467369]}},
{ "type": "Feature", "properties": {"Name":"St. Michaels town","State":"Maryland","State_Abbrev":"MD"},
"geometry":{ "type": "Point", "coordinates": [-76.222622,38.788451]}},
{ "type": "Feature", "properties": {"Name":"Salisbury city","State":"Maryland","State_Abbrev":"MD"},
"geometry":{ "type": "Point", "coordinates": [-75.585925,38.375328]}},
{ "type": "Feature", "properties": {"Name":"Sandy Hook CDP","State":"Maryland","State_Abbrev":"MD"},
"geometry":{ "type": "Point", "coordinates": [-77.705149,39.328505]}},
{ "type": "Feature", "properties": {"Name":"San Mar CDP","State":"Maryland","State_Abbrev":"MD"},
"geometry":{ "type": "Point", "coordinates": [-77.640901,39.552216]}},
{ "type": "Feature", "properties": {"Name":"Savage CDP","State":"Maryland","State_Abbrev":"MD"},
"geometry":{ "type": "Point", "coordinates": [-76.821637,39.146463]}},
{ "type": "Feature", "properties": {"Name":"Scaggsville CDP","State":"Maryland","State_Abbrev":"MD"},
"geometry":{ "type": "Point", "coordinates": [-76.882576,39.140653]}},
{ "type": "Feature", "properties": {"Name":"Seabrook CDP","State":"Maryland","State_Abbrev":"MD"},
"geometry":{ "type": "Point", "coordinates": [-76.851115,38.982111]}},
{ "type": "Feature", "properties": {"Name":"Seat Pleasant city","State":"Maryland","State_Abbrev":"MD"},
"geometry":{ "type": "Point", "coordinates": [-76.899451,38.894689]}},
{ "type": "Feature", "properties": {"Name":"Secretary town","State":"Maryland","State_Abbrev":"MD"},
"geometry":{ "type": "Point", "coordinates": [-75.946955,38.608193]}},
{ "type": "Feature", "properties": {"Name":"Severn CDP","State":"Maryland","State_Abbrev":"MD"},
"geometry":{ "type": "Point", "coordinates": [-76.6956,39.13549]}},
{ "type": "Feature", "properties": {"Name":"Severna Park CDP","State":"Maryland","State_Abbrev":"MD"},
"geometry":{ "type": "Point", "coordinates": [-76.564883,39.086633]}},
{ "type": "Feature", "properties": {"Name":"Shady Side CDP","State":"Maryland","State_Abbrev":"MD"},
"geometry":{ "type": "Point", "coordinates": [-76.519647,38.829011]}},
{ "type": "Feature", "properties": {"Name":"Shaft CDP","State":"Maryland","State_Abbrev":"MD"},
"geometry":{ "type": "Point", "coordinates": [-78.942893,39.622319]}},
{ "type": "Feature", "properties": {"Name":"Sharpsburg town","State":"Maryland","State_Abbrev":"MD"},
"geometry":{ "type": "Point", "coordinates": [-77.749312,39.457618]}},
{ "type": "Feature", "properties": {"Name":"Sharptown town","State":"Maryland","State_Abbrev":"MD"},
"geometry":{ "type": "Point", "coordinates": [-75.718932,38.538212]}},
{ "type": "Feature", "properties": {"Name":"Silver Hill CDP","State":"Maryland","State_Abbrev":"MD"},
"geometry":{ "type": "Point", "coordinates": [-76.938593,38.839841]}},
{ "type": "Feature", "properties": {"Name":"Silver Spring CDP","State":"Maryland","State_Abbrev":"MD"},
"geometry":{ "type": "Point", "coordinates": [-77.020791,39.002441]}},
{ "type": "Feature", "properties": {"Name":"Smith Island CDP","State":"Maryland","State_Abbrev":"MD"},
"geometry":{ "type": "Point", "coordinates": [-76.028791,37.97722]}},
{ "type": "Feature", "properties": {"Name":"Smithsburg town","State":"Maryland","State_Abbrev":"MD"},
"geometry":{ "type": "Point", "coordinates": [-77.579941,39.654733]}},
{ "type": "Feature", "properties": {"Name":"Snow Hill town","State":"Maryland","State_Abbrev":"MD"},
"geometry":{ "type": "Point", "coordinates": [-75.390403,38.172519]}},
{ "type": "Feature", "properties": {"Name":"Solomons CDP","State":"Maryland","State_Abbrev":"MD"},
"geometry":{ "type": "Point", "coordinates": [-76.461901,38.339089]}},
{ "type": "Feature", "properties": {"Name":"Somerset town","State":"Maryland","State_Abbrev":"MD"},
"geometry":{ "type": "Point", "coordinates": [-77.096319,38.96657]}},
{ "type": "Feature", "properties": {"Name":"South Kensington CDP","State":"Maryland","State_Abbrev":"MD"},
"geometry":{ "type": "Point", "coordinates": [-77.066293,39.016149]}},
{ "type": "Feature", "properties": {"Name":"South Laurel CDP","State":"Maryland","State_Abbrev":"MD"},
"geometry":{ "type": "Point", "coordinates": [-76.846194,39.061466]}},
{ "type": "Feature", "properties": {"Name":"Spencerville CDP","State":"Maryland","State_Abbrev":"MD"},
"geometry":{ "type": "Point", "coordinates": [-76.983527,39.120024]}},
{ "type": "Feature", "properties": {"Name":"Springdale CDP","State":"Maryland","State_Abbrev":"MD"},
"geometry":{ "type": "Point", "coordinates": [-76.844233,38.935802]}},
{ "type": "Feature", "properties": {"Name":"Spring Gap CDP","State":"Maryland","State_Abbrev":"MD"},
"geometry":{ "type": "Point", "coordinates": [-78.705332,39.565335]}},
{ "type": "Feature", "properties": {"Name":"Spring Ridge CDP","State":"Maryland","State_Abbrev":"MD"},
"geometry":{ "type": "Point", "coordinates": [-77.33988,39.405041]}},
{ "type": "Feature", "properties": {"Name":"Stevensville CDP","State":"Maryland","State_Abbrev":"MD"},
"geometry":{ "type": "Point", "coordinates": [-76.318511,38.974441]}},
{ "type": "Feature", "properties": {"Name":"Still Pond CDP","State":"Maryland","State_Abbrev":"MD"},
"geometry":{ "type": "Point", "coordinates": [-76.042355,39.325957]}},
{ "type": "Feature", "properties": {"Name":"Stockton CDP","State":"Maryland","State_Abbrev":"MD"},
"geometry":{ "type": "Point", "coordinates": [-75.40842,38.065387]}},
{ "type": "Feature", "properties": {"Name":"Sudlersville town","State":"Maryland","State_Abbrev":"MD"},
"geometry":{ "type": "Point", "coordinates": [-75.85354,39.183261]}},
{ "type": "Feature", "properties": {"Name":"Suitland CDP","State":"Maryland","State_Abbrev":"MD"},
"geometry":{ "type": "Point", "coordinates": [-76.92252,38.848615]}},
{ "type": "Feature", "properties": {"Name":"Summerfield CDP","State":"Maryland","State_Abbrev":"MD"},
"geometry":{ "type": "Point", "coordinates": [-76.868297,38.904538]}},
{ "type": "Feature", "properties": {"Name":"Swanton CDP","State":"Maryland","State_Abbrev":"MD"},
"geometry":{ "type": "Point", "coordinates": [-79.232695,39.459864]}},
{ "type": "Feature", "properties": {"Name":"Sykesville town","State":"Maryland","State_Abbrev":"MD"},
"geometry":{ "type": "Point", "coordinates": [-76.97172,39.372069]}},
{ "type": "Feature", "properties": {"Name":"Takoma Park city","State":"Maryland","State_Abbrev":"MD"},
"geometry":{ "type": "Point", "coordinates": [-77.002326,38.980306]}},
{ "type": "Feature", "properties": {"Name":"Tall Timbers CDP","State":"Maryland","State_Abbrev":"MD"},
"geometry":{ "type": "Point", "coordinates": [-76.539277,38.169777]}},
{ "type": "Feature", "properties": {"Name":"Taneytown city","State":"Maryland","State_Abbrev":"MD"},
"geometry":{ "type": "Point", "coordinates": [-77.167238,39.658767]}},
{ "type": "Feature", "properties": {"Name":"Taylors Island CDP","State":"Maryland","State_Abbrev":"MD"},
"geometry":{ "type": "Point", "coordinates": [-76.316009,38.471135]}},
{ "type": "Feature", "properties": {"Name":"Temple Hills CDP","State":"Maryland","State_Abbrev":"MD"},
"geometry":{ "type": "Point", "coordinates": [-76.949477,38.810549]}},
{ "type": "Feature", "properties": {"Name":"Templeville town","State":"Maryland","State_Abbrev":"MD"},
"geometry":{ "type": "Point", "coordinates": [-75.766849,39.136364]}},
{ "type": "Feature", "properties": {"Name":"Ten Mile Creek CDP","State":"Maryland","State_Abbrev":"MD"},
"geometry":{ "type": "Point", "coordinates": [-77.298206,39.229361]}},
{ "type": "Feature", "properties": {"Name":"Thurmont town","State":"Maryland","State_Abbrev":"MD"},
"geometry":{ "type": "Point", "coordinates": [-77.407695,39.619976]}},
{ "type": "Feature", "properties": {"Name":"Tilghman Island CDP","State":"Maryland","State_Abbrev":"MD"},
"geometry":{ "type": "Point", "coordinates": [-76.336282,38.703188]}},
{ "type": "Feature", "properties": {"Name":"Tilghmanton CDP","State":"Maryland","State_Abbrev":"MD"},
"geometry":{ "type": "Point", "coordinates": [-77.743683,39.528604]}},
{ "type": "Feature", "properties": {"Name":"Timonium CDP","State":"Maryland","State_Abbrev":"MD"},
"geometry":{ "type": "Point", "coordinates": [-76.600758,39.445744]}},
{ "type": "Feature", "properties": {"Name":"Tolchester CDP","State":"Maryland","State_Abbrev":"MD"},
"geometry":{ "type": "Point", "coordinates": [-76.232083,39.218004]}},
{ "type": "Feature", "properties": {"Name":"Towson CDP","State":"Maryland","State_Abbrev":"MD"},
"geometry":{ "type": "Point", "coordinates": [-76.617751,39.39421]}},
{ "type": "Feature", "properties": {"Name":"Trappe town","State":"Maryland","State_Abbrev":"MD"},
"geometry":{ "type": "Point", "coordinates": [-76.051784,38.663439]}},
{ "type": "Feature", "properties": {"Name":"Travilah CDP","State":"Maryland","State_Abbrev":"MD"},
"geometry":{ "type": "Point", "coordinates": [-77.250633,39.059263]}},
{ "type": "Feature", "properties": {"Name":"Trego-Rohrersville Station CDP","State":"Maryland","State_Abbrev":"MD"},
"geometry":{ "type": "Point", "coordinates": [-77.674853,39.429107]}},
{ "type": "Feature", "properties": {"Name":"Tyaskin CDP","State":"Maryland","State_Abbrev":"MD"},
"geometry":{ "type": "Point", "coordinates": [-75.872635,38.320408]}},
{ "type": "Feature", "properties": {"Name":"Union Bridge town","State":"Maryland","State_Abbrev":"MD"},
"geometry":{ "type": "Point", "coordinates": [-77.171501,39.572022]}},
{ "type": "Feature", "properties": {"Name":"University Park town","State":"Maryland","State_Abbrev":"MD"},
"geometry":{ "type": "Point", "coordinates": [-76.944432,38.971867]}},
{ "type": "Feature", "properties": {"Name":"Upper Marlboro town","State":"Maryland","State_Abbrev":"MD"},
"geometry":{ "type": "Point", "coordinates": [-76.75367,38.816495]}},
{ "type": "Feature", "properties": {"Name":"Urbana CDP","State":"Maryland","State_Abbrev":"MD"},
"geometry":{ "type": "Point", "coordinates": [-77.341519,39.32577]}},
{ "type": "Feature", "properties": {"Name":"Vale Summit CDP","State":"Maryland","State_Abbrev":"MD"},
"geometry":{ "type": "Point", "coordinates": [-78.908354,39.615229]}},
{ "type": "Feature", "properties": {"Name":"Vienna town","State":"Maryland","State_Abbrev":"MD"},
"geometry":{ "type": "Point", "coordinates": [-75.831813,38.481132]}},
{ "type": "Feature", "properties": {"Name":"Waldorf CDP","State":"Maryland","State_Abbrev":"MD"},
"geometry":{ "type": "Point", "coordinates": [-76.919776,38.609172]}},
{ "type": "Feature", "properties": {"Name":"Walker Mill CDP","State":"Maryland","State_Abbrev":"MD"},
"geometry":{ "type": "Point", "coordinates": [-76.885442,38.875642]}},
{ "type": "Feature", "properties": {"Name":"Walkersville town","State":"Maryland","State_Abbrev":"MD"},
"geometry":{ "type": "Point", "coordinates": [-77.363352,39.474323]}},
{ "type": "Feature", "properties": {"Name":"Washington Grove town","State":"Maryland","State_Abbrev":"MD"},
"geometry":{ "type": "Point", "coordinates": [-77.174533,39.140699]}},
{ "type": "Feature", "properties": {"Name":"Waterview CDP","State":"Maryland","State_Abbrev":"MD"},
"geometry":{ "type": "Point", "coordinates": [-75.900009,38.248736]}},
{ "type": "Feature", "properties": {"Name":"West Denton CDP","State":"Maryland","State_Abbrev":"MD"},
"geometry":{ "type": "Point", "coordinates": [-75.83884,38.889605]}},
{ "type": "Feature", "properties": {"Name":"Westernport town","State":"Maryland","State_Abbrev":"MD"},
"geometry":{ "type": "Point", "coordinates": [-79.042087,39.487468]}},
{ "type": "Feature", "properties": {"Name":"West Laurel CDP","State":"Maryland","State_Abbrev":"MD"},
"geometry":{ "type": "Point", "coordinates": [-76.892291,39.115711]}},
{ "type": "Feature", "properties": {"Name":"Westminster city","State":"Maryland","State_Abbrev":"MD"},
"geometry":{ "type": "Point", "coordinates": [-77.008392,39.579675]}},
{ "type": "Feature", "properties": {"Name":"West Ocean City CDP","State":"Maryland","State_Abbrev":"MD"},
"geometry":{ "type": "Point", "coordinates": [-75.111243,38.347321]}},
{ "type": "Feature", "properties": {"Name":"Westphalia CDP","State":"Maryland","State_Abbrev":"MD"},
"geometry":{ "type": "Point", "coordinates": [-76.824037,38.840142]}},
{ "type": "Feature", "properties": {"Name":"West Pocomoke CDP","State":"Maryland","State_Abbrev":"MD"},
"geometry":{ "type": "Point", "coordinates": [-75.579197,38.096527]}},
{ "type": "Feature", "properties": {"Name":"Whaleyville CDP","State":"Maryland","State_Abbrev":"MD"},
"geometry":{ "type": "Point", "coordinates": [-75.297538,38.387037]}},
{ "type": "Feature", "properties": {"Name":"Wheaton CDP","State":"Maryland","State_Abbrev":"MD"},
"geometry":{ "type": "Point", "coordinates": [-77.058209,39.04949]}},
{ "type": "Feature", "properties": {"Name":"Whitehaven CDP","State":"Maryland","State_Abbrev":"MD"},
"geometry":{ "type": "Point", "coordinates": [-75.79474,38.269761]}},
{ "type": "Feature", "properties": {"Name":"White Marsh CDP","State":"Maryland","State_Abbrev":"MD"},
"geometry":{ "type": "Point", "coordinates": [-76.45842,39.381546]}},
{ "type": "Feature", "properties": {"Name":"White Oak CDP","State":"Maryland","State_Abbrev":"MD"},
"geometry":{ "type": "Point", "coordinates": [-76.987251,39.044212]}},
{ "type": "Feature", "properties": {"Name":"Wildewood CDP","State":"Maryland","State_Abbrev":"MD"},
"geometry":{ "type": "Point", "coordinates": [-76.547052,38.30351]}},
{ "type": "Feature", "properties": {"Name":"Willards town","State":"Maryland","State_Abbrev":"MD"},
"geometry":{ "type": "Point", "coordinates": [-75.349406,38.392425]}},
{ "type": "Feature", "properties": {"Name":"Williamsport town","State":"Maryland","State_Abbrev":"MD"},
"geometry":{ "type": "Point", "coordinates": [-77.817972,39.597345]}},
{ "type": "Feature", "properties": {"Name":"Williston CDP","State":"Maryland","State_Abbrev":"MD"},
"geometry":{ "type": "Point", "coordinates": [-75.851454,38.830321]}},
{ "type": "Feature", "properties": {"Name":"Wilson-Conococheague CDP","State":"Maryland","State_Abbrev":"MD"},
"geometry":{ "type": "Point", "coordinates": [-77.827072,39.651247]}},
{ "type": "Feature", "properties": {"Name":"Woodland CDP","State":"Maryland","State_Abbrev":"MD"},
"geometry":{ "type": "Point", "coordinates": [-78.950111,39.608341]}},
{ "type": "Feature", "properties": {"Name":"Woodlawn CDP","State":"Maryland","State_Abbrev":"MD"},
"geometry":{ "type": "Point", "coordinates": [-76.747783,39.305504]}},
{ "type": "Feature", "properties": {"Name":"Woodlawn CDP","State":"Maryland","State_Abbrev":"MD"},
"geometry":{ "type": "Point", "coordinates": [-76.900261,38.950327]}},
{ "type": "Feature", "properties": {"Name":"Woodmore CDP","State":"Maryland","State_Abbrev":"MD"},
"geometry":{ "type": "Point", "coordinates": [-76.777931,38.923412]}},
{ "type": "Feature", "properties": {"Name":"Woodsboro town","State":"Maryland","State_Abbrev":"MD"},
"geometry":{ "type": "Point", "coordinates": [-77.30991,39.534026]}},
{ "type": "Feature", "properties": {"Name":"Worton CDP","State":"Maryland","State_Abbrev":"MD"},
"geometry":{ "type": "Point", "coordinates": [-76.091824,39.270657]}},
{ "type": "Feature", "properties": {"Name":"Yarrowsburg CDP","State":"Maryland","State_Abbrev":"MD"},
"geometry":{ "type": "Point", "coordinates": [-77.684346,39.376172]}},
{ "type": "Feature", "properties": {"Name":"Zihlman CDP","State":"Maryland","State_Abbrev":"MD"},
"geometry":{ "type": "Point", "coordinates": [-78.913129,39.674021]}}]}
