{"type":"FeatureCollection","features":[
{ "type": "Feature", "properties": {"Name":"Abington CDP","State":"Massachusetts","State_Abbrev":"MA"},
"geometry":{ "type": "Point", "coordinates": [-70.956597,42.115764]}},
{ "type": "Feature", "properties": {"Name":"Acushnet Center CDP","State":"Massachusetts","State_Abbrev":"MA"},
"geometry":{ "type": "Point", "coordinates": [-70.906686,41.684996]}},
{ "type": "Feature", "properties": {"Name":"Adams CDP","State":"Massachusetts","State_Abbrev":"MA"},
"geometry":{ "type": "Point", "coordinates": [-73.118747,42.629085]}},
{ "type": "Feature", "properties": {"Name":"Agawam Town city","State":"Massachusetts","State_Abbrev":"MA"},
"geometry":{ "type": "Point", "coordinates": [-72.652959,42.063891]}},
{ "type": "Feature", "properties": {"Name":"Amesbury Town city","State":"Massachusetts","State_Abbrev":"MA"},
"geometry":{ "type": "Point", "coordinates": [-70.955792,42.851277]}},
{ "type": "Feature", "properties": {"Name":"Amherst Town city","State":"Massachusetts","State_Abbrev":"MA"},
"geometry":{ "type": "Point", "coordinates": [-72.507291,42.363534]}},
{ "type": "Feature", "properties": {"Name":"Andover CDP","State":"Massachusetts","State_Abbrev":"MA"},
"geometry":{ "type": "Point", "coordinates": [-71.142244,42.655672]}},
{ "type": "Feature", "properties": {"Name":"Arlington CDP","State":"Massachusetts","State_Abbrev":"MA"},
"geometry":{ "type": "Point", "coordinates": [-71.163912,42.418722]}},
{ "type": "Feature", "properties": {"Name":"Athol CDP","State":"Massachusetts","State_Abbrev":"MA"},
"geometry":{ "type": "Point", "coordinates": [-72.230228,42.593384]}},
{ "type": "Feature", "properties": {"Name":"Attleboro city","State":"Massachusetts","State_Abbrev":"MA"},
"geometry":{ "type": "Point", "coordinates": [-71.294503,41.931653]}},
{ "type": "Feature", "properties": {"Name":"Ayer CDP","State":"Massachusetts","State_Abbrev":"MA"},
"geometry":{ "type": "Point", "coordinates": [-71.584844,42.562221]}},
{ "type": "Feature", "properties": {"Name":"Baldwinville CDP","State":"Massachusetts","State_Abbrev":"MA"},
"geometry":{ "type": "Point", "coordinates": [-72.078823,42.604845]}},
{ "type": "Feature", "properties": {"Name":"Barnstable Town city","State":"Massachusetts","State_Abbrev":"MA"},
"geometry":{ "type": "Point", "coordinates": [-70.356951,41.661478]}},
{ "type": "Feature", "properties": {"Name":"Barre CDP","State":"Massachusetts","State_Abbrev":"MA"},
"geometry":{ "type": "Point", "coordinates": [-72.10638,42.423007]}},
{ "type": "Feature", "properties": {"Name":"Belchertown CDP","State":"Massachusetts","State_Abbrev":"MA"},
"geometry":{ "type": "Point", "coordinates": [-72.402806,42.271889]}},
{ "type": "Feature", "properties": {"Name":"Bellingham CDP","State":"Massachusetts","State_Abbrev":"MA"},
"geometry":{ "type": "Point", "coordinates": [-71.478631,42.094041]}},
{ "type": "Feature", "properties": {"Name":"Belmont CDP","State":"Massachusetts","State_Abbrev":"MA"},
"geometry":{ "type": "Point", "coordinates": [-71.180284,42.395317]}},
{ "type": "Feature", "properties": {"Name":"Beverly city","State":"Massachusetts","State_Abbrev":"MA"},
"geometry":{ "type": "Point", "coordinates": [-70.84496,42.556659]}},
{ "type": "Feature", "properties": {"Name":"Blandford CDP","State":"Massachusetts","State_Abbrev":"MA"},
"geometry":{ "type": "Point", "coordinates": [-72.923862,42.175006]}},
{ "type": "Feature", "properties": {"Name":"Bliss Corner CDP","State":"Massachusetts","State_Abbrev":"MA"},
"geometry":{ "type": "Point", "coordinates": [-70.942369,41.605131]}},
{ "type": "Feature", "properties": {"Name":"Boston city","State":"Massachusetts","State_Abbrev":"MA"},
"geometry":{ "type": "Point", "coordinates": [-71.018253,42.338551]}},
{ "type": "Feature", "properties": {"Name":"Bourne CDP","State":"Massachusetts","State_Abbrev":"MA"},
"geometry":{ "type": "Point", "coordinates": [-70.615767,41.732015]}},
{ "type": "Feature", "properties": {"Name":"Boxford CDP","State":"Massachusetts","State_Abbrev":"MA"},
"geometry":{ "type": "Point", "coordinates": [-70.984216,42.663712]}},
{ "type": "Feature", "properties": {"Name":"Braintree Town city","State":"Massachusetts","State_Abbrev":"MA"},
"geometry":{ "type": "Point", "coordinates": [-71.00232,42.206188]}},
{ "type": "Feature", "properties": {"Name":"Brewster CDP","State":"Massachusetts","State_Abbrev":"MA"},
"geometry":{ "type": "Point", "coordinates": [-70.07037,41.760926]}},
{ "type": "Feature", "properties": {"Name":"Bridgewater Town city","State":"Massachusetts","State_Abbrev":"MA"},
"geometry":{ "type": "Point", "coordinates": [-70.978773,41.972376]}},
{ "type": "Feature", "properties": {"Name":"Brockton city","State":"Massachusetts","State_Abbrev":"MA"},
"geometry":{ "type": "Point", "coordinates": [-71.024638,42.082543]}},
{ "type": "Feature", "properties": {"Name":"Brookfield CDP","State":"Massachusetts","State_Abbrev":"MA"},
"geometry":{ "type": "Point", "coordinates": [-72.102736,42.215]}},
{ "type": "Feature", "properties": {"Name":"Brookline CDP","State":"Massachusetts","State_Abbrev":"MA"},
"geometry":{ "type": "Point", "coordinates": [-71.142003,42.323853]}},
{ "type": "Feature", "properties": {"Name":"Burlington CDP","State":"Massachusetts","State_Abbrev":"MA"},
"geometry":{ "type": "Point", "coordinates": [-71.201713,42.503227]}},
{ "type": "Feature", "properties": {"Name":"Buzzards Bay CDP","State":"Massachusetts","State_Abbrev":"MA"},
"geometry":{ "type": "Point", "coordinates": [-70.616317,41.754194]}},
{ "type": "Feature", "properties": {"Name":"Cambridge city","State":"Massachusetts","State_Abbrev":"MA"},
"geometry":{ "type": "Point", "coordinates": [-71.11868,42.376043]}},
{ "type": "Feature", "properties": {"Name":"Cedar Crest CDP","State":"Massachusetts","State_Abbrev":"MA"},
"geometry":{ "type": "Point", "coordinates": [-70.661403,42.076447]}},
{ "type": "Feature", "properties": {"Name":"Chatham CDP","State":"Massachusetts","State_Abbrev":"MA"},
"geometry":{ "type": "Point", "coordinates": [-69.962961,41.673853]}},
{ "type": "Feature", "properties": {"Name":"Chelsea city","State":"Massachusetts","State_Abbrev":"MA"},
"geometry":{ "type": "Point", "coordinates": [-71.031348,42.396824]}},
{ "type": "Feature", "properties": {"Name":"Cheshire CDP","State":"Massachusetts","State_Abbrev":"MA"},
"geometry":{ "type": "Point", "coordinates": [-73.162344,42.561139]}},
{ "type": "Feature", "properties": {"Name":"Chester CDP","State":"Massachusetts","State_Abbrev":"MA"},
"geometry":{ "type": "Point", "coordinates": [-72.980145,42.280713]}},
{ "type": "Feature", "properties": {"Name":"Chicopee city","State":"Massachusetts","State_Abbrev":"MA"},
"geometry":{ "type": "Point", "coordinates": [-72.570189,42.177586]}},
{ "type": "Feature", "properties": {"Name":"Clinton CDP","State":"Massachusetts","State_Abbrev":"MA"},
"geometry":{ "type": "Point", "coordinates": [-71.686202,42.41888]}},
{ "type": "Feature", "properties": {"Name":"Cochituate CDP","State":"Massachusetts","State_Abbrev":"MA"},
"geometry":{ "type": "Point", "coordinates": [-71.352313,42.327726]}},
{ "type": "Feature", "properties": {"Name":"Cordaville CDP","State":"Massachusetts","State_Abbrev":"MA"},
"geometry":{ "type": "Point", "coordinates": [-71.522795,42.272062]}},
{ "type": "Feature", "properties": {"Name":"Danvers CDP","State":"Massachusetts","State_Abbrev":"MA"},
"geometry":{ "type": "Point", "coordinates": [-70.950516,42.574174]}},
{ "type": "Feature", "properties": {"Name":"Dedham CDP","State":"Massachusetts","State_Abbrev":"MA"},
"geometry":{ "type": "Point", "coordinates": [-71.179462,42.246872]}},
{ "type": "Feature", "properties": {"Name":"Deerfield CDP","State":"Massachusetts","State_Abbrev":"MA"},
"geometry":{ "type": "Point", "coordinates": [-72.602404,42.547902]}},
{ "type": "Feature", "properties": {"Name":"Dennis CDP","State":"Massachusetts","State_Abbrev":"MA"},
"geometry":{ "type": "Point", "coordinates": [-70.197392,41.730245]}},
{ "type": "Feature", "properties": {"Name":"Dennis Port CDP","State":"Massachusetts","State_Abbrev":"MA"},
"geometry":{ "type": "Point", "coordinates": [-70.136979,41.668067]}},
{ "type": "Feature", "properties": {"Name":"Devens CDP","State":"Massachusetts","State_Abbrev":"MA"},
"geometry":{ "type": "Point", "coordinates": [-71.614028,42.543366]}},
{ "type": "Feature", "properties": {"Name":"Dover CDP","State":"Massachusetts","State_Abbrev":"MA"},
"geometry":{ "type": "Point", "coordinates": [-71.268071,42.246673]}},
{ "type": "Feature", "properties": {"Name":"Duxbury CDP","State":"Massachusetts","State_Abbrev":"MA"},
"geometry":{ "type": "Point", "coordinates": [-70.679239,42.044352]}},
{ "type": "Feature", "properties": {"Name":"East Brookfield CDP","State":"Massachusetts","State_Abbrev":"MA"},
"geometry":{ "type": "Point", "coordinates": [-72.052431,42.229099]}},
{ "type": "Feature", "properties": {"Name":"East Dennis CDP","State":"Massachusetts","State_Abbrev":"MA"},
"geometry":{ "type": "Point", "coordinates": [-70.157408,41.735429]}},
{ "type": "Feature", "properties": {"Name":"East Douglas CDP","State":"Massachusetts","State_Abbrev":"MA"},
"geometry":{ "type": "Point", "coordinates": [-71.719485,42.081104]}},
{ "type": "Feature", "properties": {"Name":"East Falmouth CDP","State":"Massachusetts","State_Abbrev":"MA"},
"geometry":{ "type": "Point", "coordinates": [-70.55744,41.568248]}},
{ "type": "Feature", "properties": {"Name":"Easthampton Town city","State":"Massachusetts","State_Abbrev":"MA"},
"geometry":{ "type": "Point", "coordinates": [-72.670813,42.265435]}},
{ "type": "Feature", "properties": {"Name":"East Harwich CDP","State":"Massachusetts","State_Abbrev":"MA"},
"geometry":{ "type": "Point", "coordinates": [-70.031785,41.708596]}},
{ "type": "Feature", "properties": {"Name":"East Pepperell CDP","State":"Massachusetts","State_Abbrev":"MA"},
"geometry":{ "type": "Point", "coordinates": [-71.562103,42.66253]}},
{ "type": "Feature", "properties": {"Name":"East Sandwich CDP","State":"Massachusetts","State_Abbrev":"MA"},
"geometry":{ "type": "Point", "coordinates": [-70.430675,41.734256]}},
{ "type": "Feature", "properties": {"Name":"Edgartown CDP","State":"Massachusetts","State_Abbrev":"MA"},
"geometry":{ "type": "Point", "coordinates": [-70.519672,41.389913]}},
{ "type": "Feature", "properties": {"Name":"Essex CDP","State":"Massachusetts","State_Abbrev":"MA"},
"geometry":{ "type": "Point", "coordinates": [-70.771165,42.640451]}},
{ "type": "Feature", "properties": {"Name":"Everett city","State":"Massachusetts","State_Abbrev":"MA"},
"geometry":{ "type": "Point", "coordinates": [-71.054649,42.405938]}},
{ "type": "Feature", "properties": {"Name":"Fall River city","State":"Massachusetts","State_Abbrev":"MA"},
"geometry":{ "type": "Point", "coordinates": [-71.094162,41.725351]}},
{ "type": "Feature", "properties": {"Name":"Falmouth CDP","State":"Massachusetts","State_Abbrev":"MA"},
"geometry":{ "type": "Point", "coordinates": [-70.608849,41.551391]}},
{ "type": "Feature", "properties": {"Name":"Fiskdale CDP","State":"Massachusetts","State_Abbrev":"MA"},
"geometry":{ "type": "Point", "coordinates": [-72.110911,42.124703]}},
{ "type": "Feature", "properties": {"Name":"Fitchburg city","State":"Massachusetts","State_Abbrev":"MA"},
"geometry":{ "type": "Point", "coordinates": [-71.81587,42.601977]}},
{ "type": "Feature", "properties": {"Name":"Forestdale CDP","State":"Massachusetts","State_Abbrev":"MA"},
"geometry":{ "type": "Point", "coordinates": [-70.510786,41.683488]}},
{ "type": "Feature", "properties": {"Name":"Foxborough CDP","State":"Massachusetts","State_Abbrev":"MA"},
"geometry":{ "type": "Point", "coordinates": [-71.248401,42.064024]}},
{ "type": "Feature", "properties": {"Name":"Framingham city","State":"Massachusetts","State_Abbrev":"MA"},
"geometry":{ "type": "Point", "coordinates": [-71.436196,42.307905]}},
{ "type": "Feature", "properties": {"Name":"Franklin Town city","State":"Massachusetts","State_Abbrev":"MA"},
"geometry":{ "type": "Point", "coordinates": [-71.410571,42.084858]}},
{ "type": "Feature", "properties": {"Name":"Gardner city","State":"Massachusetts","State_Abbrev":"MA"},
"geometry":{ "type": "Point", "coordinates": [-71.988737,42.584206]}},
{ "type": "Feature", "properties": {"Name":"Gloucester city","State":"Massachusetts","State_Abbrev":"MA"},
"geometry":{ "type": "Point", "coordinates": [-70.685875,42.62885]}},
{ "type": "Feature", "properties": {"Name":"Granby CDP","State":"Massachusetts","State_Abbrev":"MA"},
"geometry":{ "type": "Point", "coordinates": [-72.528851,42.265955]}},
{ "type": "Feature", "properties": {"Name":"Great Barrington CDP","State":"Massachusetts","State_Abbrev":"MA"},
"geometry":{ "type": "Point", "coordinates": [-73.361473,42.19397]}},
{ "type": "Feature", "properties": {"Name":"Greenfield city","State":"Massachusetts","State_Abbrev":"MA"},
"geometry":{ "type": "Point", "coordinates": [-72.597063,42.614671]}},
{ "type": "Feature", "properties": {"Name":"Green Harbor CDP","State":"Massachusetts","State_Abbrev":"MA"},
"geometry":{ "type": "Point", "coordinates": [-70.648727,42.065998]}},
{ "type": "Feature", "properties": {"Name":"Groton CDP","State":"Massachusetts","State_Abbrev":"MA"},
"geometry":{ "type": "Point", "coordinates": [-71.564743,42.611636]}},
{ "type": "Feature", "properties": {"Name":"Hanscom AFB CDP","State":"Massachusetts","State_Abbrev":"MA"},
"geometry":{ "type": "Point", "coordinates": [-71.279322,42.458233]}},
{ "type": "Feature", "properties": {"Name":"Hanson CDP","State":"Massachusetts","State_Abbrev":"MA"},
"geometry":{ "type": "Point", "coordinates": [-70.849766,42.065029]}},
{ "type": "Feature", "properties": {"Name":"Harwich Center CDP","State":"Massachusetts","State_Abbrev":"MA"},
"geometry":{ "type": "Point", "coordinates": [-70.066316,41.692084]}},
{ "type": "Feature", "properties": {"Name":"Harwich Port CDP","State":"Massachusetts","State_Abbrev":"MA"},
"geometry":{ "type": "Point", "coordinates": [-70.065417,41.67344]}},
{ "type": "Feature", "properties": {"Name":"Hatfield CDP","State":"Massachusetts","State_Abbrev":"MA"},
"geometry":{ "type": "Point", "coordinates": [-72.603741,42.372883]}},
{ "type": "Feature", "properties": {"Name":"Haverhill city","State":"Massachusetts","State_Abbrev":"MA"},
"geometry":{ "type": "Point", "coordinates": [-71.087436,42.782945]}},
{ "type": "Feature", "properties": {"Name":"Hingham CDP","State":"Massachusetts","State_Abbrev":"MA"},
"geometry":{ "type": "Point", "coordinates": [-70.889526,42.233136]}},
{ "type": "Feature", "properties": {"Name":"Holbrook CDP","State":"Massachusetts","State_Abbrev":"MA"},
"geometry":{ "type": "Point", "coordinates": [-70.997861,42.140346]}},
{ "type": "Feature", "properties": {"Name":"Holland CDP","State":"Massachusetts","State_Abbrev":"MA"},
"geometry":{ "type": "Point", "coordinates": [-72.152813,42.051054]}},
{ "type": "Feature", "properties": {"Name":"Holyoke city","State":"Massachusetts","State_Abbrev":"MA"},
"geometry":{ "type": "Point", "coordinates": [-72.642448,42.211658]}},
{ "type": "Feature", "properties": {"Name":"Hopedale CDP","State":"Massachusetts","State_Abbrev":"MA"},
"geometry":{ "type": "Point", "coordinates": [-71.540295,42.126886]}},
{ "type": "Feature", "properties": {"Name":"Hopkinton CDP","State":"Massachusetts","State_Abbrev":"MA"},
"geometry":{ "type": "Point", "coordinates": [-71.524096,42.225563]}},
{ "type": "Feature", "properties": {"Name":"Housatonic CDP","State":"Massachusetts","State_Abbrev":"MA"},
"geometry":{ "type": "Point", "coordinates": [-73.356221,42.241176]}},
{ "type": "Feature", "properties": {"Name":"Hudson CDP","State":"Massachusetts","State_Abbrev":"MA"},
"geometry":{ "type": "Point", "coordinates": [-71.564949,42.392092]}},
{ "type": "Feature", "properties": {"Name":"Hull CDP","State":"Massachusetts","State_Abbrev":"MA"},
"geometry":{ "type": "Point", "coordinates": [-70.883301,42.340233]}},
{ "type": "Feature", "properties": {"Name":"Huntington CDP","State":"Massachusetts","State_Abbrev":"MA"},
"geometry":{ "type": "Point", "coordinates": [-72.89182,42.243835]}},
{ "type": "Feature", "properties": {"Name":"Ipswich CDP","State":"Massachusetts","State_Abbrev":"MA"},
"geometry":{ "type": "Point", "coordinates": [-70.822007,42.67573]}},
{ "type": "Feature", "properties": {"Name":"Kingston CDP","State":"Massachusetts","State_Abbrev":"MA"},
"geometry":{ "type": "Point", "coordinates": [-70.721545,41.996182]}},
{ "type": "Feature", "properties": {"Name":"Lawrence city","State":"Massachusetts","State_Abbrev":"MA"},
"geometry":{ "type": "Point", "coordinates": [-71.161357,42.700273]}},
{ "type": "Feature", "properties": {"Name":"Lee CDP","State":"Massachusetts","State_Abbrev":"MA"},
"geometry":{ "type": "Point", "coordinates": [-73.250736,42.306836]}},
{ "type": "Feature", "properties": {"Name":"Lenox CDP","State":"Massachusetts","State_Abbrev":"MA"},
"geometry":{ "type": "Point", "coordinates": [-73.286788,42.361228]}},
{ "type": "Feature", "properties": {"Name":"Lenox Dale CDP","State":"Massachusetts","State_Abbrev":"MA"},
"geometry":{ "type": "Point", "coordinates": [-73.249199,42.333734]}},
{ "type": "Feature", "properties": {"Name":"Leominster city","State":"Massachusetts","State_Abbrev":"MA"},
"geometry":{ "type": "Point", "coordinates": [-71.770611,42.520876]}},
{ "type": "Feature", "properties": {"Name":"Lexington CDP","State":"Massachusetts","State_Abbrev":"MA"},
"geometry":{ "type": "Point", "coordinates": [-71.230015,42.445222]}},
{ "type": "Feature", "properties": {"Name":"Littleton Common CDP","State":"Massachusetts","State_Abbrev":"MA"},
"geometry":{ "type": "Point", "coordinates": [-71.472129,42.534482]}},
{ "type": "Feature", "properties": {"Name":"Longmeadow CDP","State":"Massachusetts","State_Abbrev":"MA"},
"geometry":{ "type": "Point", "coordinates": [-72.569275,42.048054]}},
{ "type": "Feature", "properties": {"Name":"Lowell city","State":"Massachusetts","State_Abbrev":"MA"},
"geometry":{ "type": "Point", "coordinates": [-71.32102,42.638995]}},
{ "type": "Feature", "properties": {"Name":"Lunenburg CDP","State":"Massachusetts","State_Abbrev":"MA"},
"geometry":{ "type": "Point", "coordinates": [-71.726968,42.593421]}},
{ "type": "Feature", "properties": {"Name":"Lynn city","State":"Massachusetts","State_Abbrev":"MA"},
"geometry":{ "type": "Point", "coordinates": [-70.962035,42.474766]}},
{ "type": "Feature", "properties": {"Name":"Lynnfield CDP","State":"Massachusetts","State_Abbrev":"MA"},
"geometry":{ "type": "Point", "coordinates": [-71.038333,42.534146]}},
{ "type": "Feature", "properties": {"Name":"Madaket CDP","State":"Massachusetts","State_Abbrev":"MA"},
"geometry":{ "type": "Point", "coordinates": [-70.183306,41.282385]}},
{ "type": "Feature", "properties": {"Name":"Malden city","State":"Massachusetts","State_Abbrev":"MA"},
"geometry":{ "type": "Point", "coordinates": [-71.058706,42.42938]}},
{ "type": "Feature", "properties": {"Name":"Mansfield Center CDP","State":"Massachusetts","State_Abbrev":"MA"},
"geometry":{ "type": "Point", "coordinates": [-71.217844,42.02196]}},
{ "type": "Feature", "properties": {"Name":"Marblehead CDP","State":"Massachusetts","State_Abbrev":"MA"},
"geometry":{ "type": "Point", "coordinates": [-70.83582,42.495629]}},
{ "type": "Feature", "properties": {"Name":"Marion Center CDP","State":"Massachusetts","State_Abbrev":"MA"},
"geometry":{ "type": "Point", "coordinates": [-70.755499,41.696609]}},
{ "type": "Feature", "properties": {"Name":"Marlborough city","State":"Massachusetts","State_Abbrev":"MA"},
"geometry":{ "type": "Point", "coordinates": [-71.547214,42.349617]}},
{ "type": "Feature", "properties": {"Name":"Marshfield CDP","State":"Massachusetts","State_Abbrev":"MA"},
"geometry":{ "type": "Point", "coordinates": [-70.689396,42.102231]}},
{ "type": "Feature", "properties": {"Name":"Marshfield Hills CDP","State":"Massachusetts","State_Abbrev":"MA"},
"geometry":{ "type": "Point", "coordinates": [-70.729075,42.143314]}},
{ "type": "Feature", "properties": {"Name":"Mashpee Neck CDP","State":"Massachusetts","State_Abbrev":"MA"},
"geometry":{ "type": "Point", "coordinates": [-70.467933,41.612716]}},
{ "type": "Feature", "properties": {"Name":"Mattapoisett Center CDP","State":"Massachusetts","State_Abbrev":"MA"},
"geometry":{ "type": "Point", "coordinates": [-70.799181,41.672009]}},
{ "type": "Feature", "properties": {"Name":"Maynard CDP","State":"Massachusetts","State_Abbrev":"MA"},
"geometry":{ "type": "Point", "coordinates": [-71.456256,42.425955]}},
{ "type": "Feature", "properties": {"Name":"Medfield CDP","State":"Massachusetts","State_Abbrev":"MA"},
"geometry":{ "type": "Point", "coordinates": [-71.300408,42.187014]}},
{ "type": "Feature", "properties": {"Name":"Medford city","State":"Massachusetts","State_Abbrev":"MA"},
"geometry":{ "type": "Point", "coordinates": [-71.109231,42.423844]}},
{ "type": "Feature", "properties": {"Name":"Melrose city","State":"Massachusetts","State_Abbrev":"MA"},
"geometry":{ "type": "Point", "coordinates": [-71.059019,42.455723]}},
{ "type": "Feature", "properties": {"Name":"Methuen Town city","State":"Massachusetts","State_Abbrev":"MA"},
"geometry":{ "type": "Point", "coordinates": [-71.178651,42.742641]}},
{ "type": "Feature", "properties": {"Name":"Middleborough Center CDP","State":"Massachusetts","State_Abbrev":"MA"},
"geometry":{ "type": "Point", "coordinates": [-70.925689,41.894223]}},
{ "type": "Feature", "properties": {"Name":"Milford CDP","State":"Massachusetts","State_Abbrev":"MA"},
"geometry":{ "type": "Point", "coordinates": [-71.517783,42.150664]}},
{ "type": "Feature", "properties": {"Name":"Millers Falls CDP","State":"Massachusetts","State_Abbrev":"MA"},
"geometry":{ "type": "Point", "coordinates": [-72.492235,42.579182]}},
{ "type": "Feature", "properties": {"Name":"Millis-Clicquot CDP","State":"Massachusetts","State_Abbrev":"MA"},
"geometry":{ "type": "Point", "coordinates": [-71.34923,42.166821]}},
{ "type": "Feature", "properties": {"Name":"Milton CDP","State":"Massachusetts","State_Abbrev":"MA"},
"geometry":{ "type": "Point", "coordinates": [-71.082437,42.241559]}},
{ "type": "Feature", "properties": {"Name":"Monomoscoy Island CDP","State":"Massachusetts","State_Abbrev":"MA"},
"geometry":{ "type": "Point", "coordinates": [-70.499206,41.575946]}},
{ "type": "Feature", "properties": {"Name":"Monson Center CDP","State":"Massachusetts","State_Abbrev":"MA"},
"geometry":{ "type": "Point", "coordinates": [-72.296139,42.097854]}},
{ "type": "Feature", "properties": {"Name":"Monument Beach CDP","State":"Massachusetts","State_Abbrev":"MA"},
"geometry":{ "type": "Point", "coordinates": [-70.59999,41.718895]}},
{ "type": "Feature", "properties": {"Name":"Nahant CDP","State":"Massachusetts","State_Abbrev":"MA"},
"geometry":{ "type": "Point", "coordinates": [-70.932728,42.41824]}},
{ "type": "Feature", "properties": {"Name":"Nantucket CDP","State":"Massachusetts","State_Abbrev":"MA"},
"geometry":{ "type": "Point", "coordinates": [-70.095881,41.271448]}},
{ "type": "Feature", "properties": {"Name":"Needham CDP","State":"Massachusetts","State_Abbrev":"MA"},
"geometry":{ "type": "Point", "coordinates": [-71.242414,42.281593]}},
{ "type": "Feature", "properties": {"Name":"New Bedford city","State":"Massachusetts","State_Abbrev":"MA"},
"geometry":{ "type": "Point", "coordinates": [-70.937913,41.661303]}},
{ "type": "Feature", "properties": {"Name":"Newburyport city","State":"Massachusetts","State_Abbrev":"MA"},
"geometry":{ "type": "Point", "coordinates": [-70.886646,42.812141]}},
{ "type": "Feature", "properties": {"Name":"New Seabury CDP","State":"Massachusetts","State_Abbrev":"MA"},
"geometry":{ "type": "Point", "coordinates": [-70.479032,41.574852]}},
{ "type": "Feature", "properties": {"Name":"Newton city","State":"Massachusetts","State_Abbrev":"MA"},
"geometry":{ "type": "Point", "coordinates": [-71.2084,42.331768]}},
{ "type": "Feature", "properties": {"Name":"North Adams city","State":"Massachusetts","State_Abbrev":"MA"},
"geometry":{ "type": "Point", "coordinates": [-73.118114,42.675565]}},
{ "type": "Feature", "properties": {"Name":"Northampton city","State":"Massachusetts","State_Abbrev":"MA"},
"geometry":{ "type": "Point", "coordinates": [-72.67463,42.327044]}},
{ "type": "Feature", "properties": {"Name":"North Attleborough Town city","State":"Massachusetts","State_Abbrev":"MA"},
"geometry":{ "type": "Point", "coordinates": [-71.33493,41.970454]}},
{ "type": "Feature", "properties": {"Name":"Northborough CDP","State":"Massachusetts","State_Abbrev":"MA"},
"geometry":{ "type": "Point", "coordinates": [-71.647734,42.31195]}},
{ "type": "Feature", "properties": {"Name":"North Brookfield CDP","State":"Massachusetts","State_Abbrev":"MA"},
"geometry":{ "type": "Point", "coordinates": [-72.084211,42.271168]}},
{ "type": "Feature", "properties": {"Name":"North Eastham CDP","State":"Massachusetts","State_Abbrev":"MA"},
"geometry":{ "type": "Point", "coordinates": [-70.003787,41.833318]}},
{ "type": "Feature", "properties": {"Name":"North Falmouth CDP","State":"Massachusetts","State_Abbrev":"MA"},
"geometry":{ "type": "Point", "coordinates": [-70.630719,41.641994]}},
{ "type": "Feature", "properties": {"Name":"Northfield CDP","State":"Massachusetts","State_Abbrev":"MA"},
"geometry":{ "type": "Point", "coordinates": [-72.422674,42.713247]}},
{ "type": "Feature", "properties": {"Name":"North Lakeville CDP","State":"Massachusetts","State_Abbrev":"MA"},
"geometry":{ "type": "Point", "coordinates": [-70.939271,41.86001]}},
{ "type": "Feature", "properties": {"Name":"North Pembroke CDP","State":"Massachusetts","State_Abbrev":"MA"},
"geometry":{ "type": "Point", "coordinates": [-70.783273,42.097738]}},
{ "type": "Feature", "properties": {"Name":"North Plymouth CDP","State":"Massachusetts","State_Abbrev":"MA"},
"geometry":{ "type": "Point", "coordinates": [-70.68064,41.9753]}},
{ "type": "Feature", "properties": {"Name":"North Scituate CDP","State":"Massachusetts","State_Abbrev":"MA"},
"geometry":{ "type": "Point", "coordinates": [-70.766295,42.212807]}},
{ "type": "Feature", "properties": {"Name":"North Seekonk CDP","State":"Massachusetts","State_Abbrev":"MA"},
"geometry":{ "type": "Point", "coordinates": [-71.330363,41.884648]}},
{ "type": "Feature", "properties": {"Name":"Northwest Harwich CDP","State":"Massachusetts","State_Abbrev":"MA"},
"geometry":{ "type": "Point", "coordinates": [-70.105289,41.693625]}},
{ "type": "Feature", "properties": {"Name":"North Westport CDP","State":"Massachusetts","State_Abbrev":"MA"},
"geometry":{ "type": "Point", "coordinates": [-71.111141,41.673107]}},
{ "type": "Feature", "properties": {"Name":"Norton Center CDP","State":"Massachusetts","State_Abbrev":"MA"},
"geometry":{ "type": "Point", "coordinates": [-71.188548,41.974456]}},
{ "type": "Feature", "properties": {"Name":"Norwood CDP","State":"Massachusetts","State_Abbrev":"MA"},
"geometry":{ "type": "Point", "coordinates": [-71.195971,42.187364]}},
{ "type": "Feature", "properties": {"Name":"Oak Bluffs CDP","State":"Massachusetts","State_Abbrev":"MA"},
"geometry":{ "type": "Point", "coordinates": [-70.56486,41.453812]}},
{ "type": "Feature", "properties": {"Name":"Ocean Bluff-Brant Rock CDP","State":"Massachusetts","State_Abbrev":"MA"},
"geometry":{ "type": "Point", "coordinates": [-70.657581,42.10221]}},
{ "type": "Feature", "properties": {"Name":"Ocean Grove CDP","State":"Massachusetts","State_Abbrev":"MA"},
"geometry":{ "type": "Point", "coordinates": [-71.209192,41.728811]}},
{ "type": "Feature", "properties": {"Name":"Onset CDP","State":"Massachusetts","State_Abbrev":"MA"},
"geometry":{ "type": "Point", "coordinates": [-70.668256,41.745999]}},
{ "type": "Feature", "properties": {"Name":"Orange CDP","State":"Massachusetts","State_Abbrev":"MA"},
"geometry":{ "type": "Point", "coordinates": [-72.292074,42.605437]}},
{ "type": "Feature", "properties": {"Name":"Orleans CDP","State":"Massachusetts","State_Abbrev":"MA"},
"geometry":{ "type": "Point", "coordinates": [-70.00151,41.787762]}},
{ "type": "Feature", "properties": {"Name":"Oxford CDP","State":"Massachusetts","State_Abbrev":"MA"},
"geometry":{ "type": "Point", "coordinates": [-71.870094,42.115881]}},
{ "type": "Feature", "properties": {"Name":"Palmer Town city","State":"Massachusetts","State_Abbrev":"MA"},
"geometry":{ "type": "Point", "coordinates": [-72.30648,42.188862]}},
{ "type": "Feature", "properties": {"Name":"Peabody city","State":"Massachusetts","State_Abbrev":"MA"},
"geometry":{ "type": "Point", "coordinates": [-70.969443,42.53431]}},
{ "type": "Feature", "properties": {"Name":"Pepperell CDP","State":"Massachusetts","State_Abbrev":"MA"},
"geometry":{ "type": "Point", "coordinates": [-71.592088,42.675487]}},
{ "type": "Feature", "properties": {"Name":"Petersham CDP","State":"Massachusetts","State_Abbrev":"MA"},
"geometry":{ "type": "Point", "coordinates": [-72.187249,42.491042]}},
{ "type": "Feature", "properties": {"Name":"Pinehurst CDP","State":"Massachusetts","State_Abbrev":"MA"},
"geometry":{ "type": "Point", "coordinates": [-71.233491,42.533516]}},
{ "type": "Feature", "properties": {"Name":"Pittsfield city","State":"Massachusetts","State_Abbrev":"MA"},
"geometry":{ "type": "Point", "coordinates": [-73.260685,42.45184]}},
{ "type": "Feature", "properties": {"Name":"Plymouth CDP","State":"Massachusetts","State_Abbrev":"MA"},
"geometry":{ "type": "Point", "coordinates": [-70.6638,41.958343]}},
{ "type": "Feature", "properties": {"Name":"Pocasset CDP","State":"Massachusetts","State_Abbrev":"MA"},
"geometry":{ "type": "Point", "coordinates": [-70.649637,41.687021]}},
{ "type": "Feature", "properties": {"Name":"Popponesset CDP","State":"Massachusetts","State_Abbrev":"MA"},
"geometry":{ "type": "Point", "coordinates": [-70.463407,41.573602]}},
{ "type": "Feature", "properties": {"Name":"Popponesset Island CDP","State":"Massachusetts","State_Abbrev":"MA"},
"geometry":{ "type": "Point", "coordinates": [-70.46014,41.583856]}},
{ "type": "Feature", "properties": {"Name":"Provincetown CDP","State":"Massachusetts","State_Abbrev":"MA"},
"geometry":{ "type": "Point", "coordinates": [-70.178454,42.056519]}},
{ "type": "Feature", "properties": {"Name":"Quincy city","State":"Massachusetts","State_Abbrev":"MA"},
"geometry":{ "type": "Point", "coordinates": [-71.008988,42.261006]}},
{ "type": "Feature", "properties": {"Name":"Randolph Town city","State":"Massachusetts","State_Abbrev":"MA"},
"geometry":{ "type": "Point", "coordinates": [-71.052654,42.178993]}},
{ "type": "Feature", "properties": {"Name":"Raynham Center CDP","State":"Massachusetts","State_Abbrev":"MA"},
"geometry":{ "type": "Point", "coordinates": [-71.046214,41.93048]}},
{ "type": "Feature", "properties": {"Name":"Reading CDP","State":"Massachusetts","State_Abbrev":"MA"},
"geometry":{ "type": "Point", "coordinates": [-71.105423,42.535183]}},
{ "type": "Feature", "properties": {"Name":"Revere city","State":"Massachusetts","State_Abbrev":"MA"},
"geometry":{ "type": "Point", "coordinates": [-70.99036,42.421005]}},
{ "type": "Feature", "properties": {"Name":"Rockport CDP","State":"Massachusetts","State_Abbrev":"MA"},
"geometry":{ "type": "Point", "coordinates": [-70.62025,42.640699]}},
{ "type": "Feature", "properties": {"Name":"Rowley CDP","State":"Massachusetts","State_Abbrev":"MA"},
"geometry":{ "type": "Point", "coordinates": [-70.866915,42.717971]}},
{ "type": "Feature", "properties": {"Name":"Russell CDP","State":"Massachusetts","State_Abbrev":"MA"},
"geometry":{ "type": "Point", "coordinates": [-72.861862,42.203935]}},
{ "type": "Feature", "properties": {"Name":"Rutland CDP","State":"Massachusetts","State_Abbrev":"MA"},
"geometry":{ "type": "Point", "coordinates": [-71.957737,42.371533]}},
{ "type": "Feature", "properties": {"Name":"Sagamore CDP","State":"Massachusetts","State_Abbrev":"MA"},
"geometry":{ "type": "Point", "coordinates": [-70.532103,41.782818]}},
{ "type": "Feature", "properties": {"Name":"Salem city","State":"Massachusetts","State_Abbrev":"MA"},
"geometry":{ "type": "Point", "coordinates": [-70.898204,42.499248]}},
{ "type": "Feature", "properties": {"Name":"Salisbury CDP","State":"Massachusetts","State_Abbrev":"MA"},
"geometry":{ "type": "Point", "coordinates": [-70.847109,42.831098]}},
{ "type": "Feature", "properties": {"Name":"Sandwich CDP","State":"Massachusetts","State_Abbrev":"MA"},
"geometry":{ "type": "Point", "coordinates": [-70.498025,41.757066]}},
{ "type": "Feature", "properties": {"Name":"Saugus CDP","State":"Massachusetts","State_Abbrev":"MA"},
"geometry":{ "type": "Point", "coordinates": [-71.013946,42.468432]}},
{ "type": "Feature", "properties": {"Name":"Scituate CDP","State":"Massachusetts","State_Abbrev":"MA"},
"geometry":{ "type": "Point", "coordinates": [-70.734385,42.180292]}},
{ "type": "Feature", "properties": {"Name":"Seabrook CDP","State":"Massachusetts","State_Abbrev":"MA"},
"geometry":{ "type": "Point", "coordinates": [-70.497953,41.585381]}},
{ "type": "Feature", "properties": {"Name":"Seconsett Island CDP","State":"Massachusetts","State_Abbrev":"MA"},
"geometry":{ "type": "Point", "coordinates": [-70.512224,41.566793]}},
{ "type": "Feature", "properties": {"Name":"Sharon CDP","State":"Massachusetts","State_Abbrev":"MA"},
"geometry":{ "type": "Point", "coordinates": [-71.186029,42.117516]}},
{ "type": "Feature", "properties": {"Name":"Shelburne Falls CDP","State":"Massachusetts","State_Abbrev":"MA"},
"geometry":{ "type": "Point", "coordinates": [-72.746979,42.609512]}},
{ "type": "Feature", "properties": {"Name":"Shirley CDP","State":"Massachusetts","State_Abbrev":"MA"},
"geometry":{ "type": "Point", "coordinates": [-71.667352,42.536467]}},
{ "type": "Feature", "properties": {"Name":"Siasconset CDP","State":"Massachusetts","State_Abbrev":"MA"},
"geometry":{ "type": "Point", "coordinates": [-69.97303,41.265264]}},
{ "type": "Feature", "properties": {"Name":"Smith Mills CDP","State":"Massachusetts","State_Abbrev":"MA"},
"geometry":{ "type": "Point", "coordinates": [-70.998368,41.646744]}},
{ "type": "Feature", "properties": {"Name":"Somerset CDP","State":"Massachusetts","State_Abbrev":"MA"},
"geometry":{ "type": "Point", "coordinates": [-71.165053,41.738483]}},
{ "type": "Feature", "properties": {"Name":"Somerville city","State":"Massachusetts","State_Abbrev":"MA"},
"geometry":{ "type": "Point", "coordinates": [-71.101033,42.390445]}},
{ "type": "Feature", "properties": {"Name":"South Ashburnham CDP","State":"Massachusetts","State_Abbrev":"MA"},
"geometry":{ "type": "Point", "coordinates": [-71.943433,42.621064]}},
{ "type": "Feature", "properties": {"Name":"Southbridge Town city","State":"Massachusetts","State_Abbrev":"MA"},
"geometry":{ "type": "Point", "coordinates": [-72.033908,42.059737]}},
{ "type": "Feature", "properties": {"Name":"South Deerfield CDP","State":"Massachusetts","State_Abbrev":"MA"},
"geometry":{ "type": "Point", "coordinates": [-72.589793,42.481395]}},
{ "type": "Feature", "properties": {"Name":"South Dennis CDP","State":"Massachusetts","State_Abbrev":"MA"},
"geometry":{ "type": "Point", "coordinates": [-70.150651,41.704066]}},
{ "type": "Feature", "properties": {"Name":"South Duxbury CDP","State":"Massachusetts","State_Abbrev":"MA"},
"geometry":{ "type": "Point", "coordinates": [-70.689652,42.018108]}},
{ "type": "Feature", "properties": {"Name":"South Lancaster CDP","State":"Massachusetts","State_Abbrev":"MA"},
"geometry":{ "type": "Point", "coordinates": [-71.697093,42.437021]}},
{ "type": "Feature", "properties": {"Name":"South Yarmouth CDP","State":"Massachusetts","State_Abbrev":"MA"},
"geometry":{ "type": "Point", "coordinates": [-70.200793,41.667083]}},
{ "type": "Feature", "properties": {"Name":"Spencer CDP","State":"Massachusetts","State_Abbrev":"MA"},
"geometry":{ "type": "Point", "coordinates": [-71.99313,42.248575]}},
{ "type": "Feature", "properties": {"Name":"Springfield city","State":"Massachusetts","State_Abbrev":"MA"},
"geometry":{ "type": "Point", "coordinates": [-72.539978,42.115454]}},
{ "type": "Feature", "properties": {"Name":"Stoneham CDP","State":"Massachusetts","State_Abbrev":"MA"},
"geometry":{ "type": "Point", "coordinates": [-71.097665,42.474208]}},
{ "type": "Feature", "properties": {"Name":"Sturbridge CDP","State":"Massachusetts","State_Abbrev":"MA"},
"geometry":{ "type": "Point", "coordinates": [-72.054995,42.097106]}},
{ "type": "Feature", "properties": {"Name":"Swampscott CDP","State":"Massachusetts","State_Abbrev":"MA"},
"geometry":{ "type": "Point", "coordinates": [-70.89126,42.468059]}},
{ "type": "Feature", "properties": {"Name":"Taunton city","State":"Massachusetts","State_Abbrev":"MA"},
"geometry":{ "type": "Point", "coordinates": [-71.094987,41.903324]}},
{ "type": "Feature", "properties": {"Name":"Teaticket CDP","State":"Massachusetts","State_Abbrev":"MA"},
"geometry":{ "type": "Point", "coordinates": [-70.587349,41.562579]}},
{ "type": "Feature", "properties": {"Name":"The Pinehills CDP","State":"Massachusetts","State_Abbrev":"MA"},
"geometry":{ "type": "Point", "coordinates": [-70.594853,41.895788]}},
{ "type": "Feature", "properties": {"Name":"Topsfield CDP","State":"Massachusetts","State_Abbrev":"MA"},
"geometry":{ "type": "Point", "coordinates": [-70.955279,42.639401]}},
{ "type": "Feature", "properties": {"Name":"Townsend CDP","State":"Massachusetts","State_Abbrev":"MA"},
"geometry":{ "type": "Point", "coordinates": [-71.70977,42.676668]}},
{ "type": "Feature", "properties": {"Name":"Turners Falls CDP","State":"Massachusetts","State_Abbrev":"MA"},
"geometry":{ "type": "Point", "coordinates": [-72.556496,42.596675]}},
{ "type": "Feature", "properties": {"Name":"Upton CDP","State":"Massachusetts","State_Abbrev":"MA"},
"geometry":{ "type": "Point", "coordinates": [-71.610847,42.182147]}},
{ "type": "Feature", "properties": {"Name":"Vineyard Haven CDP","State":"Massachusetts","State_Abbrev":"MA"},
"geometry":{ "type": "Point", "coordinates": [-70.607459,41.457176]}},
{ "type": "Feature", "properties": {"Name":"Wakefield CDP","State":"Massachusetts","State_Abbrev":"MA"},
"geometry":{ "type": "Point", "coordinates": [-71.064061,42.504361]}},
{ "type": "Feature", "properties": {"Name":"Walpole CDP","State":"Massachusetts","State_Abbrev":"MA"},
"geometry":{ "type": "Point", "coordinates": [-71.240298,42.13386]}},
{ "type": "Feature", "properties": {"Name":"Waltham city","State":"Massachusetts","State_Abbrev":"MA"},
"geometry":{ "type": "Point", "coordinates": [-71.242268,42.388921]}},
{ "type": "Feature", "properties": {"Name":"Ware CDP","State":"Massachusetts","State_Abbrev":"MA"},
"geometry":{ "type": "Point", "coordinates": [-72.247655,42.250064]}},
{ "type": "Feature", "properties": {"Name":"Wareham Center CDP","State":"Massachusetts","State_Abbrev":"MA"},
"geometry":{ "type": "Point", "coordinates": [-70.720092,41.747468]}},
{ "type": "Feature", "properties": {"Name":"Warren CDP","State":"Massachusetts","State_Abbrev":"MA"},
"geometry":{ "type": "Point", "coordinates": [-72.185597,42.218285]}},
{ "type": "Feature", "properties": {"Name":"Watertown Town city","State":"Massachusetts","State_Abbrev":"MA"},
"geometry":{ "type": "Point", "coordinates": [-71.177925,42.369451]}},
{ "type": "Feature", "properties": {"Name":"Webster CDP","State":"Massachusetts","State_Abbrev":"MA"},
"geometry":{ "type": "Point", "coordinates": [-71.874522,42.046314]}},
{ "type": "Feature", "properties": {"Name":"Wellesley CDP","State":"Massachusetts","State_Abbrev":"MA"},
"geometry":{ "type": "Point", "coordinates": [-71.282917,42.305932]}},
{ "type": "Feature", "properties": {"Name":"Westborough CDP","State":"Massachusetts","State_Abbrev":"MA"},
"geometry":{ "type": "Point", "coordinates": [-71.617492,42.267441]}},
{ "type": "Feature", "properties": {"Name":"West Brookfield CDP","State":"Massachusetts","State_Abbrev":"MA"},
"geometry":{ "type": "Point", "coordinates": [-72.146862,42.24188]}},
{ "type": "Feature", "properties": {"Name":"West Chatham CDP","State":"Massachusetts","State_Abbrev":"MA"},
"geometry":{ "type": "Point", "coordinates": [-69.992569,41.680978]}},
{ "type": "Feature", "properties": {"Name":"West Concord CDP","State":"Massachusetts","State_Abbrev":"MA"},
"geometry":{ "type": "Point", "coordinates": [-71.403179,42.451857]}},
{ "type": "Feature", "properties": {"Name":"West Dennis CDP","State":"Massachusetts","State_Abbrev":"MA"},
"geometry":{ "type": "Point", "coordinates": [-70.165855,41.666716]}},
{ "type": "Feature", "properties": {"Name":"West Falmouth CDP","State":"Massachusetts","State_Abbrev":"MA"},
"geometry":{ "type": "Point", "coordinates": [-70.639319,41.601499]}},
{ "type": "Feature", "properties": {"Name":"Westfield city","State":"Massachusetts","State_Abbrev":"MA"},
"geometry":{ "type": "Point", "coordinates": [-72.755911,42.138838]}},
{ "type": "Feature", "properties": {"Name":"West Springfield Town city","State":"Massachusetts","State_Abbrev":"MA"},
"geometry":{ "type": "Point", "coordinates": [-72.649734,42.125451]}},
{ "type": "Feature", "properties": {"Name":"West Wareham CDP","State":"Massachusetts","State_Abbrev":"MA"},
"geometry":{ "type": "Point", "coordinates": [-70.757872,41.791736]}},
{ "type": "Feature", "properties": {"Name":"West Warren CDP","State":"Massachusetts","State_Abbrev":"MA"},
"geometry":{ "type": "Point", "coordinates": [-72.231228,42.219308]}},
{ "type": "Feature", "properties": {"Name":"West Yarmouth CDP","State":"Massachusetts","State_Abbrev":"MA"},
"geometry":{ "type": "Point", "coordinates": [-70.249978,41.647227]}},
{ "type": "Feature", "properties": {"Name":"Weweantic CDP","State":"Massachusetts","State_Abbrev":"MA"},
"geometry":{ "type": "Point", "coordinates": [-70.740024,41.747597]}},
{ "type": "Feature", "properties": {"Name":"Weymouth Town city","State":"Massachusetts","State_Abbrev":"MA"},
"geometry":{ "type": "Point", "coordinates": [-70.943687,42.2073]}},
{ "type": "Feature", "properties": {"Name":"White Island Shores CDP","State":"Massachusetts","State_Abbrev":"MA"},
"geometry":{ "type": "Point", "coordinates": [-70.637167,41.797819]}},
{ "type": "Feature", "properties": {"Name":"Whitinsville CDP","State":"Massachusetts","State_Abbrev":"MA"},
"geometry":{ "type": "Point", "coordinates": [-71.672496,42.1188]}},
{ "type": "Feature", "properties": {"Name":"Wilbraham CDP","State":"Massachusetts","State_Abbrev":"MA"},
"geometry":{ "type": "Point", "coordinates": [-72.438154,42.132114]}},
{ "type": "Feature", "properties": {"Name":"Williamstown CDP","State":"Massachusetts","State_Abbrev":"MA"},
"geometry":{ "type": "Point", "coordinates": [-73.201361,42.708906]}},
{ "type": "Feature", "properties": {"Name":"Wilmington CDP","State":"Massachusetts","State_Abbrev":"MA"},
"geometry":{ "type": "Point", "coordinates": [-71.164516,42.564647]}},
{ "type": "Feature", "properties": {"Name":"Winchendon CDP","State":"Massachusetts","State_Abbrev":"MA"},
"geometry":{ "type": "Point", "coordinates": [-72.04204,42.680415]}},
{ "type": "Feature", "properties": {"Name":"Winchester CDP","State":"Massachusetts","State_Abbrev":"MA"},
"geometry":{ "type": "Point", "coordinates": [-71.144319,42.452752]}},
{ "type": "Feature", "properties": {"Name":"Winthrop Town city","State":"Massachusetts","State_Abbrev":"MA"},
"geometry":{ "type": "Point", "coordinates": [-70.970646,42.375541]}},
{ "type": "Feature", "properties": {"Name":"Woburn city","State":"Massachusetts","State_Abbrev":"MA"},
"geometry":{ "type": "Point", "coordinates": [-71.154383,42.488703]}},
{ "type": "Feature", "properties": {"Name":"Woods Hole CDP","State":"Massachusetts","State_Abbrev":"MA"},
"geometry":{ "type": "Point", "coordinates": [-70.666481,41.528692]}},
{ "type": "Feature", "properties": {"Name":"Worcester city","State":"Massachusetts","State_Abbrev":"MA"},
"geometry":{ "type": "Point", "coordinates": [-71.807783,42.269478]}},
{ "type": "Feature", "properties": {"Name":"Yarmouth Port CDP","State":"Massachusetts","State_Abbrev":"MA"},
"geometry":{ "type": "Point", "coordinates": [-70.220928,41.707149]}}]}
