{"type":"FeatureCollection","features":[
{ "type": "Feature", "properties": {"Name":"Addison village","State":"Michigan","State_Abbrev":"MI"},
"geometry":{ "type": "Point", "coordinates": [-84.349076,41.985887]}},
{ "type": "Feature", "properties": {"Name":"Adrian city","State":"Michigan","State_Abbrev":"MI"},
"geometry":{ "type": "Point", "coordinates": [-84.044829,41.89878]}},
{ "type": "Feature", "properties": {"Name":"Advance CDP","State":"Michigan","State_Abbrev":"MI"},
"geometry":{ "type": "Point", "coordinates": [-85.078603,45.217651]}},
{ "type": "Feature", "properties": {"Name":"Ahmeek village","State":"Michigan","State_Abbrev":"MI"},
"geometry":{ "type": "Point", "coordinates": [-88.397112,47.298448]}},
{ "type": "Feature", "properties": {"Name":"Akron village","State":"Michigan","State_Abbrev":"MI"},
"geometry":{ "type": "Point", "coordinates": [-83.514295,43.566723]}},
{ "type": "Feature", "properties": {"Name":"Alanson village","State":"Michigan","State_Abbrev":"MI"},
"geometry":{ "type": "Point", "coordinates": [-84.786903,45.442484]}},
{ "type": "Feature", "properties": {"Name":"Alba CDP","State":"Michigan","State_Abbrev":"MI"},
"geometry":{ "type": "Point", "coordinates": [-84.969468,44.978598]}},
{ "type": "Feature", "properties": {"Name":"Albion city","State":"Michigan","State_Abbrev":"MI"},
"geometry":{ "type": "Point", "coordinates": [-84.759191,42.247855]}},
{ "type": "Feature", "properties": {"Name":"Alden CDP","State":"Michigan","State_Abbrev":"MI"},
"geometry":{ "type": "Point", "coordinates": [-85.272985,44.879187]}},
{ "type": "Feature", "properties": {"Name":"Algonac city","State":"Michigan","State_Abbrev":"MI"},
"geometry":{ "type": "Point", "coordinates": [-82.533915,42.620867]}},
{ "type": "Feature", "properties": {"Name":"Allegan city","State":"Michigan","State_Abbrev":"MI"},
"geometry":{ "type": "Point", "coordinates": [-85.839236,42.531075]}},
{ "type": "Feature", "properties": {"Name":"Allen village","State":"Michigan","State_Abbrev":"MI"},
"geometry":{ "type": "Point", "coordinates": [-84.768367,41.957991]}},
{ "type": "Feature", "properties": {"Name":"Allendale CDP","State":"Michigan","State_Abbrev":"MI"},
"geometry":{ "type": "Point", "coordinates": [-85.944126,42.981962]}},
{ "type": "Feature", "properties": {"Name":"Allen Park city","State":"Michigan","State_Abbrev":"MI"},
"geometry":{ "type": "Point", "coordinates": [-83.21039,42.259473]}},
{ "type": "Feature", "properties": {"Name":"Alma city","State":"Michigan","State_Abbrev":"MI"},
"geometry":{ "type": "Point", "coordinates": [-84.654445,43.380336]}},
{ "type": "Feature", "properties": {"Name":"Almont village","State":"Michigan","State_Abbrev":"MI"},
"geometry":{ "type": "Point", "coordinates": [-83.043472,42.920766]}},
{ "type": "Feature", "properties": {"Name":"Alpena city","State":"Michigan","State_Abbrev":"MI"},
"geometry":{ "type": "Point", "coordinates": [-83.443571,45.074475]}},
{ "type": "Feature", "properties": {"Name":"Alpha village","State":"Michigan","State_Abbrev":"MI"},
"geometry":{ "type": "Point", "coordinates": [-88.378444,46.044033]}},
{ "type": "Feature", "properties": {"Name":"Amasa CDP","State":"Michigan","State_Abbrev":"MI"},
"geometry":{ "type": "Point", "coordinates": [-88.458198,46.228799]}},
{ "type": "Feature", "properties": {"Name":"Ann Arbor city","State":"Michigan","State_Abbrev":"MI"},
"geometry":{ "type": "Point", "coordinates": [-83.73086,42.276147]}},
{ "type": "Feature", "properties": {"Name":"Applegate village","State":"Michigan","State_Abbrev":"MI"},
"geometry":{ "type": "Point", "coordinates": [-82.639197,43.359512]}},
{ "type": "Feature", "properties": {"Name":"Arcadia CDP","State":"Michigan","State_Abbrev":"MI"},
"geometry":{ "type": "Point", "coordinates": [-86.236542,44.492683]}},
{ "type": "Feature", "properties": {"Name":"Argentine CDP","State":"Michigan","State_Abbrev":"MI"},
"geometry":{ "type": "Point", "coordinates": [-83.838026,42.790313]}},
{ "type": "Feature", "properties": {"Name":"Armada village","State":"Michigan","State_Abbrev":"MI"},
"geometry":{ "type": "Point", "coordinates": [-82.881108,42.842083]}},
{ "type": "Feature", "properties": {"Name":"Ashley village","State":"Michigan","State_Abbrev":"MI"},
"geometry":{ "type": "Point", "coordinates": [-84.476007,43.186885]}},
{ "type": "Feature", "properties": {"Name":"Athens village","State":"Michigan","State_Abbrev":"MI"},
"geometry":{ "type": "Point", "coordinates": [-85.236217,42.087394]}},
{ "type": "Feature", "properties": {"Name":"Atlanta CDP","State":"Michigan","State_Abbrev":"MI"},
"geometry":{ "type": "Point", "coordinates": [-84.154815,45.004164]}},
{ "type": "Feature", "properties": {"Name":"Atlantic Mine CDP","State":"Michigan","State_Abbrev":"MI"},
"geometry":{ "type": "Point", "coordinates": [-88.628112,47.10369]}},
{ "type": "Feature", "properties": {"Name":"Attica CDP","State":"Michigan","State_Abbrev":"MI"},
"geometry":{ "type": "Point", "coordinates": [-83.160982,43.024395]}},
{ "type": "Feature", "properties": {"Name":"Auburn city","State":"Michigan","State_Abbrev":"MI"},
"geometry":{ "type": "Point", "coordinates": [-84.075106,43.602011]}},
{ "type": "Feature", "properties": {"Name":"Auburn Hills city","State":"Michigan","State_Abbrev":"MI"},
"geometry":{ "type": "Point", "coordinates": [-83.243606,42.67472]}},
{ "type": "Feature", "properties": {"Name":"Au Gres city","State":"Michigan","State_Abbrev":"MI"},
"geometry":{ "type": "Point", "coordinates": [-83.693409,44.044186]}},
{ "type": "Feature", "properties": {"Name":"Augusta village","State":"Michigan","State_Abbrev":"MI"},
"geometry":{ "type": "Point", "coordinates": [-85.352464,42.337672]}},
{ "type": "Feature", "properties": {"Name":"Au Sable CDP","State":"Michigan","State_Abbrev":"MI"},
"geometry":{ "type": "Point", "coordinates": [-83.339039,44.412586]}},
{ "type": "Feature", "properties": {"Name":"Bad Axe city","State":"Michigan","State_Abbrev":"MI"},
"geometry":{ "type": "Point", "coordinates": [-82.998319,43.804919]}},
{ "type": "Feature", "properties": {"Name":"Baldwin village","State":"Michigan","State_Abbrev":"MI"},
"geometry":{ "type": "Point", "coordinates": [-85.857218,43.897633]}},
{ "type": "Feature", "properties": {"Name":"Bancroft village","State":"Michigan","State_Abbrev":"MI"},
"geometry":{ "type": "Point", "coordinates": [-84.065809,42.876641]}},
{ "type": "Feature", "properties": {"Name":"Bangor city","State":"Michigan","State_Abbrev":"MI"},
"geometry":{ "type": "Point", "coordinates": [-86.113441,42.31243]}},
{ "type": "Feature", "properties": {"Name":"Baraga village","State":"Michigan","State_Abbrev":"MI"},
"geometry":{ "type": "Point", "coordinates": [-88.501207,46.775344]}},
{ "type": "Feature", "properties": {"Name":"Barnes Lake CDP","State":"Michigan","State_Abbrev":"MI"},
"geometry":{ "type": "Point", "coordinates": [-83.303283,43.182757]}},
{ "type": "Feature", "properties": {"Name":"Baroda village","State":"Michigan","State_Abbrev":"MI"},
"geometry":{ "type": "Point", "coordinates": [-86.487965,41.954018]}},
{ "type": "Feature", "properties": {"Name":"Barryton village","State":"Michigan","State_Abbrev":"MI"},
"geometry":{ "type": "Point", "coordinates": [-85.144572,43.751409]}},
{ "type": "Feature", "properties": {"Name":"Barton Hills village","State":"Michigan","State_Abbrev":"MI"},
"geometry":{ "type": "Point", "coordinates": [-83.756053,42.316673]}},
{ "type": "Feature", "properties": {"Name":"Bath CDP","State":"Michigan","State_Abbrev":"MI"},
"geometry":{ "type": "Point", "coordinates": [-84.454437,42.818964]}},
{ "type": "Feature", "properties": {"Name":"Battle Creek city","State":"Michigan","State_Abbrev":"MI"},
"geometry":{ "type": "Point", "coordinates": [-85.229267,42.299176]}},
{ "type": "Feature", "properties": {"Name":"Bay City city","State":"Michigan","State_Abbrev":"MI"},
"geometry":{ "type": "Point", "coordinates": [-83.888421,43.590062]}},
{ "type": "Feature", "properties": {"Name":"Bay Port CDP","State":"Michigan","State_Abbrev":"MI"},
"geometry":{ "type": "Point", "coordinates": [-83.368888,43.837078]}},
{ "type": "Feature", "properties": {"Name":"Bay Shore CDP","State":"Michigan","State_Abbrev":"MI"},
"geometry":{ "type": "Point", "coordinates": [-85.11155,45.36082]}},
{ "type": "Feature", "properties": {"Name":"Bay View CDP","State":"Michigan","State_Abbrev":"MI"},
"geometry":{ "type": "Point", "coordinates": [-84.929198,45.385819]}},
{ "type": "Feature", "properties": {"Name":"Beal City CDP","State":"Michigan","State_Abbrev":"MI"},
"geometry":{ "type": "Point", "coordinates": [-84.907957,43.667159]}},
{ "type": "Feature", "properties": {"Name":"Bear Lake CDP","State":"Michigan","State_Abbrev":"MI"},
"geometry":{ "type": "Point", "coordinates": [-84.94367,44.717532]}},
{ "type": "Feature", "properties": {"Name":"Bear Lake village","State":"Michigan","State_Abbrev":"MI"},
"geometry":{ "type": "Point", "coordinates": [-86.14525,44.419859]}},
{ "type": "Feature", "properties": {"Name":"Beaverton city","State":"Michigan","State_Abbrev":"MI"},
"geometry":{ "type": "Point", "coordinates": [-84.487676,43.880664]}},
{ "type": "Feature", "properties": {"Name":"Beecher CDP","State":"Michigan","State_Abbrev":"MI"},
"geometry":{ "type": "Point", "coordinates": [-83.704538,43.090466]}},
{ "type": "Feature", "properties": {"Name":"Beechwood CDP","State":"Michigan","State_Abbrev":"MI"},
"geometry":{ "type": "Point", "coordinates": [-86.1218,42.798987]}},
{ "type": "Feature", "properties": {"Name":"Belding city","State":"Michigan","State_Abbrev":"MI"},
"geometry":{ "type": "Point", "coordinates": [-85.233029,43.096485]}},
{ "type": "Feature", "properties": {"Name":"Bellaire village","State":"Michigan","State_Abbrev":"MI"},
"geometry":{ "type": "Point", "coordinates": [-85.205033,44.96995]}},
{ "type": "Feature", "properties": {"Name":"Belleville city","State":"Michigan","State_Abbrev":"MI"},
"geometry":{ "type": "Point", "coordinates": [-83.482812,42.201917]}},
{ "type": "Feature", "properties": {"Name":"Bellevue village","State":"Michigan","State_Abbrev":"MI"},
"geometry":{ "type": "Point", "coordinates": [-85.01871,42.444303]}},
{ "type": "Feature", "properties": {"Name":"Bendon CDP","State":"Michigan","State_Abbrev":"MI"},
"geometry":{ "type": "Point", "coordinates": [-85.847916,44.637099]}},
{ "type": "Feature", "properties": {"Name":"Benton Harbor city","State":"Michigan","State_Abbrev":"MI"},
"geometry":{ "type": "Point", "coordinates": [-86.44725,42.113495]}},
{ "type": "Feature", "properties": {"Name":"Benton Heights CDP","State":"Michigan","State_Abbrev":"MI"},
"geometry":{ "type": "Point", "coordinates": [-86.415051,42.122196]}},
{ "type": "Feature", "properties": {"Name":"Benzonia village","State":"Michigan","State_Abbrev":"MI"},
"geometry":{ "type": "Point", "coordinates": [-86.098936,44.616077]}},
{ "type": "Feature", "properties": {"Name":"Bergland CDP","State":"Michigan","State_Abbrev":"MI"},
"geometry":{ "type": "Point", "coordinates": [-89.574924,46.591152]}},
{ "type": "Feature", "properties": {"Name":"Berkley city","State":"Michigan","State_Abbrev":"MI"},
"geometry":{ "type": "Point", "coordinates": [-83.185342,42.498602]}},
{ "type": "Feature", "properties": {"Name":"Berrien Springs village","State":"Michigan","State_Abbrev":"MI"},
"geometry":{ "type": "Point", "coordinates": [-86.340238,41.947262]}},
{ "type": "Feature", "properties": {"Name":"Bessemer city","State":"Michigan","State_Abbrev":"MI"},
"geometry":{ "type": "Point", "coordinates": [-90.049836,46.477579]}},
{ "type": "Feature", "properties": {"Name":"Beulah village","State":"Michigan","State_Abbrev":"MI"},
"geometry":{ "type": "Point", "coordinates": [-86.09975,44.627315]}},
{ "type": "Feature", "properties": {"Name":"Beverly Hills village","State":"Michigan","State_Abbrev":"MI"},
"geometry":{ "type": "Point", "coordinates": [-83.24034,42.522543]}},
{ "type": "Feature", "properties": {"Name":"Big Bay CDP","State":"Michigan","State_Abbrev":"MI"},
"geometry":{ "type": "Point", "coordinates": [-87.708012,46.817343]}},
{ "type": "Feature", "properties": {"Name":"Big Rapids city","State":"Michigan","State_Abbrev":"MI"},
"geometry":{ "type": "Point", "coordinates": [-85.48125,43.699671]}},
{ "type": "Feature", "properties": {"Name":"Bingham Farms village","State":"Michigan","State_Abbrev":"MI"},
"geometry":{ "type": "Point", "coordinates": [-83.277997,42.517595]}},
{ "type": "Feature", "properties": {"Name":"Birch Run village","State":"Michigan","State_Abbrev":"MI"},
"geometry":{ "type": "Point", "coordinates": [-83.791674,43.250743]}},
{ "type": "Feature", "properties": {"Name":"Birmingham city","State":"Michigan","State_Abbrev":"MI"},
"geometry":{ "type": "Point", "coordinates": [-83.216576,42.544805]}},
{ "type": "Feature", "properties": {"Name":"Blissfield village","State":"Michigan","State_Abbrev":"MI"},
"geometry":{ "type": "Point", "coordinates": [-83.864239,41.831034]}},
{ "type": "Feature", "properties": {"Name":"Bloomfield Hills city","State":"Michigan","State_Abbrev":"MI"},
"geometry":{ "type": "Point", "coordinates": [-83.246418,42.581359]}},
{ "type": "Feature", "properties": {"Name":"Bloomingdale village","State":"Michigan","State_Abbrev":"MI"},
"geometry":{ "type": "Point", "coordinates": [-85.965151,42.386364]}},
{ "type": "Feature", "properties": {"Name":"Boon CDP","State":"Michigan","State_Abbrev":"MI"},
"geometry":{ "type": "Point", "coordinates": [-85.601314,44.28768]}},
{ "type": "Feature", "properties": {"Name":"Boyne City city","State":"Michigan","State_Abbrev":"MI"},
"geometry":{ "type": "Point", "coordinates": [-85.012443,45.212987]}},
{ "type": "Feature", "properties": {"Name":"Boyne Falls village","State":"Michigan","State_Abbrev":"MI"},
"geometry":{ "type": "Point", "coordinates": [-84.913482,45.16808]}},
{ "type": "Feature", "properties": {"Name":"Breckenridge village","State":"Michigan","State_Abbrev":"MI"},
"geometry":{ "type": "Point", "coordinates": [-84.478549,43.407686]}},
{ "type": "Feature", "properties": {"Name":"Breedsville village","State":"Michigan","State_Abbrev":"MI"},
"geometry":{ "type": "Point", "coordinates": [-86.067386,42.350328]}},
{ "type": "Feature", "properties": {"Name":"Brethren CDP","State":"Michigan","State_Abbrev":"MI"},
"geometry":{ "type": "Point", "coordinates": [-86.016741,44.304838]}},
{ "type": "Feature", "properties": {"Name":"Bridgeport CDP","State":"Michigan","State_Abbrev":"MI"},
"geometry":{ "type": "Point", "coordinates": [-83.881964,43.370815]}},
{ "type": "Feature", "properties": {"Name":"Bridgman city","State":"Michigan","State_Abbrev":"MI"},
"geometry":{ "type": "Point", "coordinates": [-86.56711,41.935169]}},
{ "type": "Feature", "properties": {"Name":"Brighton city","State":"Michigan","State_Abbrev":"MI"},
"geometry":{ "type": "Point", "coordinates": [-83.784545,42.529705]}},
{ "type": "Feature", "properties": {"Name":"Brimley CDP","State":"Michigan","State_Abbrev":"MI"},
"geometry":{ "type": "Point", "coordinates": [-84.583295,46.407293]}},
{ "type": "Feature", "properties": {"Name":"Britton village","State":"Michigan","State_Abbrev":"MI"},
"geometry":{ "type": "Point", "coordinates": [-83.830455,41.987656]}},
{ "type": "Feature", "properties": {"Name":"Bronson city","State":"Michigan","State_Abbrev":"MI"},
"geometry":{ "type": "Point", "coordinates": [-85.190768,41.872087]}},
{ "type": "Feature", "properties": {"Name":"Brooklyn village","State":"Michigan","State_Abbrev":"MI"},
"geometry":{ "type": "Point", "coordinates": [-84.248804,42.105526]}},
{ "type": "Feature", "properties": {"Name":"Brown City city","State":"Michigan","State_Abbrev":"MI"},
"geometry":{ "type": "Point", "coordinates": [-82.988376,43.211479]}},
{ "type": "Feature", "properties": {"Name":"Brownlee Park CDP","State":"Michigan","State_Abbrev":"MI"},
"geometry":{ "type": "Point", "coordinates": [-85.133657,42.328278]}},
{ "type": "Feature", "properties": {"Name":"Bruce Crossing CDP","State":"Michigan","State_Abbrev":"MI"},
"geometry":{ "type": "Point", "coordinates": [-89.177876,46.539364]}},
{ "type": "Feature", "properties": {"Name":"Brutus CDP","State":"Michigan","State_Abbrev":"MI"},
"geometry":{ "type": "Point", "coordinates": [-84.781778,45.494438]}},
{ "type": "Feature", "properties": {"Name":"Buchanan city","State":"Michigan","State_Abbrev":"MI"},
"geometry":{ "type": "Point", "coordinates": [-86.365974,41.828291]}},
{ "type": "Feature", "properties": {"Name":"Buckley village","State":"Michigan","State_Abbrev":"MI"},
"geometry":{ "type": "Point", "coordinates": [-85.674382,44.499953]}},
{ "type": "Feature", "properties": {"Name":"Buena Vista CDP","State":"Michigan","State_Abbrev":"MI"},
"geometry":{ "type": "Point", "coordinates": [-83.900535,43.417451]}},
{ "type": "Feature", "properties": {"Name":"Burlington village","State":"Michigan","State_Abbrev":"MI"},
"geometry":{ "type": "Point", "coordinates": [-85.077531,42.103795]}},
{ "type": "Feature", "properties": {"Name":"Burr Oak village","State":"Michigan","State_Abbrev":"MI"},
"geometry":{ "type": "Point", "coordinates": [-85.323948,41.847416]}},
{ "type": "Feature", "properties": {"Name":"Burt CDP","State":"Michigan","State_Abbrev":"MI"},
"geometry":{ "type": "Point", "coordinates": [-83.903124,43.235651]}},
{ "type": "Feature", "properties": {"Name":"Burton city","State":"Michigan","State_Abbrev":"MI"},
"geometry":{ "type": "Point", "coordinates": [-83.618151,43.000745]}},
{ "type": "Feature", "properties": {"Name":"Byron village","State":"Michigan","State_Abbrev":"MI"},
"geometry":{ "type": "Point", "coordinates": [-83.949907,42.820703]}},
{ "type": "Feature", "properties": {"Name":"Byron Center CDP","State":"Michigan","State_Abbrev":"MI"},
"geometry":{ "type": "Point", "coordinates": [-85.726365,42.80946]}},
{ "type": "Feature", "properties": {"Name":"Caberfae CDP","State":"Michigan","State_Abbrev":"MI"},
"geometry":{ "type": "Point", "coordinates": [-85.725636,44.249154]}},
{ "type": "Feature", "properties": {"Name":"Cadillac city","State":"Michigan","State_Abbrev":"MI"},
"geometry":{ "type": "Point", "coordinates": [-85.413986,44.251327]}},
{ "type": "Feature", "properties": {"Name":"Caledonia village","State":"Michigan","State_Abbrev":"MI"},
"geometry":{ "type": "Point", "coordinates": [-85.5171,42.794743]}},
{ "type": "Feature", "properties": {"Name":"Calumet village","State":"Michigan","State_Abbrev":"MI"},
"geometry":{ "type": "Point", "coordinates": [-88.453416,47.247744]}},
{ "type": "Feature", "properties": {"Name":"Cambria CDP","State":"Michigan","State_Abbrev":"MI"},
"geometry":{ "type": "Point", "coordinates": [-84.660595,41.815055]}},
{ "type": "Feature", "properties": {"Name":"Camden village","State":"Michigan","State_Abbrev":"MI"},
"geometry":{ "type": "Point", "coordinates": [-84.756249,41.754934]}},
{ "type": "Feature", "properties": {"Name":"Canada Creek Ranch CDP","State":"Michigan","State_Abbrev":"MI"},
"geometry":{ "type": "Point", "coordinates": [-84.209931,45.17289]}},
{ "type": "Feature", "properties": {"Name":"Canadian Lakes CDP","State":"Michigan","State_Abbrev":"MI"},
"geometry":{ "type": "Point", "coordinates": [-85.303402,43.580629]}},
{ "type": "Feature", "properties": {"Name":"Cannonsburg CDP","State":"Michigan","State_Abbrev":"MI"},
"geometry":{ "type": "Point", "coordinates": [-85.474287,43.054116]}},
{ "type": "Feature", "properties": {"Name":"Capac village","State":"Michigan","State_Abbrev":"MI"},
"geometry":{ "type": "Point", "coordinates": [-82.92228,43.003889]}},
{ "type": "Feature", "properties": {"Name":"Carleton village","State":"Michigan","State_Abbrev":"MI"},
"geometry":{ "type": "Point", "coordinates": [-83.389838,42.057195]}},
{ "type": "Feature", "properties": {"Name":"Carney village","State":"Michigan","State_Abbrev":"MI"},
"geometry":{ "type": "Point", "coordinates": [-87.554685,45.59354]}},
{ "type": "Feature", "properties": {"Name":"Caro city","State":"Michigan","State_Abbrev":"MI"},
"geometry":{ "type": "Point", "coordinates": [-83.401744,43.489303]}},
{ "type": "Feature", "properties": {"Name":"Carp Lake CDP","State":"Michigan","State_Abbrev":"MI"},
"geometry":{ "type": "Point", "coordinates": [-84.750297,45.696939]}},
{ "type": "Feature", "properties": {"Name":"Carson City city","State":"Michigan","State_Abbrev":"MI"},
"geometry":{ "type": "Point", "coordinates": [-84.845223,43.181536]}},
{ "type": "Feature", "properties": {"Name":"Carsonville village","State":"Michigan","State_Abbrev":"MI"},
"geometry":{ "type": "Point", "coordinates": [-82.672952,43.42571]}},
{ "type": "Feature", "properties": {"Name":"Caseville city","State":"Michigan","State_Abbrev":"MI"},
"geometry":{ "type": "Point", "coordinates": [-83.275289,43.94164]}},
{ "type": "Feature", "properties": {"Name":"Casnovia village","State":"Michigan","State_Abbrev":"MI"},
"geometry":{ "type": "Point", "coordinates": [-85.787451,43.231998]}},
{ "type": "Feature", "properties": {"Name":"Caspian city","State":"Michigan","State_Abbrev":"MI"},
"geometry":{ "type": "Point", "coordinates": [-88.626646,46.065305]}},
{ "type": "Feature", "properties": {"Name":"Cass City village","State":"Michigan","State_Abbrev":"MI"},
"geometry":{ "type": "Point", "coordinates": [-83.176455,43.600321]}},
{ "type": "Feature", "properties": {"Name":"Cassopolis village","State":"Michigan","State_Abbrev":"MI"},
"geometry":{ "type": "Point", "coordinates": [-86.008184,41.912485]}},
{ "type": "Feature", "properties": {"Name":"Cedar CDP","State":"Michigan","State_Abbrev":"MI"},
"geometry":{ "type": "Point", "coordinates": [-85.794058,44.846668]}},
{ "type": "Feature", "properties": {"Name":"Cedar Springs city","State":"Michigan","State_Abbrev":"MI"},
"geometry":{ "type": "Point", "coordinates": [-85.553027,43.220435]}},
{ "type": "Feature", "properties": {"Name":"Cement City village","State":"Michigan","State_Abbrev":"MI"},
"geometry":{ "type": "Point", "coordinates": [-84.327619,42.068395]}},
{ "type": "Feature", "properties": {"Name":"Center Line city","State":"Michigan","State_Abbrev":"MI"},
"geometry":{ "type": "Point", "coordinates": [-83.027424,42.480563]}},
{ "type": "Feature", "properties": {"Name":"Central Lake village","State":"Michigan","State_Abbrev":"MI"},
"geometry":{ "type": "Point", "coordinates": [-85.263236,45.069781]}},
{ "type": "Feature", "properties": {"Name":"Centreville village","State":"Michigan","State_Abbrev":"MI"},
"geometry":{ "type": "Point", "coordinates": [-85.525944,41.920791]}},
{ "type": "Feature", "properties": {"Name":"Charlevoix city","State":"Michigan","State_Abbrev":"MI"},
"geometry":{ "type": "Point", "coordinates": [-85.25563,45.313796]}},
{ "type": "Feature", "properties": {"Name":"Charlotte city","State":"Michigan","State_Abbrev":"MI"},
"geometry":{ "type": "Point", "coordinates": [-84.831839,42.566202]}},
{ "type": "Feature", "properties": {"Name":"Chassell CDP","State":"Michigan","State_Abbrev":"MI"},
"geometry":{ "type": "Point", "coordinates": [-88.530745,47.036116]}},
{ "type": "Feature", "properties": {"Name":"Chatham village","State":"Michigan","State_Abbrev":"MI"},
"geometry":{ "type": "Point", "coordinates": [-86.931268,46.344074]}},
{ "type": "Feature", "properties": {"Name":"Cheboygan city","State":"Michigan","State_Abbrev":"MI"},
"geometry":{ "type": "Point", "coordinates": [-84.468763,45.641914]}},
{ "type": "Feature", "properties": {"Name":"Chelsea city","State":"Michigan","State_Abbrev":"MI"},
"geometry":{ "type": "Point", "coordinates": [-84.019416,42.311392]}},
{ "type": "Feature", "properties": {"Name":"Chesaning village","State":"Michigan","State_Abbrev":"MI"},
"geometry":{ "type": "Point", "coordinates": [-84.119881,43.185505]}},
{ "type": "Feature", "properties": {"Name":"Chums Corner CDP","State":"Michigan","State_Abbrev":"MI"},
"geometry":{ "type": "Point", "coordinates": [-85.658151,44.67652]}},
{ "type": "Feature", "properties": {"Name":"Clare city","State":"Michigan","State_Abbrev":"MI"},
"geometry":{ "type": "Point", "coordinates": [-84.761755,43.826006]}},
{ "type": "Feature", "properties": {"Name":"Clarksville village","State":"Michigan","State_Abbrev":"MI"},
"geometry":{ "type": "Point", "coordinates": [-85.242539,42.842091]}},
{ "type": "Feature", "properties": {"Name":"Clawson city","State":"Michigan","State_Abbrev":"MI"},
"geometry":{ "type": "Point", "coordinates": [-83.150409,42.536672]}},
{ "type": "Feature", "properties": {"Name":"Clayton village","State":"Michigan","State_Abbrev":"MI"},
"geometry":{ "type": "Point", "coordinates": [-84.234762,41.864866]}},
{ "type": "Feature", "properties": {"Name":"Clifford village","State":"Michigan","State_Abbrev":"MI"},
"geometry":{ "type": "Point", "coordinates": [-83.1796,43.315129]}},
{ "type": "Feature", "properties": {"Name":"Climax village","State":"Michigan","State_Abbrev":"MI"},
"geometry":{ "type": "Point", "coordinates": [-85.336021,42.238303]}},
{ "type": "Feature", "properties": {"Name":"Clinton village","State":"Michigan","State_Abbrev":"MI"},
"geometry":{ "type": "Point", "coordinates": [-83.965732,42.068279]}},
{ "type": "Feature", "properties": {"Name":"Clio city","State":"Michigan","State_Abbrev":"MI"},
"geometry":{ "type": "Point", "coordinates": [-83.735633,43.176951]}},
{ "type": "Feature", "properties": {"Name":"Coldwater city","State":"Michigan","State_Abbrev":"MI"},
"geometry":{ "type": "Point", "coordinates": [-84.999302,41.94601]}},
{ "type": "Feature", "properties": {"Name":"Coleman city","State":"Michigan","State_Abbrev":"MI"},
"geometry":{ "type": "Point", "coordinates": [-84.586917,43.75916]}},
{ "type": "Feature", "properties": {"Name":"Coloma city","State":"Michigan","State_Abbrev":"MI"},
"geometry":{ "type": "Point", "coordinates": [-86.309346,42.18657]}},
{ "type": "Feature", "properties": {"Name":"Colon village","State":"Michigan","State_Abbrev":"MI"},
"geometry":{ "type": "Point", "coordinates": [-85.319439,41.962674]}},
{ "type": "Feature", "properties": {"Name":"Columbiaville village","State":"Michigan","State_Abbrev":"MI"},
"geometry":{ "type": "Point", "coordinates": [-83.404164,43.154309]}},
{ "type": "Feature", "properties": {"Name":"Comstock Northwest CDP","State":"Michigan","State_Abbrev":"MI"},
"geometry":{ "type": "Point", "coordinates": [-85.517045,42.321348]}},
{ "type": "Feature", "properties": {"Name":"Comstock Park CDP","State":"Michigan","State_Abbrev":"MI"},
"geometry":{ "type": "Point", "coordinates": [-85.676323,43.04412]}},
{ "type": "Feature", "properties": {"Name":"Concord village","State":"Michigan","State_Abbrev":"MI"},
"geometry":{ "type": "Point", "coordinates": [-84.645489,42.176996]}},
{ "type": "Feature", "properties": {"Name":"Constantine village","State":"Michigan","State_Abbrev":"MI"},
"geometry":{ "type": "Point", "coordinates": [-85.665212,41.837955]}},
{ "type": "Feature", "properties": {"Name":"Conway CDP","State":"Michigan","State_Abbrev":"MI"},
"geometry":{ "type": "Point", "coordinates": [-84.870914,45.409086]}},
{ "type": "Feature", "properties": {"Name":"Coopersville city","State":"Michigan","State_Abbrev":"MI"},
"geometry":{ "type": "Point", "coordinates": [-85.933752,43.065467]}},
{ "type": "Feature", "properties": {"Name":"Copemish village","State":"Michigan","State_Abbrev":"MI"},
"geometry":{ "type": "Point", "coordinates": [-85.92515,44.481667]}},
{ "type": "Feature", "properties": {"Name":"Copper City village","State":"Michigan","State_Abbrev":"MI"},
"geometry":{ "type": "Point", "coordinates": [-88.387549,47.284199]}},
{ "type": "Feature", "properties": {"Name":"Copper Harbor CDP","State":"Michigan","State_Abbrev":"MI"},
"geometry":{ "type": "Point", "coordinates": [-87.869878,47.467908]}},
{ "type": "Feature", "properties": {"Name":"Corunna city","State":"Michigan","State_Abbrev":"MI"},
"geometry":{ "type": "Point", "coordinates": [-84.115863,42.983392]}},
{ "type": "Feature", "properties": {"Name":"Covington CDP","State":"Michigan","State_Abbrev":"MI"},
"geometry":{ "type": "Point", "coordinates": [-88.54562,46.538599]}},
{ "type": "Feature", "properties": {"Name":"Cross Village CDP","State":"Michigan","State_Abbrev":"MI"},
"geometry":{ "type": "Point", "coordinates": [-85.031197,45.643907]}},
{ "type": "Feature", "properties": {"Name":"Croswell city","State":"Michigan","State_Abbrev":"MI"},
"geometry":{ "type": "Point", "coordinates": [-82.61883,43.274442]}},
{ "type": "Feature", "properties": {"Name":"Crystal CDP","State":"Michigan","State_Abbrev":"MI"},
"geometry":{ "type": "Point", "coordinates": [-84.931941,43.259014]}},
{ "type": "Feature", "properties": {"Name":"Crystal Downs Country Club CDP","State":"Michigan","State_Abbrev":"MI"},
"geometry":{ "type": "Point", "coordinates": [-86.230862,44.701445]}},
{ "type": "Feature", "properties": {"Name":"Crystal Falls city","State":"Michigan","State_Abbrev":"MI"},
"geometry":{ "type": "Point", "coordinates": [-88.321439,46.090199]}},
{ "type": "Feature", "properties": {"Name":"Crystal Mountain CDP","State":"Michigan","State_Abbrev":"MI"},
"geometry":{ "type": "Point", "coordinates": [-86.002247,44.524268]}},
{ "type": "Feature", "properties": {"Name":"Custer village","State":"Michigan","State_Abbrev":"MI"},
"geometry":{ "type": "Point", "coordinates": [-86.219584,43.951136]}},
{ "type": "Feature", "properties": {"Name":"Cutlerville CDP","State":"Michigan","State_Abbrev":"MI"},
"geometry":{ "type": "Point", "coordinates": [-85.672784,42.838729]}},
{ "type": "Feature", "properties": {"Name":"Daggett village","State":"Michigan","State_Abbrev":"MI"},
"geometry":{ "type": "Point", "coordinates": [-87.604684,45.46201]}},
{ "type": "Feature", "properties": {"Name":"Dansville village","State":"Michigan","State_Abbrev":"MI"},
"geometry":{ "type": "Point", "coordinates": [-84.302516,42.555453]}},
{ "type": "Feature", "properties": {"Name":"Davison city","State":"Michigan","State_Abbrev":"MI"},
"geometry":{ "type": "Point", "coordinates": [-83.518677,43.031783]}},
{ "type": "Feature", "properties": {"Name":"Dearborn city","State":"Michigan","State_Abbrev":"MI"},
"geometry":{ "type": "Point", "coordinates": [-83.211488,42.313057]}},
{ "type": "Feature", "properties": {"Name":"Dearborn Heights city","State":"Michigan","State_Abbrev":"MI"},
"geometry":{ "type": "Point", "coordinates": [-83.288832,42.335671]}},
{ "type": "Feature", "properties": {"Name":"Decatur village","State":"Michigan","State_Abbrev":"MI"},
"geometry":{ "type": "Point", "coordinates": [-85.975022,42.10767]}},
{ "type": "Feature", "properties": {"Name":"Deckerville village","State":"Michigan","State_Abbrev":"MI"},
"geometry":{ "type": "Point", "coordinates": [-82.742039,43.526531]}},
{ "type": "Feature", "properties": {"Name":"Deerfield village","State":"Michigan","State_Abbrev":"MI"},
"geometry":{ "type": "Point", "coordinates": [-83.778855,41.890188]}},
{ "type": "Feature", "properties": {"Name":"Delton CDP","State":"Michigan","State_Abbrev":"MI"},
"geometry":{ "type": "Point", "coordinates": [-85.413167,42.494554]}},
{ "type": "Feature", "properties": {"Name":"De Tour Village village","State":"Michigan","State_Abbrev":"MI"},
"geometry":{ "type": "Point", "coordinates": [-83.913229,45.983001]}},
{ "type": "Feature", "properties": {"Name":"Detroit city","State":"Michigan","State_Abbrev":"MI"},
"geometry":{ "type": "Point", "coordinates": [-83.102237,42.383037]}},
{ "type": "Feature", "properties": {"Name":"Detroit Beach CDP","State":"Michigan","State_Abbrev":"MI"},
"geometry":{ "type": "Point", "coordinates": [-83.328277,41.931078]}},
{ "type": "Feature", "properties": {"Name":"DeWitt city","State":"Michigan","State_Abbrev":"MI"},
"geometry":{ "type": "Point", "coordinates": [-84.583837,42.838828]}},
{ "type": "Feature", "properties": {"Name":"Dexter city","State":"Michigan","State_Abbrev":"MI"},
"geometry":{ "type": "Point", "coordinates": [-83.881027,42.332256]}},
{ "type": "Feature", "properties": {"Name":"Dimondale village","State":"Michigan","State_Abbrev":"MI"},
"geometry":{ "type": "Point", "coordinates": [-84.645512,42.65066]}},
{ "type": "Feature", "properties": {"Name":"Dodgeville CDP","State":"Michigan","State_Abbrev":"MI"},
"geometry":{ "type": "Point", "coordinates": [-88.57971,47.091218]}},
{ "type": "Feature", "properties": {"Name":"Dollar Bay CDP","State":"Michigan","State_Abbrev":"MI"},
"geometry":{ "type": "Point", "coordinates": [-88.507035,47.127287]}},
{ "type": "Feature", "properties": {"Name":"Dorr CDP","State":"Michigan","State_Abbrev":"MI"},
"geometry":{ "type": "Point", "coordinates": [-85.716885,42.726723]}},
{ "type": "Feature", "properties": {"Name":"Douglas city","State":"Michigan","State_Abbrev":"MI"},
"geometry":{ "type": "Point", "coordinates": [-86.207604,42.638926]}},
{ "type": "Feature", "properties": {"Name":"Dowagiac city","State":"Michigan","State_Abbrev":"MI"},
"geometry":{ "type": "Point", "coordinates": [-86.112844,41.983432]}},
{ "type": "Feature", "properties": {"Name":"Dowling CDP","State":"Michigan","State_Abbrev":"MI"},
"geometry":{ "type": "Point", "coordinates": [-85.234176,42.529764]}},
{ "type": "Feature", "properties": {"Name":"Dryden village","State":"Michigan","State_Abbrev":"MI"},
"geometry":{ "type": "Point", "coordinates": [-83.123986,42.945581]}},
{ "type": "Feature", "properties": {"Name":"Dundee village","State":"Michigan","State_Abbrev":"MI"},
"geometry":{ "type": "Point", "coordinates": [-83.669419,41.966485]}},
{ "type": "Feature", "properties": {"Name":"Durand city","State":"Michigan","State_Abbrev":"MI"},
"geometry":{ "type": "Point", "coordinates": [-83.989076,42.912759]}},
{ "type": "Feature", "properties": {"Name":"Eagle village","State":"Michigan","State_Abbrev":"MI"},
"geometry":{ "type": "Point", "coordinates": [-84.79089,42.809794]}},
{ "type": "Feature", "properties": {"Name":"Eagle Harbor CDP","State":"Michigan","State_Abbrev":"MI"},
"geometry":{ "type": "Point", "coordinates": [-88.153496,47.451539]}},
{ "type": "Feature", "properties": {"Name":"Eagle River CDP","State":"Michigan","State_Abbrev":"MI"},
"geometry":{ "type": "Point", "coordinates": [-88.261155,47.404434]}},
{ "type": "Feature", "properties": {"Name":"East Grand Rapids city","State":"Michigan","State_Abbrev":"MI"},
"geometry":{ "type": "Point", "coordinates": [-85.606762,42.946581]}},
{ "type": "Feature", "properties": {"Name":"East Jordan city","State":"Michigan","State_Abbrev":"MI"},
"geometry":{ "type": "Point", "coordinates": [-85.130389,45.152234]}},
{ "type": "Feature", "properties": {"Name":"Eastlake village","State":"Michigan","State_Abbrev":"MI"},
"geometry":{ "type": "Point", "coordinates": [-86.292896,44.245531]}},
{ "type": "Feature", "properties": {"Name":"East Lansing city","State":"Michigan","State_Abbrev":"MI"},
"geometry":{ "type": "Point", "coordinates": [-84.482442,42.748913]}},
{ "type": "Feature", "properties": {"Name":"Eastpointe city","State":"Michigan","State_Abbrev":"MI"},
"geometry":{ "type": "Point", "coordinates": [-82.946341,42.46608]}},
{ "type": "Feature", "properties": {"Name":"Eastport CDP","State":"Michigan","State_Abbrev":"MI"},
"geometry":{ "type": "Point", "coordinates": [-85.351098,45.111759]}},
{ "type": "Feature", "properties": {"Name":"East Tawas city","State":"Michigan","State_Abbrev":"MI"},
"geometry":{ "type": "Point", "coordinates": [-83.48377,44.290803]}},
{ "type": "Feature", "properties": {"Name":"Eastwood CDP","State":"Michigan","State_Abbrev":"MI"},
"geometry":{ "type": "Point", "coordinates": [-85.544559,42.302281]}},
{ "type": "Feature", "properties": {"Name":"Eaton Rapids city","State":"Michigan","State_Abbrev":"MI"},
"geometry":{ "type": "Point", "coordinates": [-84.651875,42.509741]}},
{ "type": "Feature", "properties": {"Name":"Eau Claire village","State":"Michigan","State_Abbrev":"MI"},
"geometry":{ "type": "Point", "coordinates": [-86.307533,41.983877]}},
{ "type": "Feature", "properties": {"Name":"Ecorse city","State":"Michigan","State_Abbrev":"MI"},
"geometry":{ "type": "Point", "coordinates": [-83.140439,42.249592]}},
{ "type": "Feature", "properties": {"Name":"Edgemont Park CDP","State":"Michigan","State_Abbrev":"MI"},
"geometry":{ "type": "Point", "coordinates": [-84.59261,42.746736]}},
{ "type": "Feature", "properties": {"Name":"Edmore village","State":"Michigan","State_Abbrev":"MI"},
"geometry":{ "type": "Point", "coordinates": [-85.036493,43.407602]}},
{ "type": "Feature", "properties": {"Name":"Edwardsburg village","State":"Michigan","State_Abbrev":"MI"},
"geometry":{ "type": "Point", "coordinates": [-86.083498,41.795374]}},
{ "type": "Feature", "properties": {"Name":"Elberta village","State":"Michigan","State_Abbrev":"MI"},
"geometry":{ "type": "Point", "coordinates": [-86.234159,44.620668]}},
{ "type": "Feature", "properties": {"Name":"Elk Rapids village","State":"Michigan","State_Abbrev":"MI"},
"geometry":{ "type": "Point", "coordinates": [-85.40454,44.898015]}},
{ "type": "Feature", "properties": {"Name":"Elkton village","State":"Michigan","State_Abbrev":"MI"},
"geometry":{ "type": "Point", "coordinates": [-83.180951,43.818268]}},
{ "type": "Feature", "properties": {"Name":"Ellsworth village","State":"Michigan","State_Abbrev":"MI"},
"geometry":{ "type": "Point", "coordinates": [-85.242917,45.167207]}},
{ "type": "Feature", "properties": {"Name":"Elm Hall CDP","State":"Michigan","State_Abbrev":"MI"},
"geometry":{ "type": "Point", "coordinates": [-84.830703,43.357328]}},
{ "type": "Feature", "properties": {"Name":"Elsie village","State":"Michigan","State_Abbrev":"MI"},
"geometry":{ "type": "Point", "coordinates": [-84.388514,43.089262]}},
{ "type": "Feature", "properties": {"Name":"Emmett village","State":"Michigan","State_Abbrev":"MI"},
"geometry":{ "type": "Point", "coordinates": [-82.765289,42.993413]}},
{ "type": "Feature", "properties": {"Name":"Empire village","State":"Michigan","State_Abbrev":"MI"},
"geometry":{ "type": "Point", "coordinates": [-86.059268,44.812606]}},
{ "type": "Feature", "properties": {"Name":"Escanaba city","State":"Michigan","State_Abbrev":"MI"},
"geometry":{ "type": "Point", "coordinates": [-87.083605,45.746289]}},
{ "type": "Feature", "properties": {"Name":"Essexville city","State":"Michigan","State_Abbrev":"MI"},
"geometry":{ "type": "Point", "coordinates": [-83.841983,43.61229]}},
{ "type": "Feature", "properties": {"Name":"Estral Beach village","State":"Michigan","State_Abbrev":"MI"},
"geometry":{ "type": "Point", "coordinates": [-83.23586,41.98597]}},
{ "type": "Feature", "properties": {"Name":"Eureka CDP","State":"Michigan","State_Abbrev":"MI"},
"geometry":{ "type": "Point", "coordinates": [-84.513605,43.103604]}},
{ "type": "Feature", "properties": {"Name":"Evart city","State":"Michigan","State_Abbrev":"MI"},
"geometry":{ "type": "Point", "coordinates": [-85.270534,43.898807]}},
{ "type": "Feature", "properties": {"Name":"Ewen CDP","State":"Michigan","State_Abbrev":"MI"},
"geometry":{ "type": "Point", "coordinates": [-89.285196,46.533156]}},
{ "type": "Feature", "properties": {"Name":"Fairgrove village","State":"Michigan","State_Abbrev":"MI"},
"geometry":{ "type": "Point", "coordinates": [-83.543436,43.524484]}},
{ "type": "Feature", "properties": {"Name":"Fair Plain CDP","State":"Michigan","State_Abbrev":"MI"},
"geometry":{ "type": "Point", "coordinates": [-86.45354,42.08186]}},
{ "type": "Feature", "properties": {"Name":"Falmouth CDP","State":"Michigan","State_Abbrev":"MI"},
"geometry":{ "type": "Point", "coordinates": [-85.080085,44.239804]}},
{ "type": "Feature", "properties": {"Name":"Farmington city","State":"Michigan","State_Abbrev":"MI"},
"geometry":{ "type": "Point", "coordinates": [-83.378385,42.461379]}},
{ "type": "Feature", "properties": {"Name":"Farmington Hills city","State":"Michigan","State_Abbrev":"MI"},
"geometry":{ "type": "Point", "coordinates": [-83.375961,42.485648]}},
{ "type": "Feature", "properties": {"Name":"Farwell village","State":"Michigan","State_Abbrev":"MI"},
"geometry":{ "type": "Point", "coordinates": [-84.867335,43.83684]}},
{ "type": "Feature", "properties": {"Name":"Fennville city","State":"Michigan","State_Abbrev":"MI"},
"geometry":{ "type": "Point", "coordinates": [-86.105066,42.59472]}},
{ "type": "Feature", "properties": {"Name":"Fenton city","State":"Michigan","State_Abbrev":"MI"},
"geometry":{ "type": "Point", "coordinates": [-83.717708,42.800606]}},
{ "type": "Feature", "properties": {"Name":"Ferndale city","State":"Michigan","State_Abbrev":"MI"},
"geometry":{ "type": "Point", "coordinates": [-83.131366,42.45921]}},
{ "type": "Feature", "properties": {"Name":"Ferrysburg city","State":"Michigan","State_Abbrev":"MI"},
"geometry":{ "type": "Point", "coordinates": [-86.227024,43.087541]}},
{ "type": "Feature", "properties": {"Name":"Fife Lake village","State":"Michigan","State_Abbrev":"MI"},
"geometry":{ "type": "Point", "coordinates": [-85.347743,44.575731]}},
{ "type": "Feature", "properties": {"Name":"Filer City CDP","State":"Michigan","State_Abbrev":"MI"},
"geometry":{ "type": "Point", "coordinates": [-86.288768,44.214721]}},
{ "type": "Feature", "properties": {"Name":"Flat Rock city","State":"Michigan","State_Abbrev":"MI"},
"geometry":{ "type": "Point", "coordinates": [-83.269827,42.097866]}},
{ "type": "Feature", "properties": {"Name":"Flint city","State":"Michigan","State_Abbrev":"MI"},
"geometry":{ "type": "Point", "coordinates": [-83.691971,43.02442]}},
{ "type": "Feature", "properties": {"Name":"Flushing city","State":"Michigan","State_Abbrev":"MI"},
"geometry":{ "type": "Point", "coordinates": [-83.842628,43.062786]}},
{ "type": "Feature", "properties": {"Name":"Forest Hills CDP","State":"Michigan","State_Abbrev":"MI"},
"geometry":{ "type": "Point", "coordinates": [-85.489674,42.960191]}},
{ "type": "Feature", "properties": {"Name":"Forestville village","State":"Michigan","State_Abbrev":"MI"},
"geometry":{ "type": "Point", "coordinates": [-82.612562,43.659867]}},
{ "type": "Feature", "properties": {"Name":"Fostoria CDP","State":"Michigan","State_Abbrev":"MI"},
"geometry":{ "type": "Point", "coordinates": [-83.361765,43.253097]}},
{ "type": "Feature", "properties": {"Name":"Fountain village","State":"Michigan","State_Abbrev":"MI"},
"geometry":{ "type": "Point", "coordinates": [-86.180986,44.048439]}},
{ "type": "Feature", "properties": {"Name":"Fowler village","State":"Michigan","State_Abbrev":"MI"},
"geometry":{ "type": "Point", "coordinates": [-84.741698,43.003991]}},
{ "type": "Feature", "properties": {"Name":"Fowlerville village","State":"Michigan","State_Abbrev":"MI"},
"geometry":{ "type": "Point", "coordinates": [-84.073743,42.65938]}},
{ "type": "Feature", "properties": {"Name":"Frankenmuth city","State":"Michigan","State_Abbrev":"MI"},
"geometry":{ "type": "Point", "coordinates": [-83.739129,43.332832]}},
{ "type": "Feature", "properties": {"Name":"Frankfort city","State":"Michigan","State_Abbrev":"MI"},
"geometry":{ "type": "Point", "coordinates": [-86.231999,44.636844]}},
{ "type": "Feature", "properties": {"Name":"Franklin village","State":"Michigan","State_Abbrev":"MI"},
"geometry":{ "type": "Point", "coordinates": [-83.303027,42.518759]}},
{ "type": "Feature", "properties": {"Name":"Fraser city","State":"Michigan","State_Abbrev":"MI"},
"geometry":{ "type": "Point", "coordinates": [-82.946742,42.537633]}},
{ "type": "Feature", "properties": {"Name":"Freeland CDP","State":"Michigan","State_Abbrev":"MI"},
"geometry":{ "type": "Point", "coordinates": [-84.114738,43.517527]}},
{ "type": "Feature", "properties": {"Name":"Freeport village","State":"Michigan","State_Abbrev":"MI"},
"geometry":{ "type": "Point", "coordinates": [-85.315757,42.763631]}},
{ "type": "Feature", "properties": {"Name":"Free Soil village","State":"Michigan","State_Abbrev":"MI"},
"geometry":{ "type": "Point", "coordinates": [-86.210978,44.10714]}},
{ "type": "Feature", "properties": {"Name":"Fremont city","State":"Michigan","State_Abbrev":"MI"},
"geometry":{ "type": "Point", "coordinates": [-85.954758,43.462476]}},
{ "type": "Feature", "properties": {"Name":"Fruitport village","State":"Michigan","State_Abbrev":"MI"},
"geometry":{ "type": "Point", "coordinates": [-86.156144,43.12552]}},
{ "type": "Feature", "properties": {"Name":"Fulton CDP","State":"Michigan","State_Abbrev":"MI"},
"geometry":{ "type": "Point", "coordinates": [-88.360809,47.299161]}},
{ "type": "Feature", "properties": {"Name":"Gaastra city","State":"Michigan","State_Abbrev":"MI"},
"geometry":{ "type": "Point", "coordinates": [-88.60497,46.055724]}},
{ "type": "Feature", "properties": {"Name":"Gagetown village","State":"Michigan","State_Abbrev":"MI"},
"geometry":{ "type": "Point", "coordinates": [-83.244605,43.658122]}},
{ "type": "Feature", "properties": {"Name":"Gaines village","State":"Michigan","State_Abbrev":"MI"},
"geometry":{ "type": "Point", "coordinates": [-83.910809,42.872516]}},
{ "type": "Feature", "properties": {"Name":"Galesburg city","State":"Michigan","State_Abbrev":"MI"},
"geometry":{ "type": "Point", "coordinates": [-85.41756,42.290862]}},
{ "type": "Feature", "properties": {"Name":"Galien village","State":"Michigan","State_Abbrev":"MI"},
"geometry":{ "type": "Point", "coordinates": [-86.499564,41.801528]}},
{ "type": "Feature", "properties": {"Name":"Garden village","State":"Michigan","State_Abbrev":"MI"},
"geometry":{ "type": "Point", "coordinates": [-86.557321,45.7693]}},
{ "type": "Feature", "properties": {"Name":"Garden City city","State":"Michigan","State_Abbrev":"MI"},
"geometry":{ "type": "Point", "coordinates": [-83.341192,42.324383]}},
{ "type": "Feature", "properties": {"Name":"Gaylord city","State":"Michigan","State_Abbrev":"MI"},
"geometry":{ "type": "Point", "coordinates": [-84.681822,45.021342]}},
{ "type": "Feature", "properties": {"Name":"Gibraltar city","State":"Michigan","State_Abbrev":"MI"},
"geometry":{ "type": "Point", "coordinates": [-83.201018,42.105437]}},
{ "type": "Feature", "properties": {"Name":"Gladstone city","State":"Michigan","State_Abbrev":"MI"},
"geometry":{ "type": "Point", "coordinates": [-87.026228,45.850501]}},
{ "type": "Feature", "properties": {"Name":"Gladwin city","State":"Michigan","State_Abbrev":"MI"},
"geometry":{ "type": "Point", "coordinates": [-84.487229,43.98397]}},
{ "type": "Feature", "properties": {"Name":"Glen Arbor CDP","State":"Michigan","State_Abbrev":"MI"},
"geometry":{ "type": "Point", "coordinates": [-85.98905,44.894292]}},
{ "type": "Feature", "properties": {"Name":"Gobles city","State":"Michigan","State_Abbrev":"MI"},
"geometry":{ "type": "Point", "coordinates": [-85.877392,42.361652]}},
{ "type": "Feature", "properties": {"Name":"Goodrich village","State":"Michigan","State_Abbrev":"MI"},
"geometry":{ "type": "Point", "coordinates": [-83.517348,42.910851]}},
{ "type": "Feature", "properties": {"Name":"Grand Beach village","State":"Michigan","State_Abbrev":"MI"},
"geometry":{ "type": "Point", "coordinates": [-86.788421,41.774578]}},
{ "type": "Feature", "properties": {"Name":"Grand Blanc city","State":"Michigan","State_Abbrev":"MI"},
"geometry":{ "type": "Point", "coordinates": [-83.620491,42.932537]}},
{ "type": "Feature", "properties": {"Name":"Grand Haven city","State":"Michigan","State_Abbrev":"MI"},
"geometry":{ "type": "Point", "coordinates": [-86.219349,43.054969]}},
{ "type": "Feature", "properties": {"Name":"Grand Ledge city","State":"Michigan","State_Abbrev":"MI"},
"geometry":{ "type": "Point", "coordinates": [-84.744901,42.752927]}},
{ "type": "Feature", "properties": {"Name":"Grand Marais CDP","State":"Michigan","State_Abbrev":"MI"},
"geometry":{ "type": "Point", "coordinates": [-85.96643,46.675701]}},
{ "type": "Feature", "properties": {"Name":"Grand Rapids city","State":"Michigan","State_Abbrev":"MI"},
"geometry":{ "type": "Point", "coordinates": [-85.65557,42.961156]}},
{ "type": "Feature", "properties": {"Name":"Grandville city","State":"Michigan","State_Abbrev":"MI"},
"geometry":{ "type": "Point", "coordinates": [-85.752086,42.900514]}},
{ "type": "Feature", "properties": {"Name":"Grant city","State":"Michigan","State_Abbrev":"MI"},
"geometry":{ "type": "Point", "coordinates": [-85.809879,43.333986]}},
{ "type": "Feature", "properties": {"Name":"Grass Lake village","State":"Michigan","State_Abbrev":"MI"},
"geometry":{ "type": "Point", "coordinates": [-84.206176,42.250798]}},
{ "type": "Feature", "properties": {"Name":"Grawn CDP","State":"Michigan","State_Abbrev":"MI"},
"geometry":{ "type": "Point", "coordinates": [-85.688331,44.661043]}},
{ "type": "Feature", "properties": {"Name":"Grayling city","State":"Michigan","State_Abbrev":"MI"},
"geometry":{ "type": "Point", "coordinates": [-84.711067,44.65796]}},
{ "type": "Feature", "properties": {"Name":"Greenland CDP","State":"Michigan","State_Abbrev":"MI"},
"geometry":{ "type": "Point", "coordinates": [-89.095182,46.780371]}},
{ "type": "Feature", "properties": {"Name":"Greenville city","State":"Michigan","State_Abbrev":"MI"},
"geometry":{ "type": "Point", "coordinates": [-85.253976,43.179635]}},
{ "type": "Feature", "properties": {"Name":"Greilickville CDP","State":"Michigan","State_Abbrev":"MI"},
"geometry":{ "type": "Point", "coordinates": [-85.670054,44.801098]}},
{ "type": "Feature", "properties": {"Name":"Grosse Pointe city","State":"Michigan","State_Abbrev":"MI"},
"geometry":{ "type": "Point", "coordinates": [-82.903868,42.383931]}},
{ "type": "Feature", "properties": {"Name":"Grosse Pointe Farms city","State":"Michigan","State_Abbrev":"MI"},
"geometry":{ "type": "Point", "coordinates": [-82.889177,42.397545]}},
{ "type": "Feature", "properties": {"Name":"Grosse Pointe Park city","State":"Michigan","State_Abbrev":"MI"},
"geometry":{ "type": "Point", "coordinates": [-82.923438,42.373949]}},
{ "type": "Feature", "properties": {"Name":"Grosse Pointe Woods city","State":"Michigan","State_Abbrev":"MI"},
"geometry":{ "type": "Point", "coordinates": [-82.898955,42.439255]}},
{ "type": "Feature", "properties": {"Name":"Gwinn CDP","State":"Michigan","State_Abbrev":"MI"},
"geometry":{ "type": "Point", "coordinates": [-87.441915,46.285373]}},
{ "type": "Feature", "properties": {"Name":"Hamtramck city","State":"Michigan","State_Abbrev":"MI"},
"geometry":{ "type": "Point", "coordinates": [-83.055945,42.395373]}},
{ "type": "Feature", "properties": {"Name":"Hancock city","State":"Michigan","State_Abbrev":"MI"},
"geometry":{ "type": "Point", "coordinates": [-88.597762,47.136727]}},
{ "type": "Feature", "properties": {"Name":"Hanover village","State":"Michigan","State_Abbrev":"MI"},
"geometry":{ "type": "Point", "coordinates": [-84.554526,42.100521]}},
{ "type": "Feature", "properties": {"Name":"Harbor Beach city","State":"Michigan","State_Abbrev":"MI"},
"geometry":{ "type": "Point", "coordinates": [-82.654639,43.844838]}},
{ "type": "Feature", "properties": {"Name":"Harbor Springs city","State":"Michigan","State_Abbrev":"MI"},
"geometry":{ "type": "Point", "coordinates": [-84.9891,45.432485]}},
{ "type": "Feature", "properties": {"Name":"Hardwood Acres CDP","State":"Michigan","State_Abbrev":"MI"},
"geometry":{ "type": "Point", "coordinates": [-85.822093,44.719582]}},
{ "type": "Feature", "properties": {"Name":"Haring CDP","State":"Michigan","State_Abbrev":"MI"},
"geometry":{ "type": "Point", "coordinates": [-85.400772,44.28185]}},
{ "type": "Feature", "properties": {"Name":"Harper Woods city","State":"Michigan","State_Abbrev":"MI"},
"geometry":{ "type": "Point", "coordinates": [-82.929254,42.439012]}},
{ "type": "Feature", "properties": {"Name":"Harrietta village","State":"Michigan","State_Abbrev":"MI"},
"geometry":{ "type": "Point", "coordinates": [-85.700639,44.309129]}},
{ "type": "Feature", "properties": {"Name":"Harrison city","State":"Michigan","State_Abbrev":"MI"},
"geometry":{ "type": "Point", "coordinates": [-84.810647,44.012954]}},
{ "type": "Feature", "properties": {"Name":"Harrisville city","State":"Michigan","State_Abbrev":"MI"},
"geometry":{ "type": "Point", "coordinates": [-83.29458,44.657509]}},
{ "type": "Feature", "properties": {"Name":"Hart city","State":"Michigan","State_Abbrev":"MI"},
"geometry":{ "type": "Point", "coordinates": [-86.367269,43.696618]}},
{ "type": "Feature", "properties": {"Name":"Hartford city","State":"Michigan","State_Abbrev":"MI"},
"geometry":{ "type": "Point", "coordinates": [-86.166122,42.204959]}},
{ "type": "Feature", "properties": {"Name":"Hartland CDP","State":"Michigan","State_Abbrev":"MI"},
"geometry":{ "type": "Point", "coordinates": [-83.743754,42.66455]}},
{ "type": "Feature", "properties": {"Name":"Harvey CDP","State":"Michigan","State_Abbrev":"MI"},
"geometry":{ "type": "Point", "coordinates": [-87.356715,46.483625]}},
{ "type": "Feature", "properties": {"Name":"Haslett CDP","State":"Michigan","State_Abbrev":"MI"},
"geometry":{ "type": "Point", "coordinates": [-84.397423,42.752083]}},
{ "type": "Feature", "properties": {"Name":"Hastings city","State":"Michigan","State_Abbrev":"MI"},
"geometry":{ "type": "Point", "coordinates": [-85.288373,42.65013]}},
{ "type": "Feature", "properties": {"Name":"Hazel Park city","State":"Michigan","State_Abbrev":"MI"},
"geometry":{ "type": "Point", "coordinates": [-83.097693,42.461926]}},
{ "type": "Feature", "properties": {"Name":"Hemlock CDP","State":"Michigan","State_Abbrev":"MI"},
"geometry":{ "type": "Point", "coordinates": [-84.239945,43.421637]}},
{ "type": "Feature", "properties": {"Name":"Henderson CDP","State":"Michigan","State_Abbrev":"MI"},
"geometry":{ "type": "Point", "coordinates": [-84.192135,43.087562]}},
{ "type": "Feature", "properties": {"Name":"Hermansville CDP","State":"Michigan","State_Abbrev":"MI"},
"geometry":{ "type": "Point", "coordinates": [-87.607173,45.708081]}},
{ "type": "Feature", "properties": {"Name":"Hersey village","State":"Michigan","State_Abbrev":"MI"},
"geometry":{ "type": "Point", "coordinates": [-85.441879,43.851264]}},
{ "type": "Feature", "properties": {"Name":"Hesperia village","State":"Michigan","State_Abbrev":"MI"},
"geometry":{ "type": "Point", "coordinates": [-86.040931,43.569472]}},
{ "type": "Feature", "properties": {"Name":"Hickory Corners CDP","State":"Michigan","State_Abbrev":"MI"},
"geometry":{ "type": "Point", "coordinates": [-85.385859,42.434402]}},
{ "type": "Feature", "properties": {"Name":"Highland Park city","State":"Michigan","State_Abbrev":"MI"},
"geometry":{ "type": "Point", "coordinates": [-83.09765,42.405226]}},
{ "type": "Feature", "properties": {"Name":"Hillman village","State":"Michigan","State_Abbrev":"MI"},
"geometry":{ "type": "Point", "coordinates": [-83.893657,45.06683]}},
{ "type": "Feature", "properties": {"Name":"Hillsdale city","State":"Michigan","State_Abbrev":"MI"},
"geometry":{ "type": "Point", "coordinates": [-84.637479,41.927461]}},
{ "type": "Feature", "properties": {"Name":"Holland city","State":"Michigan","State_Abbrev":"MI"},
"geometry":{ "type": "Point", "coordinates": [-86.098598,42.768074]}},
{ "type": "Feature", "properties": {"Name":"Holly village","State":"Michigan","State_Abbrev":"MI"},
"geometry":{ "type": "Point", "coordinates": [-83.622967,42.798799]}},
{ "type": "Feature", "properties": {"Name":"Holt CDP","State":"Michigan","State_Abbrev":"MI"},
"geometry":{ "type": "Point", "coordinates": [-84.530768,42.642061]}},
{ "type": "Feature", "properties": {"Name":"Homer village","State":"Michigan","State_Abbrev":"MI"},
"geometry":{ "type": "Point", "coordinates": [-84.809738,42.146423]}},
{ "type": "Feature", "properties": {"Name":"Honor village","State":"Michigan","State_Abbrev":"MI"},
"geometry":{ "type": "Point", "coordinates": [-86.019445,44.666362]}},
{ "type": "Feature", "properties": {"Name":"Hopkins village","State":"Michigan","State_Abbrev":"MI"},
"geometry":{ "type": "Point", "coordinates": [-85.763345,42.625054]}},
{ "type": "Feature", "properties": {"Name":"Horton Bay CDP","State":"Michigan","State_Abbrev":"MI"},
"geometry":{ "type": "Point", "coordinates": [-85.074661,45.281226]}},
{ "type": "Feature", "properties": {"Name":"Houghton city","State":"Michigan","State_Abbrev":"MI"},
"geometry":{ "type": "Point", "coordinates": [-88.567237,47.111751]}},
{ "type": "Feature", "properties": {"Name":"Houghton Lake CDP","State":"Michigan","State_Abbrev":"MI"},
"geometry":{ "type": "Point", "coordinates": [-84.749865,44.301067]}},
{ "type": "Feature", "properties": {"Name":"Howard City village","State":"Michigan","State_Abbrev":"MI"},
"geometry":{ "type": "Point", "coordinates": [-85.466107,43.393266]}},
{ "type": "Feature", "properties": {"Name":"Howell city","State":"Michigan","State_Abbrev":"MI"},
"geometry":{ "type": "Point", "coordinates": [-83.934339,42.608129]}},
{ "type": "Feature", "properties": {"Name":"Hubbard Lake CDP","State":"Michigan","State_Abbrev":"MI"},
"geometry":{ "type": "Point", "coordinates": [-83.554794,44.82085]}},
{ "type": "Feature", "properties": {"Name":"Hubbardston village","State":"Michigan","State_Abbrev":"MI"},
"geometry":{ "type": "Point", "coordinates": [-84.842754,43.094491]}},
{ "type": "Feature", "properties": {"Name":"Hubbell CDP","State":"Michigan","State_Abbrev":"MI"},
"geometry":{ "type": "Point", "coordinates": [-88.432329,47.17676]}},
{ "type": "Feature", "properties": {"Name":"Hudson city","State":"Michigan","State_Abbrev":"MI"},
"geometry":{ "type": "Point", "coordinates": [-84.345705,41.856457]}},
{ "type": "Feature", "properties": {"Name":"Hudsonville city","State":"Michigan","State_Abbrev":"MI"},
"geometry":{ "type": "Point", "coordinates": [-85.862205,42.86337]}},
{ "type": "Feature", "properties": {"Name":"Huntington Woods city","State":"Michigan","State_Abbrev":"MI"},
"geometry":{ "type": "Point", "coordinates": [-83.168088,42.481899]}},
{ "type": "Feature", "properties": {"Name":"Hurontown CDP","State":"Michigan","State_Abbrev":"MI"},
"geometry":{ "type": "Point", "coordinates": [-88.57373,47.109188]}},
{ "type": "Feature", "properties": {"Name":"Ida CDP","State":"Michigan","State_Abbrev":"MI"},
"geometry":{ "type": "Point", "coordinates": [-83.562766,41.903674]}},
{ "type": "Feature", "properties": {"Name":"Imlay City city","State":"Michigan","State_Abbrev":"MI"},
"geometry":{ "type": "Point", "coordinates": [-83.077098,43.017052]}},
{ "type": "Feature", "properties": {"Name":"Indian River CDP","State":"Michigan","State_Abbrev":"MI"},
"geometry":{ "type": "Point", "coordinates": [-84.621951,45.429765]}},
{ "type": "Feature", "properties": {"Name":"Inkster city","State":"Michigan","State_Abbrev":"MI"},
"geometry":{ "type": "Point", "coordinates": [-83.320298,42.293945]}},
{ "type": "Feature", "properties": {"Name":"Interlochen CDP","State":"Michigan","State_Abbrev":"MI"},
"geometry":{ "type": "Point", "coordinates": [-85.763391,44.649049]}},
{ "type": "Feature", "properties": {"Name":"Ionia city","State":"Michigan","State_Abbrev":"MI"},
"geometry":{ "type": "Point", "coordinates": [-85.074633,42.976821]}},
{ "type": "Feature", "properties": {"Name":"Iron Mountain city","State":"Michigan","State_Abbrev":"MI"},
"geometry":{ "type": "Point", "coordinates": [-88.059435,45.826888]}},
{ "type": "Feature", "properties": {"Name":"Iron River city","State":"Michigan","State_Abbrev":"MI"},
"geometry":{ "type": "Point", "coordinates": [-88.636598,46.095906]}},
{ "type": "Feature", "properties": {"Name":"Ironton CDP","State":"Michigan","State_Abbrev":"MI"},
"geometry":{ "type": "Point", "coordinates": [-85.192928,45.256898]}},
{ "type": "Feature", "properties": {"Name":"Ironwood city","State":"Michigan","State_Abbrev":"MI"},
"geometry":{ "type": "Point", "coordinates": [-90.150432,46.452209]}},
{ "type": "Feature", "properties": {"Name":"Ishpeming city","State":"Michigan","State_Abbrev":"MI"},
"geometry":{ "type": "Point", "coordinates": [-87.675141,46.470344]}},
{ "type": "Feature", "properties": {"Name":"Ithaca city","State":"Michigan","State_Abbrev":"MI"},
"geometry":{ "type": "Point", "coordinates": [-84.595673,43.291094]}},
{ "type": "Feature", "properties": {"Name":"Jackson city","State":"Michigan","State_Abbrev":"MI"},
"geometry":{ "type": "Point", "coordinates": [-84.402038,42.242156]}},
{ "type": "Feature", "properties": {"Name":"Jasper CDP","State":"Michigan","State_Abbrev":"MI"},
"geometry":{ "type": "Point", "coordinates": [-84.040344,41.785907]}},
{ "type": "Feature", "properties": {"Name":"Jenison CDP","State":"Michigan","State_Abbrev":"MI"},
"geometry":{ "type": "Point", "coordinates": [-85.827273,42.901908]}},
{ "type": "Feature", "properties": {"Name":"Jennings CDP","State":"Michigan","State_Abbrev":"MI"},
"geometry":{ "type": "Point", "coordinates": [-85.297231,44.332466]}},
{ "type": "Feature", "properties": {"Name":"Jonesville city","State":"Michigan","State_Abbrev":"MI"},
"geometry":{ "type": "Point", "coordinates": [-84.665812,41.979437]}},
{ "type": "Feature", "properties": {"Name":"Kalamazoo city","State":"Michigan","State_Abbrev":"MI"},
"geometry":{ "type": "Point", "coordinates": [-85.588501,42.275163]}},
{ "type": "Feature", "properties": {"Name":"Kaleva village","State":"Michigan","State_Abbrev":"MI"},
"geometry":{ "type": "Point", "coordinates": [-86.013552,44.372279]}},
{ "type": "Feature", "properties": {"Name":"Kalkaska village","State":"Michigan","State_Abbrev":"MI"},
"geometry":{ "type": "Point", "coordinates": [-85.184329,44.731565]}},
{ "type": "Feature", "properties": {"Name":"Keego Harbor city","State":"Michigan","State_Abbrev":"MI"},
"geometry":{ "type": "Point", "coordinates": [-83.345752,42.608273]}},
{ "type": "Feature", "properties": {"Name":"Kent City village","State":"Michigan","State_Abbrev":"MI"},
"geometry":{ "type": "Point", "coordinates": [-85.755468,43.226366]}},
{ "type": "Feature", "properties": {"Name":"Kentwood city","State":"Michigan","State_Abbrev":"MI"},
"geometry":{ "type": "Point", "coordinates": [-85.59254,42.88482]}},
{ "type": "Feature", "properties": {"Name":"Kincheloe CDP","State":"Michigan","State_Abbrev":"MI"},
"geometry":{ "type": "Point", "coordinates": [-84.456814,46.268845]}},
{ "type": "Feature", "properties": {"Name":"Kinde village","State":"Michigan","State_Abbrev":"MI"},
"geometry":{ "type": "Point", "coordinates": [-82.996704,43.941426]}},
{ "type": "Feature", "properties": {"Name":"Kingsford city","State":"Michigan","State_Abbrev":"MI"},
"geometry":{ "type": "Point", "coordinates": [-88.100365,45.806438]}},
{ "type": "Feature", "properties": {"Name":"Kingsley village","State":"Michigan","State_Abbrev":"MI"},
"geometry":{ "type": "Point", "coordinates": [-85.524082,44.58845]}},
{ "type": "Feature", "properties": {"Name":"Kingston village","State":"Michigan","State_Abbrev":"MI"},
"geometry":{ "type": "Point", "coordinates": [-83.186262,43.412805]}},
{ "type": "Feature", "properties": {"Name":"K. I. Sawyer CDP","State":"Michigan","State_Abbrev":"MI"},
"geometry":{ "type": "Point", "coordinates": [-87.365252,46.329318]}},
{ "type": "Feature", "properties": {"Name":"Laingsburg city","State":"Michigan","State_Abbrev":"MI"},
"geometry":{ "type": "Point", "coordinates": [-84.350399,42.89056]}},
{ "type": "Feature", "properties": {"Name":"Lake Angelus city","State":"Michigan","State_Abbrev":"MI"},
"geometry":{ "type": "Point", "coordinates": [-83.325533,42.69171]}},
{ "type": "Feature", "properties": {"Name":"Lake Ann village","State":"Michigan","State_Abbrev":"MI"},
"geometry":{ "type": "Point", "coordinates": [-85.846887,44.726978]}},
{ "type": "Feature", "properties": {"Name":"Lake City city","State":"Michigan","State_Abbrev":"MI"},
"geometry":{ "type": "Point", "coordinates": [-85.208474,44.329668]}},
{ "type": "Feature", "properties": {"Name":"Lake Fenton CDP","State":"Michigan","State_Abbrev":"MI"},
"geometry":{ "type": "Point", "coordinates": [-83.711121,42.845195]}},
{ "type": "Feature", "properties": {"Name":"Lake Gogebic CDP","State":"Michigan","State_Abbrev":"MI"},
"geometry":{ "type": "Point", "coordinates": [-89.60423,46.58077]}},
{ "type": "Feature", "properties": {"Name":"Lake Isabella village","State":"Michigan","State_Abbrev":"MI"},
"geometry":{ "type": "Point", "coordinates": [-85.004778,43.644091]}},
{ "type": "Feature", "properties": {"Name":"Lake LeAnn CDP","State":"Michigan","State_Abbrev":"MI"},
"geometry":{ "type": "Point", "coordinates": [-84.430444,42.056971]}},
{ "type": "Feature", "properties": {"Name":"Lake Leelanau CDP","State":"Michigan","State_Abbrev":"MI"},
"geometry":{ "type": "Point", "coordinates": [-85.71639,44.980738]}},
{ "type": "Feature", "properties": {"Name":"Lake Linden village","State":"Michigan","State_Abbrev":"MI"},
"geometry":{ "type": "Point", "coordinates": [-88.405739,47.195457]}},
{ "type": "Feature", "properties": {"Name":"Lake Michigan Beach CDP","State":"Michigan","State_Abbrev":"MI"},
"geometry":{ "type": "Point", "coordinates": [-86.376922,42.205202]}},
{ "type": "Feature", "properties": {"Name":"Lake Odessa village","State":"Michigan","State_Abbrev":"MI"},
"geometry":{ "type": "Point", "coordinates": [-85.137538,42.78292]}},
{ "type": "Feature", "properties": {"Name":"Lake Orion village","State":"Michigan","State_Abbrev":"MI"},
"geometry":{ "type": "Point", "coordinates": [-83.244321,42.78365]}},
{ "type": "Feature", "properties": {"Name":"Lakeport CDP","State":"Michigan","State_Abbrev":"MI"},
"geometry":{ "type": "Point", "coordinates": [-82.493363,43.10693]}},
{ "type": "Feature", "properties": {"Name":"Lakes of the North CDP","State":"Michigan","State_Abbrev":"MI"},
"geometry":{ "type": "Point", "coordinates": [-84.88508,44.930026]}},
{ "type": "Feature", "properties": {"Name":"Lake Victoria CDP","State":"Michigan","State_Abbrev":"MI"},
"geometry":{ "type": "Point", "coordinates": [-84.379972,42.917917]}},
{ "type": "Feature", "properties": {"Name":"Lakeview village","State":"Michigan","State_Abbrev":"MI"},
"geometry":{ "type": "Point", "coordinates": [-85.266937,43.443065]}},
{ "type": "Feature", "properties": {"Name":"Lakewood Club village","State":"Michigan","State_Abbrev":"MI"},
"geometry":{ "type": "Point", "coordinates": [-86.252572,43.37616]}},
{ "type": "Feature", "properties": {"Name":"Lambertville CDP","State":"Michigan","State_Abbrev":"MI"},
"geometry":{ "type": "Point", "coordinates": [-83.621825,41.745082]}},
{ "type": "Feature", "properties": {"Name":"Lamont CDP","State":"Michigan","State_Abbrev":"MI"},
"geometry":{ "type": "Point", "coordinates": [-85.91053,43.017048]}},
{ "type": "Feature", "properties": {"Name":"L'Anse village","State":"Michigan","State_Abbrev":"MI"},
"geometry":{ "type": "Point", "coordinates": [-88.448145,46.752865]}},
{ "type": "Feature", "properties": {"Name":"Lansing city","State":"Michigan","State_Abbrev":"MI"},
"geometry":{ "type": "Point", "coordinates": [-84.560889,42.714341]}},
{ "type": "Feature", "properties": {"Name":"Lapeer city","State":"Michigan","State_Abbrev":"MI"},
"geometry":{ "type": "Point", "coordinates": [-83.326746,43.045127]}},
{ "type": "Feature", "properties": {"Name":"Lathrup Village city","State":"Michigan","State_Abbrev":"MI"},
"geometry":{ "type": "Point", "coordinates": [-83.227283,42.492076]}},
{ "type": "Feature", "properties": {"Name":"Laurium village","State":"Michigan","State_Abbrev":"MI"},
"geometry":{ "type": "Point", "coordinates": [-88.43819,47.235108]}},
{ "type": "Feature", "properties": {"Name":"Lawrence village","State":"Michigan","State_Abbrev":"MI"},
"geometry":{ "type": "Point", "coordinates": [-86.057509,42.214998]}},
{ "type": "Feature", "properties": {"Name":"Lawton village","State":"Michigan","State_Abbrev":"MI"},
"geometry":{ "type": "Point", "coordinates": [-85.846502,42.167315]}},
{ "type": "Feature", "properties": {"Name":"Leland CDP","State":"Michigan","State_Abbrev":"MI"},
"geometry":{ "type": "Point", "coordinates": [-85.757109,45.021444]}},
{ "type": "Feature", "properties": {"Name":"Lennon village","State":"Michigan","State_Abbrev":"MI"},
"geometry":{ "type": "Point", "coordinates": [-83.93253,42.98544]}},
{ "type": "Feature", "properties": {"Name":"Leonard village","State":"Michigan","State_Abbrev":"MI"},
"geometry":{ "type": "Point", "coordinates": [-83.142943,42.865229]}},
{ "type": "Feature", "properties": {"Name":"Le Roy village","State":"Michigan","State_Abbrev":"MI"},
"geometry":{ "type": "Point", "coordinates": [-85.453782,44.038127]}},
{ "type": "Feature", "properties": {"Name":"Leslie city","State":"Michigan","State_Abbrev":"MI"},
"geometry":{ "type": "Point", "coordinates": [-84.432593,42.450343]}},
{ "type": "Feature", "properties": {"Name":"Level Park-Oak Park CDP","State":"Michigan","State_Abbrev":"MI"},
"geometry":{ "type": "Point", "coordinates": [-85.268766,42.371326]}},
{ "type": "Feature", "properties": {"Name":"Levering CDP","State":"Michigan","State_Abbrev":"MI"},
"geometry":{ "type": "Point", "coordinates": [-84.784018,45.634773]}},
{ "type": "Feature", "properties": {"Name":"Lewiston CDP","State":"Michigan","State_Abbrev":"MI"},
"geometry":{ "type": "Point", "coordinates": [-84.303563,44.87758]}},
{ "type": "Feature", "properties": {"Name":"Lexington village","State":"Michigan","State_Abbrev":"MI"},
"geometry":{ "type": "Point", "coordinates": [-82.537,43.267243]}},
{ "type": "Feature", "properties": {"Name":"Lincoln village","State":"Michigan","State_Abbrev":"MI"},
"geometry":{ "type": "Point", "coordinates": [-83.412568,44.684367]}},
{ "type": "Feature", "properties": {"Name":"Lincoln Park city","State":"Michigan","State_Abbrev":"MI"},
"geometry":{ "type": "Point", "coordinates": [-83.181258,42.243291]}},
{ "type": "Feature", "properties": {"Name":"Linden city","State":"Michigan","State_Abbrev":"MI"},
"geometry":{ "type": "Point", "coordinates": [-83.781225,42.819164]}},
{ "type": "Feature", "properties": {"Name":"Litchfield city","State":"Michigan","State_Abbrev":"MI"},
"geometry":{ "type": "Point", "coordinates": [-84.752172,42.040153]}},
{ "type": "Feature", "properties": {"Name":"Livonia city","State":"Michigan","State_Abbrev":"MI"},
"geometry":{ "type": "Point", "coordinates": [-83.372319,42.397183]}},
{ "type": "Feature", "properties": {"Name":"Loomis CDP","State":"Michigan","State_Abbrev":"MI"},
"geometry":{ "type": "Point", "coordinates": [-84.658389,43.783996]}},
{ "type": "Feature", "properties": {"Name":"Lost Lake Woods CDP","State":"Michigan","State_Abbrev":"MI"},
"geometry":{ "type": "Point", "coordinates": [-83.42108,44.798526]}},
{ "type": "Feature", "properties": {"Name":"Lowell city","State":"Michigan","State_Abbrev":"MI"},
"geometry":{ "type": "Point", "coordinates": [-85.346219,42.9346]}},
{ "type": "Feature", "properties": {"Name":"Ludington city","State":"Michigan","State_Abbrev":"MI"},
"geometry":{ "type": "Point", "coordinates": [-86.442937,43.957196]}},
{ "type": "Feature", "properties": {"Name":"Luna Pier city","State":"Michigan","State_Abbrev":"MI"},
"geometry":{ "type": "Point", "coordinates": [-83.442475,41.803262]}},
{ "type": "Feature", "properties": {"Name":"Lupton CDP","State":"Michigan","State_Abbrev":"MI"},
"geometry":{ "type": "Point", "coordinates": [-84.023882,44.429168]}},
{ "type": "Feature", "properties": {"Name":"Luther village","State":"Michigan","State_Abbrev":"MI"},
"geometry":{ "type": "Point", "coordinates": [-85.683001,44.038779]}},
{ "type": "Feature", "properties": {"Name":"Lyons village","State":"Michigan","State_Abbrev":"MI"},
"geometry":{ "type": "Point", "coordinates": [-84.944178,42.986519]}},
{ "type": "Feature", "properties": {"Name":"McBain city","State":"Michigan","State_Abbrev":"MI"},
"geometry":{ "type": "Point", "coordinates": [-85.215381,44.196055]}},
{ "type": "Feature", "properties": {"Name":"McBride village","State":"Michigan","State_Abbrev":"MI"},
"geometry":{ "type": "Point", "coordinates": [-85.044134,43.352057]}},
{ "type": "Feature", "properties": {"Name":"Mackinac Island city","State":"Michigan","State_Abbrev":"MI"},
"geometry":{ "type": "Point", "coordinates": [-84.625834,45.860184]}},
{ "type": "Feature", "properties": {"Name":"Mackinaw City village","State":"Michigan","State_Abbrev":"MI"},
"geometry":{ "type": "Point", "coordinates": [-84.756558,45.783922]}},
{ "type": "Feature", "properties": {"Name":"Madison Heights city","State":"Michigan","State_Abbrev":"MI"},
"geometry":{ "type": "Point", "coordinates": [-83.103351,42.507264]}},
{ "type": "Feature", "properties": {"Name":"Mancelona village","State":"Michigan","State_Abbrev":"MI"},
"geometry":{ "type": "Point", "coordinates": [-85.061271,44.902417]}},
{ "type": "Feature", "properties": {"Name":"Manchester village","State":"Michigan","State_Abbrev":"MI"},
"geometry":{ "type": "Point", "coordinates": [-84.034633,42.148292]}},
{ "type": "Feature", "properties": {"Name":"Manistee city","State":"Michigan","State_Abbrev":"MI"},
"geometry":{ "type": "Point", "coordinates": [-86.327537,44.245268]}},
{ "type": "Feature", "properties": {"Name":"Manistee Lake CDP","State":"Michigan","State_Abbrev":"MI"},
"geometry":{ "type": "Point", "coordinates": [-85.023542,44.772482]}},
{ "type": "Feature", "properties": {"Name":"Manistique city","State":"Michigan","State_Abbrev":"MI"},
"geometry":{ "type": "Point", "coordinates": [-86.250953,45.959744]}},
{ "type": "Feature", "properties": {"Name":"Manitou Beach-Devils Lake CDP","State":"Michigan","State_Abbrev":"MI"},
"geometry":{ "type": "Point", "coordinates": [-84.280266,41.98233]}},
{ "type": "Feature", "properties": {"Name":"Manton city","State":"Michigan","State_Abbrev":"MI"},
"geometry":{ "type": "Point", "coordinates": [-85.400523,44.411345]}},
{ "type": "Feature", "properties": {"Name":"Maple City CDP","State":"Michigan","State_Abbrev":"MI"},
"geometry":{ "type": "Point", "coordinates": [-85.857256,44.855635]}},
{ "type": "Feature", "properties": {"Name":"Maple Grove CDP","State":"Michigan","State_Abbrev":"MI"},
"geometry":{ "type": "Point", "coordinates": [-85.853723,44.709076]}},
{ "type": "Feature", "properties": {"Name":"Maple Rapids village","State":"Michigan","State_Abbrev":"MI"},
"geometry":{ "type": "Point", "coordinates": [-84.685876,43.108593]}},
{ "type": "Feature", "properties": {"Name":"Marcellus village","State":"Michigan","State_Abbrev":"MI"},
"geometry":{ "type": "Point", "coordinates": [-85.813917,42.024904]}},
{ "type": "Feature", "properties": {"Name":"Marenisco CDP","State":"Michigan","State_Abbrev":"MI"},
"geometry":{ "type": "Point", "coordinates": [-89.712017,46.373716]}},
{ "type": "Feature", "properties": {"Name":"Marine City city","State":"Michigan","State_Abbrev":"MI"},
"geometry":{ "type": "Point", "coordinates": [-82.50279,42.714297]}},
{ "type": "Feature", "properties": {"Name":"Marion village","State":"Michigan","State_Abbrev":"MI"},
"geometry":{ "type": "Point", "coordinates": [-85.140944,44.099785]}},
{ "type": "Feature", "properties": {"Name":"Marlette city","State":"Michigan","State_Abbrev":"MI"},
"geometry":{ "type": "Point", "coordinates": [-83.080519,43.326439]}},
{ "type": "Feature", "properties": {"Name":"Marquette city","State":"Michigan","State_Abbrev":"MI"},
"geometry":{ "type": "Point", "coordinates": [-87.395833,46.550698]}},
{ "type": "Feature", "properties": {"Name":"Marshall city","State":"Michigan","State_Abbrev":"MI"},
"geometry":{ "type": "Point", "coordinates": [-84.958739,42.26263]}},
{ "type": "Feature", "properties": {"Name":"Martin village","State":"Michigan","State_Abbrev":"MI"},
"geometry":{ "type": "Point", "coordinates": [-85.638952,42.536958]}},
{ "type": "Feature", "properties": {"Name":"Marysville city","State":"Michigan","State_Abbrev":"MI"},
"geometry":{ "type": "Point", "coordinates": [-82.480956,42.908473]}},
{ "type": "Feature", "properties": {"Name":"Mason city","State":"Michigan","State_Abbrev":"MI"},
"geometry":{ "type": "Point", "coordinates": [-84.442283,42.580693]}},
{ "type": "Feature", "properties": {"Name":"Mass City CDP","State":"Michigan","State_Abbrev":"MI"},
"geometry":{ "type": "Point", "coordinates": [-89.084852,46.76159]}},
{ "type": "Feature", "properties": {"Name":"Mattawan village","State":"Michigan","State_Abbrev":"MI"},
"geometry":{ "type": "Point", "coordinates": [-85.79576,42.215635]}},
{ "type": "Feature", "properties": {"Name":"Maybee village","State":"Michigan","State_Abbrev":"MI"},
"geometry":{ "type": "Point", "coordinates": [-83.509259,42.010183]}},
{ "type": "Feature", "properties": {"Name":"Mayville village","State":"Michigan","State_Abbrev":"MI"},
"geometry":{ "type": "Point", "coordinates": [-83.351972,43.335942]}},
{ "type": "Feature", "properties": {"Name":"Mears CDP","State":"Michigan","State_Abbrev":"MI"},
"geometry":{ "type": "Point", "coordinates": [-86.422227,43.683473]}},
{ "type": "Feature", "properties": {"Name":"Mecosta village","State":"Michigan","State_Abbrev":"MI"},
"geometry":{ "type": "Point", "coordinates": [-85.229964,43.618108]}},
{ "type": "Feature", "properties": {"Name":"Melvin village","State":"Michigan","State_Abbrev":"MI"},
"geometry":{ "type": "Point", "coordinates": [-82.861653,43.18643]}},
{ "type": "Feature", "properties": {"Name":"Melvindale city","State":"Michigan","State_Abbrev":"MI"},
"geometry":{ "type": "Point", "coordinates": [-83.182255,42.278607]}},
{ "type": "Feature", "properties": {"Name":"Memphis city","State":"Michigan","State_Abbrev":"MI"},
"geometry":{ "type": "Point", "coordinates": [-82.768258,42.895234]}},
{ "type": "Feature", "properties": {"Name":"Mendon village","State":"Michigan","State_Abbrev":"MI"},
"geometry":{ "type": "Point", "coordinates": [-85.454039,42.008514]}},
{ "type": "Feature", "properties": {"Name":"Menominee city","State":"Michigan","State_Abbrev":"MI"},
"geometry":{ "type": "Point", "coordinates": [-87.623573,45.122088]}},
{ "type": "Feature", "properties": {"Name":"Merrill village","State":"Michigan","State_Abbrev":"MI"},
"geometry":{ "type": "Point", "coordinates": [-84.334493,43.40908]}},
{ "type": "Feature", "properties": {"Name":"Mesick village","State":"Michigan","State_Abbrev":"MI"},
"geometry":{ "type": "Point", "coordinates": [-85.71734,44.404051]}},
{ "type": "Feature", "properties": {"Name":"Metamora village","State":"Michigan","State_Abbrev":"MI"},
"geometry":{ "type": "Point", "coordinates": [-83.292977,42.945532]}},
{ "type": "Feature", "properties": {"Name":"Michiana village","State":"Michigan","State_Abbrev":"MI"},
"geometry":{ "type": "Point", "coordinates": [-86.811106,41.763711]}},
{ "type": "Feature", "properties": {"Name":"Michigamme CDP","State":"Michigan","State_Abbrev":"MI"},
"geometry":{ "type": "Point", "coordinates": [-88.026155,46.53068]}},
{ "type": "Feature", "properties": {"Name":"Michigan Center CDP","State":"Michigan","State_Abbrev":"MI"},
"geometry":{ "type": "Point", "coordinates": [-84.322602,42.228083]}},
{ "type": "Feature", "properties": {"Name":"Middletown CDP","State":"Michigan","State_Abbrev":"MI"},
"geometry":{ "type": "Point", "coordinates": [-84.143047,42.986711]}},
{ "type": "Feature", "properties": {"Name":"Middleville village","State":"Michigan","State_Abbrev":"MI"},
"geometry":{ "type": "Point", "coordinates": [-85.468617,42.715319]}},
{ "type": "Feature", "properties": {"Name":"Midland city","State":"Michigan","State_Abbrev":"MI"},
"geometry":{ "type": "Point", "coordinates": [-84.231984,43.624796]}},
{ "type": "Feature", "properties": {"Name":"Milan city","State":"Michigan","State_Abbrev":"MI"},
"geometry":{ "type": "Point", "coordinates": [-83.684793,42.081347]}},
{ "type": "Feature", "properties": {"Name":"Milford village","State":"Michigan","State_Abbrev":"MI"},
"geometry":{ "type": "Point", "coordinates": [-83.601648,42.588539]}},
{ "type": "Feature", "properties": {"Name":"Millburg CDP","State":"Michigan","State_Abbrev":"MI"},
"geometry":{ "type": "Point", "coordinates": [-86.344687,42.126828]}},
{ "type": "Feature", "properties": {"Name":"Millersburg village","State":"Michigan","State_Abbrev":"MI"},
"geometry":{ "type": "Point", "coordinates": [-84.0607,45.33408]}},
{ "type": "Feature", "properties": {"Name":"Millers Lake CDP","State":"Michigan","State_Abbrev":"MI"},
"geometry":{ "type": "Point", "coordinates": [-83.326168,43.184503]}},
{ "type": "Feature", "properties": {"Name":"Millington village","State":"Michigan","State_Abbrev":"MI"},
"geometry":{ "type": "Point", "coordinates": [-83.523817,43.272814]}},
{ "type": "Feature", "properties": {"Name":"Minden City village","State":"Michigan","State_Abbrev":"MI"},
"geometry":{ "type": "Point", "coordinates": [-82.772809,43.674722]}},
{ "type": "Feature", "properties": {"Name":"Mio CDP","State":"Michigan","State_Abbrev":"MI"},
"geometry":{ "type": "Point", "coordinates": [-84.145991,44.662314]}},
{ "type": "Feature", "properties": {"Name":"Mohawk CDP","State":"Michigan","State_Abbrev":"MI"},
"geometry":{ "type": "Point", "coordinates": [-88.344658,47.310187]}},
{ "type": "Feature", "properties": {"Name":"Monroe city","State":"Michigan","State_Abbrev":"MI"},
"geometry":{ "type": "Point", "coordinates": [-83.384324,41.916586]}},
{ "type": "Feature", "properties": {"Name":"Montague city","State":"Michigan","State_Abbrev":"MI"},
"geometry":{ "type": "Point", "coordinates": [-86.363119,43.412561]}},
{ "type": "Feature", "properties": {"Name":"Montgomery village","State":"Michigan","State_Abbrev":"MI"},
"geometry":{ "type": "Point", "coordinates": [-84.808997,41.776041]}},
{ "type": "Feature", "properties": {"Name":"Montrose city","State":"Michigan","State_Abbrev":"MI"},
"geometry":{ "type": "Point", "coordinates": [-83.893185,43.176345]}},
{ "type": "Feature", "properties": {"Name":"Morenci city","State":"Michigan","State_Abbrev":"MI"},
"geometry":{ "type": "Point", "coordinates": [-84.216844,41.722711]}},
{ "type": "Feature", "properties": {"Name":"Morley village","State":"Michigan","State_Abbrev":"MI"},
"geometry":{ "type": "Point", "coordinates": [-85.445471,43.490389]}},
{ "type": "Feature", "properties": {"Name":"Morrice village","State":"Michigan","State_Abbrev":"MI"},
"geometry":{ "type": "Point", "coordinates": [-84.184476,42.836015]}},
{ "type": "Feature", "properties": {"Name":"Mount Clemens city","State":"Michigan","State_Abbrev":"MI"},
"geometry":{ "type": "Point", "coordinates": [-82.881506,42.598055]}},
{ "type": "Feature", "properties": {"Name":"Mount Morris city","State":"Michigan","State_Abbrev":"MI"},
"geometry":{ "type": "Point", "coordinates": [-83.698729,43.117664]}},
{ "type": "Feature", "properties": {"Name":"Mount Pleasant city","State":"Michigan","State_Abbrev":"MI"},
"geometry":{ "type": "Point", "coordinates": [-84.775972,43.59671]}},
{ "type": "Feature", "properties": {"Name":"Muir village","State":"Michigan","State_Abbrev":"MI"},
"geometry":{ "type": "Point", "coordinates": [-84.935183,42.998361]}},
{ "type": "Feature", "properties": {"Name":"Mulliken village","State":"Michigan","State_Abbrev":"MI"},
"geometry":{ "type": "Point", "coordinates": [-84.89637,42.763008]}},
{ "type": "Feature", "properties": {"Name":"Munising city","State":"Michigan","State_Abbrev":"MI"},
"geometry":{ "type": "Point", "coordinates": [-86.619443,46.430919]}},
{ "type": "Feature", "properties": {"Name":"Muskegon city","State":"Michigan","State_Abbrev":"MI"},
"geometry":{ "type": "Point", "coordinates": [-86.257247,43.22654]}},
{ "type": "Feature", "properties": {"Name":"Muskegon Heights city","State":"Michigan","State_Abbrev":"MI"},
"geometry":{ "type": "Point", "coordinates": [-86.240963,43.201921]}},
{ "type": "Feature", "properties": {"Name":"Napoleon CDP","State":"Michigan","State_Abbrev":"MI"},
"geometry":{ "type": "Point", "coordinates": [-84.243842,42.164503]}},
{ "type": "Feature", "properties": {"Name":"Nashville village","State":"Michigan","State_Abbrev":"MI"},
"geometry":{ "type": "Point", "coordinates": [-85.093882,42.602967]}},
{ "type": "Feature", "properties": {"Name":"Naubinway CDP","State":"Michigan","State_Abbrev":"MI"},
"geometry":{ "type": "Point", "coordinates": [-85.455055,46.089761]}},
{ "type": "Feature", "properties": {"Name":"Negaunee city","State":"Michigan","State_Abbrev":"MI"},
"geometry":{ "type": "Point", "coordinates": [-87.591868,46.496619]}},
{ "type": "Feature", "properties": {"Name":"Nessen City CDP","State":"Michigan","State_Abbrev":"MI"},
"geometry":{ "type": "Point", "coordinates": [-85.87185,44.520601]}},
{ "type": "Feature", "properties": {"Name":"Newaygo city","State":"Michigan","State_Abbrev":"MI"},
"geometry":{ "type": "Point", "coordinates": [-85.79953,43.417276]}},
{ "type": "Feature", "properties": {"Name":"New Baltimore city","State":"Michigan","State_Abbrev":"MI"},
"geometry":{ "type": "Point", "coordinates": [-82.737649,42.685306]}},
{ "type": "Feature", "properties": {"Name":"Newberry village","State":"Michigan","State_Abbrev":"MI"},
"geometry":{ "type": "Point", "coordinates": [-85.509804,46.353821]}},
{ "type": "Feature", "properties": {"Name":"New Buffalo city","State":"Michigan","State_Abbrev":"MI"},
"geometry":{ "type": "Point", "coordinates": [-86.742543,41.791382]}},
{ "type": "Feature", "properties": {"Name":"New Era village","State":"Michigan","State_Abbrev":"MI"},
"geometry":{ "type": "Point", "coordinates": [-86.347156,43.559633]}},
{ "type": "Feature", "properties": {"Name":"New Haven village","State":"Michigan","State_Abbrev":"MI"},
"geometry":{ "type": "Point", "coordinates": [-82.79704,42.729762]}},
{ "type": "Feature", "properties": {"Name":"New Lothrop village","State":"Michigan","State_Abbrev":"MI"},
"geometry":{ "type": "Point", "coordinates": [-83.968974,43.117275]}},
{ "type": "Feature", "properties": {"Name":"New Troy CDP","State":"Michigan","State_Abbrev":"MI"},
"geometry":{ "type": "Point", "coordinates": [-86.542358,41.881797]}},
{ "type": "Feature", "properties": {"Name":"Niles city","State":"Michigan","State_Abbrev":"MI"},
"geometry":{ "type": "Point", "coordinates": [-86.247851,41.834539]}},
{ "type": "Feature", "properties": {"Name":"North Adams village","State":"Michigan","State_Abbrev":"MI"},
"geometry":{ "type": "Point", "coordinates": [-84.525209,41.970714]}},
{ "type": "Feature", "properties": {"Name":"North Branch village","State":"Michigan","State_Abbrev":"MI"},
"geometry":{ "type": "Point", "coordinates": [-83.191973,43.228637]}},
{ "type": "Feature", "properties": {"Name":"North Muskegon city","State":"Michigan","State_Abbrev":"MI"},
"geometry":{ "type": "Point", "coordinates": [-86.270831,43.252163]}},
{ "type": "Feature", "properties": {"Name":"Northport village","State":"Michigan","State_Abbrev":"MI"},
"geometry":{ "type": "Point", "coordinates": [-85.617661,45.130272]}},
{ "type": "Feature", "properties": {"Name":"Northview CDP","State":"Michigan","State_Abbrev":"MI"},
"geometry":{ "type": "Point", "coordinates": [-85.603448,43.03985]}},
{ "type": "Feature", "properties": {"Name":"Northville city","State":"Michigan","State_Abbrev":"MI"},
"geometry":{ "type": "Point", "coordinates": [-83.488283,42.436205]}},
{ "type": "Feature", "properties": {"Name":"Norton Shores city","State":"Michigan","State_Abbrev":"MI"},
"geometry":{ "type": "Point", "coordinates": [-86.235405,43.169538]}},
{ "type": "Feature", "properties": {"Name":"Norway city","State":"Michigan","State_Abbrev":"MI"},
"geometry":{ "type": "Point", "coordinates": [-87.913952,45.798585]}},
{ "type": "Feature", "properties": {"Name":"Norwood CDP","State":"Michigan","State_Abbrev":"MI"},
"geometry":{ "type": "Point", "coordinates": [-85.380956,45.23186]}},
{ "type": "Feature", "properties": {"Name":"Novi city","State":"Michigan","State_Abbrev":"MI"},
"geometry":{ "type": "Point", "coordinates": [-83.486825,42.478494]}},
{ "type": "Feature", "properties": {"Name":"Nunica CDP","State":"Michigan","State_Abbrev":"MI"},
"geometry":{ "type": "Point", "coordinates": [-86.074816,43.085244]}},
{ "type": "Feature", "properties": {"Name":"Oak Hill CDP","State":"Michigan","State_Abbrev":"MI"},
"geometry":{ "type": "Point", "coordinates": [-86.303149,44.21971]}},
{ "type": "Feature", "properties": {"Name":"Oakley village","State":"Michigan","State_Abbrev":"MI"},
"geometry":{ "type": "Point", "coordinates": [-84.168566,43.143364]}},
{ "type": "Feature", "properties": {"Name":"Oak Park city","State":"Michigan","State_Abbrev":"MI"},
"geometry":{ "type": "Point", "coordinates": [-83.18241,42.464943]}},
{ "type": "Feature", "properties": {"Name":"Oden CDP","State":"Michigan","State_Abbrev":"MI"},
"geometry":{ "type": "Point", "coordinates": [-84.82576,45.425064]}},
{ "type": "Feature", "properties": {"Name":"Okemos CDP","State":"Michigan","State_Abbrev":"MI"},
"geometry":{ "type": "Point", "coordinates": [-84.414283,42.709062]}},
{ "type": "Feature", "properties": {"Name":"Olivet city","State":"Michigan","State_Abbrev":"MI"},
"geometry":{ "type": "Point", "coordinates": [-84.930262,42.443077]}},
{ "type": "Feature", "properties": {"Name":"Omena CDP","State":"Michigan","State_Abbrev":"MI"},
"geometry":{ "type": "Point", "coordinates": [-85.598315,45.062472]}},
{ "type": "Feature", "properties": {"Name":"Omer city","State":"Michigan","State_Abbrev":"MI"},
"geometry":{ "type": "Point", "coordinates": [-83.857288,44.048897]}},
{ "type": "Feature", "properties": {"Name":"Onaway city","State":"Michigan","State_Abbrev":"MI"},
"geometry":{ "type": "Point", "coordinates": [-84.22721,45.358541]}},
{ "type": "Feature", "properties": {"Name":"Onekama village","State":"Michigan","State_Abbrev":"MI"},
"geometry":{ "type": "Point", "coordinates": [-86.202142,44.365619]}},
{ "type": "Feature", "properties": {"Name":"Onsted village","State":"Michigan","State_Abbrev":"MI"},
"geometry":{ "type": "Point", "coordinates": [-84.189348,42.006096]}},
{ "type": "Feature", "properties": {"Name":"Ontonagon village","State":"Michigan","State_Abbrev":"MI"},
"geometry":{ "type": "Point", "coordinates": [-89.312399,46.86632]}},
{ "type": "Feature", "properties": {"Name":"Orchard Lake Village city","State":"Michigan","State_Abbrev":"MI"},
"geometry":{ "type": "Point", "coordinates": [-83.371309,42.58936]}},
{ "type": "Feature", "properties": {"Name":"Ortonville village","State":"Michigan","State_Abbrev":"MI"},
"geometry":{ "type": "Point", "coordinates": [-83.437999,42.848144]}},
{ "type": "Feature", "properties": {"Name":"Oscoda CDP","State":"Michigan","State_Abbrev":"MI"},
"geometry":{ "type": "Point", "coordinates": [-83.332235,44.424111]}},
{ "type": "Feature", "properties": {"Name":"Ossineke CDP","State":"Michigan","State_Abbrev":"MI"},
"geometry":{ "type": "Point", "coordinates": [-83.432043,44.908297]}},
{ "type": "Feature", "properties": {"Name":"Otisville village","State":"Michigan","State_Abbrev":"MI"},
"geometry":{ "type": "Point", "coordinates": [-83.525305,43.165326]}},
{ "type": "Feature", "properties": {"Name":"Otsego city","State":"Michigan","State_Abbrev":"MI"},
"geometry":{ "type": "Point", "coordinates": [-85.698576,42.457983]}},
{ "type": "Feature", "properties": {"Name":"Otter Lake village","State":"Michigan","State_Abbrev":"MI"},
"geometry":{ "type": "Point", "coordinates": [-83.459332,43.213445]}},
{ "type": "Feature", "properties": {"Name":"Ovid city","State":"Michigan","State_Abbrev":"MI"},
"geometry":{ "type": "Point", "coordinates": [-84.375887,43.003085]}},
{ "type": "Feature", "properties": {"Name":"Owendale village","State":"Michigan","State_Abbrev":"MI"},
"geometry":{ "type": "Point", "coordinates": [-83.267148,43.727361]}},
{ "type": "Feature", "properties": {"Name":"Owosso city","State":"Michigan","State_Abbrev":"MI"},
"geometry":{ "type": "Point", "coordinates": [-84.175845,42.995252]}},
{ "type": "Feature", "properties": {"Name":"Oxford village","State":"Michigan","State_Abbrev":"MI"},
"geometry":{ "type": "Point", "coordinates": [-83.253464,42.82143]}},
{ "type": "Feature", "properties": {"Name":"Painesdale CDP","State":"Michigan","State_Abbrev":"MI"},
"geometry":{ "type": "Point", "coordinates": [-88.671537,47.043406]}},
{ "type": "Feature", "properties": {"Name":"Palmer CDP","State":"Michigan","State_Abbrev":"MI"},
"geometry":{ "type": "Point", "coordinates": [-87.581653,46.443585]}},
{ "type": "Feature", "properties": {"Name":"Palo CDP","State":"Michigan","State_Abbrev":"MI"},
"geometry":{ "type": "Point", "coordinates": [-84.986143,43.11065]}},
{ "type": "Feature", "properties": {"Name":"Parchment city","State":"Michigan","State_Abbrev":"MI"},
"geometry":{ "type": "Point", "coordinates": [-85.565336,42.327495]}},
{ "type": "Feature", "properties": {"Name":"Paris CDP","State":"Michigan","State_Abbrev":"MI"},
"geometry":{ "type": "Point", "coordinates": [-85.507502,43.782136]}},
{ "type": "Feature", "properties": {"Name":"Parkdale CDP","State":"Michigan","State_Abbrev":"MI"},
"geometry":{ "type": "Point", "coordinates": [-86.280533,44.272021]}},
{ "type": "Feature", "properties": {"Name":"Parma village","State":"Michigan","State_Abbrev":"MI"},
"geometry":{ "type": "Point", "coordinates": [-84.548989,42.265443]}},
{ "type": "Feature", "properties": {"Name":"Paw Paw village","State":"Michigan","State_Abbrev":"MI"},
"geometry":{ "type": "Point", "coordinates": [-85.892177,42.214235]}},
{ "type": "Feature", "properties": {"Name":"Paw Paw Lake CDP","State":"Michigan","State_Abbrev":"MI"},
"geometry":{ "type": "Point", "coordinates": [-86.275586,42.211388]}},
{ "type": "Feature", "properties": {"Name":"Pearl Beach CDP","State":"Michigan","State_Abbrev":"MI"},
"geometry":{ "type": "Point", "coordinates": [-82.586437,42.631576]}},
{ "type": "Feature", "properties": {"Name":"Peck village","State":"Michigan","State_Abbrev":"MI"},
"geometry":{ "type": "Point", "coordinates": [-82.816754,43.258857]}},
{ "type": "Feature", "properties": {"Name":"Pelkie CDP","State":"Michigan","State_Abbrev":"MI"},
"geometry":{ "type": "Point", "coordinates": [-88.641548,46.815639]}},
{ "type": "Feature", "properties": {"Name":"Pellston village","State":"Michigan","State_Abbrev":"MI"},
"geometry":{ "type": "Point", "coordinates": [-84.783372,45.551578]}},
{ "type": "Feature", "properties": {"Name":"Pentwater village","State":"Michigan","State_Abbrev":"MI"},
"geometry":{ "type": "Point", "coordinates": [-86.429916,43.77962]}},
{ "type": "Feature", "properties": {"Name":"Perrinton village","State":"Michigan","State_Abbrev":"MI"},
"geometry":{ "type": "Point", "coordinates": [-84.6799,43.180834]}},
{ "type": "Feature", "properties": {"Name":"Perry city","State":"Michigan","State_Abbrev":"MI"},
"geometry":{ "type": "Point", "coordinates": [-84.224071,42.832184]}},
{ "type": "Feature", "properties": {"Name":"Petersburg city","State":"Michigan","State_Abbrev":"MI"},
"geometry":{ "type": "Point", "coordinates": [-83.71403,41.899695]}},
{ "type": "Feature", "properties": {"Name":"Petoskey city","State":"Michigan","State_Abbrev":"MI"},
"geometry":{ "type": "Point", "coordinates": [-85.010701,45.36485]}},
{ "type": "Feature", "properties": {"Name":"Pewamo village","State":"Michigan","State_Abbrev":"MI"},
"geometry":{ "type": "Point", "coordinates": [-84.847338,43.001974]}},
{ "type": "Feature", "properties": {"Name":"Pierson village","State":"Michigan","State_Abbrev":"MI"},
"geometry":{ "type": "Point", "coordinates": [-85.497502,43.319647]}},
{ "type": "Feature", "properties": {"Name":"Pigeon village","State":"Michigan","State_Abbrev":"MI"},
"geometry":{ "type": "Point", "coordinates": [-83.270227,43.829432]}},
{ "type": "Feature", "properties": {"Name":"Pilgrim CDP","State":"Michigan","State_Abbrev":"MI"},
"geometry":{ "type": "Point", "coordinates": [-86.24986,44.664553]}},
{ "type": "Feature", "properties": {"Name":"Pinckney village","State":"Michigan","State_Abbrev":"MI"},
"geometry":{ "type": "Point", "coordinates": [-83.941075,42.455397]}},
{ "type": "Feature", "properties": {"Name":"Pinconning city","State":"Michigan","State_Abbrev":"MI"},
"geometry":{ "type": "Point", "coordinates": [-83.964629,43.857225]}},
{ "type": "Feature", "properties": {"Name":"Pittsford CDP","State":"Michigan","State_Abbrev":"MI"},
"geometry":{ "type": "Point", "coordinates": [-84.47714,41.861853]}},
{ "type": "Feature", "properties": {"Name":"Plainwell city","State":"Michigan","State_Abbrev":"MI"},
"geometry":{ "type": "Point", "coordinates": [-85.650721,42.452003]}},
{ "type": "Feature", "properties": {"Name":"Pleasant Ridge city","State":"Michigan","State_Abbrev":"MI"},
"geometry":{ "type": "Point", "coordinates": [-83.1445,42.471516]}},
{ "type": "Feature", "properties": {"Name":"Plymouth city","State":"Michigan","State_Abbrev":"MI"},
"geometry":{ "type": "Point", "coordinates": [-83.467617,42.371246]}},
{ "type": "Feature", "properties": {"Name":"Ponshewaing CDP","State":"Michigan","State_Abbrev":"MI"},
"geometry":{ "type": "Point", "coordinates": [-84.805815,45.42083]}},
{ "type": "Feature", "properties": {"Name":"Pontiac city","State":"Michigan","State_Abbrev":"MI"},
"geometry":{ "type": "Point", "coordinates": [-83.287363,42.649228]}},
{ "type": "Feature", "properties": {"Name":"Portage city","State":"Michigan","State_Abbrev":"MI"},
"geometry":{ "type": "Point", "coordinates": [-85.591395,42.19705]}},
{ "type": "Feature", "properties": {"Name":"Port Austin village","State":"Michigan","State_Abbrev":"MI"},
"geometry":{ "type": "Point", "coordinates": [-82.995086,44.042552]}},
{ "type": "Feature", "properties": {"Name":"Port Hope village","State":"Michigan","State_Abbrev":"MI"},
"geometry":{ "type": "Point", "coordinates": [-82.714955,43.939406]}},
{ "type": "Feature", "properties": {"Name":"Port Huron city","State":"Michigan","State_Abbrev":"MI"},
"geometry":{ "type": "Point", "coordinates": [-82.433743,42.993766]}},
{ "type": "Feature", "properties": {"Name":"Portland city","State":"Michigan","State_Abbrev":"MI"},
"geometry":{ "type": "Point", "coordinates": [-84.89893,42.869794]}},
{ "type": "Feature", "properties": {"Name":"Port Sanilac village","State":"Michigan","State_Abbrev":"MI"},
"geometry":{ "type": "Point", "coordinates": [-82.544729,43.427666]}},
{ "type": "Feature", "properties": {"Name":"Posen village","State":"Michigan","State_Abbrev":"MI"},
"geometry":{ "type": "Point", "coordinates": [-83.698861,45.262242]}},
{ "type": "Feature", "properties": {"Name":"Potterville city","State":"Michigan","State_Abbrev":"MI"},
"geometry":{ "type": "Point", "coordinates": [-84.745031,42.629087]}},
{ "type": "Feature", "properties": {"Name":"Powers village","State":"Michigan","State_Abbrev":"MI"},
"geometry":{ "type": "Point", "coordinates": [-87.526504,45.687967]}},
{ "type": "Feature", "properties": {"Name":"Prescott village","State":"Michigan","State_Abbrev":"MI"},
"geometry":{ "type": "Point", "coordinates": [-83.93224,44.191629]}},
{ "type": "Feature", "properties": {"Name":"Presque Isle Harbor CDP","State":"Michigan","State_Abbrev":"MI"},
"geometry":{ "type": "Point", "coordinates": [-83.48994,45.323994]}},
{ "type": "Feature", "properties": {"Name":"Prudenville CDP","State":"Michigan","State_Abbrev":"MI"},
"geometry":{ "type": "Point", "coordinates": [-84.665535,44.300773]}},
{ "type": "Feature", "properties": {"Name":"Quincy village","State":"Michigan","State_Abbrev":"MI"},
"geometry":{ "type": "Point", "coordinates": [-84.882574,41.942837]}},
{ "type": "Feature", "properties": {"Name":"Quinnesec CDP","State":"Michigan","State_Abbrev":"MI"},
"geometry":{ "type": "Point", "coordinates": [-87.99641,45.803285]}},
{ "type": "Feature", "properties": {"Name":"Ramsay CDP","State":"Michigan","State_Abbrev":"MI"},
"geometry":{ "type": "Point", "coordinates": [-89.997872,46.470015]}},
{ "type": "Feature", "properties": {"Name":"Rapid City CDP","State":"Michigan","State_Abbrev":"MI"},
"geometry":{ "type": "Point", "coordinates": [-85.289849,44.838445]}},
{ "type": "Feature", "properties": {"Name":"Rapid River CDP","State":"Michigan","State_Abbrev":"MI"},
"geometry":{ "type": "Point", "coordinates": [-86.974284,45.926394]}},
{ "type": "Feature", "properties": {"Name":"Ravenna village","State":"Michigan","State_Abbrev":"MI"},
"geometry":{ "type": "Point", "coordinates": [-85.941183,43.187995]}},
{ "type": "Feature", "properties": {"Name":"Reading city","State":"Michigan","State_Abbrev":"MI"},
"geometry":{ "type": "Point", "coordinates": [-84.74783,41.839583]}},
{ "type": "Feature", "properties": {"Name":"Reed City city","State":"Michigan","State_Abbrev":"MI"},
"geometry":{ "type": "Point", "coordinates": [-85.507006,43.872754]}},
{ "type": "Feature", "properties": {"Name":"Reese village","State":"Michigan","State_Abbrev":"MI"},
"geometry":{ "type": "Point", "coordinates": [-83.68943,43.452767]}},
{ "type": "Feature", "properties": {"Name":"Republic CDP","State":"Michigan","State_Abbrev":"MI"},
"geometry":{ "type": "Point", "coordinates": [-87.988013,46.408561]}},
{ "type": "Feature", "properties": {"Name":"Richland village","State":"Michigan","State_Abbrev":"MI"},
"geometry":{ "type": "Point", "coordinates": [-85.458147,42.37171]}},
{ "type": "Feature", "properties": {"Name":"Richmond city","State":"Michigan","State_Abbrev":"MI"},
"geometry":{ "type": "Point", "coordinates": [-82.752173,42.810558]}},
{ "type": "Feature", "properties": {"Name":"Riverdale CDP","State":"Michigan","State_Abbrev":"MI"},
"geometry":{ "type": "Point", "coordinates": [-84.840784,43.382448]}},
{ "type": "Feature", "properties": {"Name":"River Rouge city","State":"Michigan","State_Abbrev":"MI"},
"geometry":{ "type": "Point", "coordinates": [-83.124162,42.274346]}},
{ "type": "Feature", "properties": {"Name":"Riverview city","State":"Michigan","State_Abbrev":"MI"},
"geometry":{ "type": "Point", "coordinates": [-83.19838,42.173456]}},
{ "type": "Feature", "properties": {"Name":"Robin Glen-Indiantown CDP","State":"Michigan","State_Abbrev":"MI"},
"geometry":{ "type": "Point", "coordinates": [-83.840784,43.461835]}},
{ "type": "Feature", "properties": {"Name":"Rochester city","State":"Michigan","State_Abbrev":"MI"},
"geometry":{ "type": "Point", "coordinates": [-83.119721,42.686639]}},
{ "type": "Feature", "properties": {"Name":"Rochester Hills city","State":"Michigan","State_Abbrev":"MI"},
"geometry":{ "type": "Point", "coordinates": [-83.159196,42.663484]}},
{ "type": "Feature", "properties": {"Name":"Rock CDP","State":"Michigan","State_Abbrev":"MI"},
"geometry":{ "type": "Point", "coordinates": [-87.161692,46.068625]}},
{ "type": "Feature", "properties": {"Name":"Rockford city","State":"Michigan","State_Abbrev":"MI"},
"geometry":{ "type": "Point", "coordinates": [-85.554519,43.136975]}},
{ "type": "Feature", "properties": {"Name":"Rockland CDP","State":"Michigan","State_Abbrev":"MI"},
"geometry":{ "type": "Point", "coordinates": [-89.179561,46.739419]}},
{ "type": "Feature", "properties": {"Name":"Rockwood city","State":"Michigan","State_Abbrev":"MI"},
"geometry":{ "type": "Point", "coordinates": [-83.241746,42.070344]}},
{ "type": "Feature", "properties": {"Name":"Rogers City city","State":"Michigan","State_Abbrev":"MI"},
"geometry":{ "type": "Point", "coordinates": [-83.804751,45.417699]}},
{ "type": "Feature", "properties": {"Name":"Romeo village","State":"Michigan","State_Abbrev":"MI"},
"geometry":{ "type": "Point", "coordinates": [-83.002603,42.80458]}},
{ "type": "Feature", "properties": {"Name":"Romulus city","State":"Michigan","State_Abbrev":"MI"},
"geometry":{ "type": "Point", "coordinates": [-83.366036,42.223649]}},
{ "type": "Feature", "properties": {"Name":"Roosevelt Park city","State":"Michigan","State_Abbrev":"MI"},
"geometry":{ "type": "Point", "coordinates": [-86.273346,43.198147]}},
{ "type": "Feature", "properties": {"Name":"Roscommon village","State":"Michigan","State_Abbrev":"MI"},
"geometry":{ "type": "Point", "coordinates": [-84.589938,44.488292]}},
{ "type": "Feature", "properties": {"Name":"Rosebush village","State":"Michigan","State_Abbrev":"MI"},
"geometry":{ "type": "Point", "coordinates": [-84.763725,43.703977]}},
{ "type": "Feature", "properties": {"Name":"Rose City city","State":"Michigan","State_Abbrev":"MI"},
"geometry":{ "type": "Point", "coordinates": [-84.115409,44.421054]}},
{ "type": "Feature", "properties": {"Name":"Roseville city","State":"Michigan","State_Abbrev":"MI"},
"geometry":{ "type": "Point", "coordinates": [-82.936582,42.507586]}},
{ "type": "Feature", "properties": {"Name":"Rothbury village","State":"Michigan","State_Abbrev":"MI"},
"geometry":{ "type": "Point", "coordinates": [-86.361411,43.51841]}},
{ "type": "Feature", "properties": {"Name":"Royal Oak city","State":"Michigan","State_Abbrev":"MI"},
"geometry":{ "type": "Point", "coordinates": [-83.15389,42.507816]}},
{ "type": "Feature", "properties": {"Name":"Ruby CDP","State":"Michigan","State_Abbrev":"MI"},
"geometry":{ "type": "Point", "coordinates": [-82.611823,43.032897]}},
{ "type": "Feature", "properties": {"Name":"Saginaw city","State":"Michigan","State_Abbrev":"MI"},
"geometry":{ "type": "Point", "coordinates": [-83.950172,43.419945]}},
{ "type": "Feature", "properties": {"Name":"St. Charles village","State":"Michigan","State_Abbrev":"MI"},
"geometry":{ "type": "Point", "coordinates": [-84.147648,43.298335]}},
{ "type": "Feature", "properties": {"Name":"St. Clair city","State":"Michigan","State_Abbrev":"MI"},
"geometry":{ "type": "Point", "coordinates": [-82.492433,42.82653]}},
{ "type": "Feature", "properties": {"Name":"St. Clair Shores city","State":"Michigan","State_Abbrev":"MI"},
"geometry":{ "type": "Point", "coordinates": [-82.890901,42.493043]}},
{ "type": "Feature", "properties": {"Name":"St. Helen CDP","State":"Michigan","State_Abbrev":"MI"},
"geometry":{ "type": "Point", "coordinates": [-84.411808,44.358733]}},
{ "type": "Feature", "properties": {"Name":"St. Ignace city","State":"Michigan","State_Abbrev":"MI"},
"geometry":{ "type": "Point", "coordinates": [-84.731707,45.887164]}},
{ "type": "Feature", "properties": {"Name":"St. James CDP","State":"Michigan","State_Abbrev":"MI"},
"geometry":{ "type": "Point", "coordinates": [-85.530064,45.742671]}},
{ "type": "Feature", "properties": {"Name":"St. Johns city","State":"Michigan","State_Abbrev":"MI"},
"geometry":{ "type": "Point", "coordinates": [-84.555518,43.000509]}},
{ "type": "Feature", "properties": {"Name":"St. Joseph city","State":"Michigan","State_Abbrev":"MI"},
"geometry":{ "type": "Point", "coordinates": [-86.48877,42.09969]}},
{ "type": "Feature", "properties": {"Name":"St. Louis city","State":"Michigan","State_Abbrev":"MI"},
"geometry":{ "type": "Point", "coordinates": [-84.61123,43.408528]}},
{ "type": "Feature", "properties": {"Name":"Saline city","State":"Michigan","State_Abbrev":"MI"},
"geometry":{ "type": "Point", "coordinates": [-83.777123,42.174728]}},
{ "type": "Feature", "properties": {"Name":"Sand Lake CDP","State":"Michigan","State_Abbrev":"MI"},
"geometry":{ "type": "Point", "coordinates": [-83.665714,44.328956]}},
{ "type": "Feature", "properties": {"Name":"Sand Lake village","State":"Michigan","State_Abbrev":"MI"},
"geometry":{ "type": "Point", "coordinates": [-85.52403,43.28859]}},
{ "type": "Feature", "properties": {"Name":"Sandusky city","State":"Michigan","State_Abbrev":"MI"},
"geometry":{ "type": "Point", "coordinates": [-82.833043,43.420184]}},
{ "type": "Feature", "properties": {"Name":"Sanford village","State":"Michigan","State_Abbrev":"MI"},
"geometry":{ "type": "Point", "coordinates": [-84.385543,43.678174]}},
{ "type": "Feature", "properties": {"Name":"Saranac village","State":"Michigan","State_Abbrev":"MI"},
"geometry":{ "type": "Point", "coordinates": [-85.209544,42.927315]}},
{ "type": "Feature", "properties": {"Name":"Saugatuck city","State":"Michigan","State_Abbrev":"MI"},
"geometry":{ "type": "Point", "coordinates": [-86.204623,42.661361]}},
{ "type": "Feature", "properties": {"Name":"Sault Ste. Marie city","State":"Michigan","State_Abbrev":"MI"},
"geometry":{ "type": "Point", "coordinates": [-84.370544,46.476169]}},
{ "type": "Feature", "properties": {"Name":"Schoolcraft village","State":"Michigan","State_Abbrev":"MI"},
"geometry":{ "type": "Point", "coordinates": [-85.633738,42.116947]}},
{ "type": "Feature", "properties": {"Name":"Scotts CDP","State":"Michigan","State_Abbrev":"MI"},
"geometry":{ "type": "Point", "coordinates": [-85.41368,42.194134]}},
{ "type": "Feature", "properties": {"Name":"Scottville city","State":"Michigan","State_Abbrev":"MI"},
"geometry":{ "type": "Point", "coordinates": [-86.279816,43.951101]}},
{ "type": "Feature", "properties": {"Name":"Sebewaing village","State":"Michigan","State_Abbrev":"MI"},
"geometry":{ "type": "Point", "coordinates": [-83.450916,43.731719]}},
{ "type": "Feature", "properties": {"Name":"Shaftsburg CDP","State":"Michigan","State_Abbrev":"MI"},
"geometry":{ "type": "Point", "coordinates": [-84.299594,42.808078]}},
{ "type": "Feature", "properties": {"Name":"Shelby village","State":"Michigan","State_Abbrev":"MI"},
"geometry":{ "type": "Point", "coordinates": [-86.364492,43.612058]}},
{ "type": "Feature", "properties": {"Name":"Shepherd village","State":"Michigan","State_Abbrev":"MI"},
"geometry":{ "type": "Point", "coordinates": [-84.692697,43.523558]}},
{ "type": "Feature", "properties": {"Name":"Sheridan village","State":"Michigan","State_Abbrev":"MI"},
"geometry":{ "type": "Point", "coordinates": [-85.079847,43.209778]}},
{ "type": "Feature", "properties": {"Name":"Sherwood village","State":"Michigan","State_Abbrev":"MI"},
"geometry":{ "type": "Point", "coordinates": [-85.239404,41.999707]}},
{ "type": "Feature", "properties": {"Name":"Shields CDP","State":"Michigan","State_Abbrev":"MI"},
"geometry":{ "type": "Point", "coordinates": [-84.074073,43.422926]}},
{ "type": "Feature", "properties": {"Name":"Shoreham village","State":"Michigan","State_Abbrev":"MI"},
"geometry":{ "type": "Point", "coordinates": [-86.511394,42.060447]}},
{ "type": "Feature", "properties": {"Name":"Shorewood-Tower Hills-Harbert CDP","State":"Michigan","State_Abbrev":"MI"},
"geometry":{ "type": "Point", "coordinates": [-86.617744,41.881516]}},
{ "type": "Feature", "properties": {"Name":"Skanee CDP","State":"Michigan","State_Abbrev":"MI"},
"geometry":{ "type": "Point", "coordinates": [-88.198047,46.873208]}},
{ "type": "Feature", "properties": {"Name":"Skidway Lake CDP","State":"Michigan","State_Abbrev":"MI"},
"geometry":{ "type": "Point", "coordinates": [-84.04621,44.19441]}},
{ "type": "Feature", "properties": {"Name":"Snover CDP","State":"Michigan","State_Abbrev":"MI"},
"geometry":{ "type": "Point", "coordinates": [-82.96067,43.454768]}},
{ "type": "Feature", "properties": {"Name":"South Boardman CDP","State":"Michigan","State_Abbrev":"MI"},
"geometry":{ "type": "Point", "coordinates": [-85.287365,44.635414]}},
{ "type": "Feature", "properties": {"Name":"Southfield city","State":"Michigan","State_Abbrev":"MI"},
"geometry":{ "type": "Point", "coordinates": [-83.259509,42.47464]}},
{ "type": "Feature", "properties": {"Name":"Southgate city","State":"Michigan","State_Abbrev":"MI"},
"geometry":{ "type": "Point", "coordinates": [-83.205685,42.204707]}},
{ "type": "Feature", "properties": {"Name":"South Gull Lake CDP","State":"Michigan","State_Abbrev":"MI"},
"geometry":{ "type": "Point", "coordinates": [-85.406297,42.386452]}},
{ "type": "Feature", "properties": {"Name":"South Haven city","State":"Michigan","State_Abbrev":"MI"},
"geometry":{ "type": "Point", "coordinates": [-86.268434,42.401341]}},
{ "type": "Feature", "properties": {"Name":"South Lyon city","State":"Michigan","State_Abbrev":"MI"},
"geometry":{ "type": "Point", "coordinates": [-83.653169,42.461015]}},
{ "type": "Feature", "properties": {"Name":"South Monroe CDP","State":"Michigan","State_Abbrev":"MI"},
"geometry":{ "type": "Point", "coordinates": [-83.41856,41.892659]}},
{ "type": "Feature", "properties": {"Name":"South Range village","State":"Michigan","State_Abbrev":"MI"},
"geometry":{ "type": "Point", "coordinates": [-88.644003,47.070307]}},
{ "type": "Feature", "properties": {"Name":"South Rockwood village","State":"Michigan","State_Abbrev":"MI"},
"geometry":{ "type": "Point", "coordinates": [-83.271532,42.060421]}},
{ "type": "Feature", "properties": {"Name":"Sparta village","State":"Michigan","State_Abbrev":"MI"},
"geometry":{ "type": "Point", "coordinates": [-85.710989,43.156706]}},
{ "type": "Feature", "properties": {"Name":"Spring Arbor CDP","State":"Michigan","State_Abbrev":"MI"},
"geometry":{ "type": "Point", "coordinates": [-84.554945,42.206771]}},
{ "type": "Feature", "properties": {"Name":"Springfield city","State":"Michigan","State_Abbrev":"MI"},
"geometry":{ "type": "Point", "coordinates": [-85.235369,42.324099]}},
{ "type": "Feature", "properties": {"Name":"Spring Lake village","State":"Michigan","State_Abbrev":"MI"},
"geometry":{ "type": "Point", "coordinates": [-86.194149,43.073454]}},
{ "type": "Feature", "properties": {"Name":"Springport village","State":"Michigan","State_Abbrev":"MI"},
"geometry":{ "type": "Point", "coordinates": [-84.696476,42.378335]}},
{ "type": "Feature", "properties": {"Name":"Standish city","State":"Michigan","State_Abbrev":"MI"},
"geometry":{ "type": "Point", "coordinates": [-83.963989,43.977711]}},
{ "type": "Feature", "properties": {"Name":"Stanton city","State":"Michigan","State_Abbrev":"MI"},
"geometry":{ "type": "Point", "coordinates": [-85.079576,43.293152]}},
{ "type": "Feature", "properties": {"Name":"Stanwood village","State":"Michigan","State_Abbrev":"MI"},
"geometry":{ "type": "Point", "coordinates": [-85.448169,43.58034]}},
{ "type": "Feature", "properties": {"Name":"Stephenson city","State":"Michigan","State_Abbrev":"MI"},
"geometry":{ "type": "Point", "coordinates": [-87.609107,45.413734]}},
{ "type": "Feature", "properties": {"Name":"Sterling village","State":"Michigan","State_Abbrev":"MI"},
"geometry":{ "type": "Point", "coordinates": [-84.01863,44.032789]}},
{ "type": "Feature", "properties": {"Name":"Sterling Heights city","State":"Michigan","State_Abbrev":"MI"},
"geometry":{ "type": "Point", "coordinates": [-83.030316,42.581206]}},
{ "type": "Feature", "properties": {"Name":"Stevensville village","State":"Michigan","State_Abbrev":"MI"},
"geometry":{ "type": "Point", "coordinates": [-86.525407,42.01397]}},
{ "type": "Feature", "properties": {"Name":"Stockbridge village","State":"Michigan","State_Abbrev":"MI"},
"geometry":{ "type": "Point", "coordinates": [-84.175751,42.448652]}},
{ "type": "Feature", "properties": {"Name":"Stony Point CDP","State":"Michigan","State_Abbrev":"MI"},
"geometry":{ "type": "Point", "coordinates": [-83.270551,41.946659]}},
{ "type": "Feature", "properties": {"Name":"Stronach CDP","State":"Michigan","State_Abbrev":"MI"},
"geometry":{ "type": "Point", "coordinates": [-86.273107,44.213135]}},
{ "type": "Feature", "properties": {"Name":"Sturgis city","State":"Michigan","State_Abbrev":"MI"},
"geometry":{ "type": "Point", "coordinates": [-85.418462,41.799082]}},
{ "type": "Feature", "properties": {"Name":"Sunfield village","State":"Michigan","State_Abbrev":"MI"},
"geometry":{ "type": "Point", "coordinates": [-84.995135,42.761153]}},
{ "type": "Feature", "properties": {"Name":"Suttons Bay village","State":"Michigan","State_Abbrev":"MI"},
"geometry":{ "type": "Point", "coordinates": [-85.650728,44.979594]}},
{ "type": "Feature", "properties": {"Name":"Swartz Creek city","State":"Michigan","State_Abbrev":"MI"},
"geometry":{ "type": "Point", "coordinates": [-83.816173,42.964205]}},
{ "type": "Feature", "properties": {"Name":"Sylvan Lake city","State":"Michigan","State_Abbrev":"MI"},
"geometry":{ "type": "Point", "coordinates": [-83.333465,42.616764]}},
{ "type": "Feature", "properties": {"Name":"Tawas City city","State":"Michigan","State_Abbrev":"MI"},
"geometry":{ "type": "Point", "coordinates": [-83.522985,44.267154]}},
{ "type": "Feature", "properties": {"Name":"Taylor city","State":"Michigan","State_Abbrev":"MI"},
"geometry":{ "type": "Point", "coordinates": [-83.267691,42.225283]}},
{ "type": "Feature", "properties": {"Name":"Tecumseh city","State":"Michigan","State_Abbrev":"MI"},
"geometry":{ "type": "Point", "coordinates": [-83.944454,42.006108]}},
{ "type": "Feature", "properties": {"Name":"Tekonsha village","State":"Michigan","State_Abbrev":"MI"},
"geometry":{ "type": "Point", "coordinates": [-84.991924,42.097365]}},
{ "type": "Feature", "properties": {"Name":"Temperance CDP","State":"Michigan","State_Abbrev":"MI"},
"geometry":{ "type": "Point", "coordinates": [-83.571672,41.767537]}},
{ "type": "Feature", "properties": {"Name":"Thompsonville village","State":"Michigan","State_Abbrev":"MI"},
"geometry":{ "type": "Point", "coordinates": [-85.93797,44.519962]}},
{ "type": "Feature", "properties": {"Name":"Three Lakes CDP","State":"Michigan","State_Abbrev":"MI"},
"geometry":{ "type": "Point", "coordinates": [-88.183896,46.534165]}},
{ "type": "Feature", "properties": {"Name":"Three Oaks village","State":"Michigan","State_Abbrev":"MI"},
"geometry":{ "type": "Point", "coordinates": [-86.613904,41.798529]}},
{ "type": "Feature", "properties": {"Name":"Three Rivers city","State":"Michigan","State_Abbrev":"MI"},
"geometry":{ "type": "Point", "coordinates": [-85.625783,41.948528]}},
{ "type": "Feature", "properties": {"Name":"Tower CDP","State":"Michigan","State_Abbrev":"MI"},
"geometry":{ "type": "Point", "coordinates": [-84.293701,45.351842]}},
{ "type": "Feature", "properties": {"Name":"Traverse City city","State":"Michigan","State_Abbrev":"MI"},
"geometry":{ "type": "Point", "coordinates": [-85.603011,44.754309]}},
{ "type": "Feature", "properties": {"Name":"Trenton city","State":"Michigan","State_Abbrev":"MI"},
"geometry":{ "type": "Point", "coordinates": [-83.192914,42.140058]}},
{ "type": "Feature", "properties": {"Name":"Trimountain CDP","State":"Michigan","State_Abbrev":"MI"},
"geometry":{ "type": "Point", "coordinates": [-88.658594,47.055706]}},
{ "type": "Feature", "properties": {"Name":"Trowbridge Park CDP","State":"Michigan","State_Abbrev":"MI"},
"geometry":{ "type": "Point", "coordinates": [-87.44124,46.556125]}},
{ "type": "Feature", "properties": {"Name":"Troy city","State":"Michigan","State_Abbrev":"MI"},
"geometry":{ "type": "Point", "coordinates": [-83.145533,42.583882]}},
{ "type": "Feature", "properties": {"Name":"Trufant CDP","State":"Michigan","State_Abbrev":"MI"},
"geometry":{ "type": "Point", "coordinates": [-85.349868,43.321851]}},
{ "type": "Feature", "properties": {"Name":"Turner village","State":"Michigan","State_Abbrev":"MI"},
"geometry":{ "type": "Point", "coordinates": [-83.788111,44.141532]}},
{ "type": "Feature", "properties": {"Name":"Tustin village","State":"Michigan","State_Abbrev":"MI"},
"geometry":{ "type": "Point", "coordinates": [-85.45892,44.10094]}},
{ "type": "Feature", "properties": {"Name":"Twining village","State":"Michigan","State_Abbrev":"MI"},
"geometry":{ "type": "Point", "coordinates": [-83.812228,44.115193]}},
{ "type": "Feature", "properties": {"Name":"Twin Lake CDP","State":"Michigan","State_Abbrev":"MI"},
"geometry":{ "type": "Point", "coordinates": [-86.183603,43.368535]}},
{ "type": "Feature", "properties": {"Name":"Ubly village","State":"Michigan","State_Abbrev":"MI"},
"geometry":{ "type": "Point", "coordinates": [-82.935589,43.708237]}},
{ "type": "Feature", "properties": {"Name":"Union City village","State":"Michigan","State_Abbrev":"MI"},
"geometry":{ "type": "Point", "coordinates": [-85.143168,42.066714]}},
{ "type": "Feature", "properties": {"Name":"Unionville village","State":"Michigan","State_Abbrev":"MI"},
"geometry":{ "type": "Point", "coordinates": [-83.467098,43.653523]}},
{ "type": "Feature", "properties": {"Name":"Utica city","State":"Michigan","State_Abbrev":"MI"},
"geometry":{ "type": "Point", "coordinates": [-83.02333,42.628745]}},
{ "type": "Feature", "properties": {"Name":"Vandalia village","State":"Michigan","State_Abbrev":"MI"},
"geometry":{ "type": "Point", "coordinates": [-85.915563,41.922845]}},
{ "type": "Feature", "properties": {"Name":"Vanderbilt village","State":"Michigan","State_Abbrev":"MI"},
"geometry":{ "type": "Point", "coordinates": [-84.663888,45.14357]}},
{ "type": "Feature", "properties": {"Name":"Vandercook Lake CDP","State":"Michigan","State_Abbrev":"MI"},
"geometry":{ "type": "Point", "coordinates": [-84.385487,42.191425]}},
{ "type": "Feature", "properties": {"Name":"Vassar city","State":"Michigan","State_Abbrev":"MI"},
"geometry":{ "type": "Point", "coordinates": [-83.577539,43.370831]}},
{ "type": "Feature", "properties": {"Name":"Vermontville village","State":"Michigan","State_Abbrev":"MI"},
"geometry":{ "type": "Point", "coordinates": [-85.027611,42.626676]}},
{ "type": "Feature", "properties": {"Name":"Vernon village","State":"Michigan","State_Abbrev":"MI"},
"geometry":{ "type": "Point", "coordinates": [-84.0336,42.939363]}},
{ "type": "Feature", "properties": {"Name":"Vicksburg village","State":"Michigan","State_Abbrev":"MI"},
"geometry":{ "type": "Point", "coordinates": [-85.538293,42.123026]}},
{ "type": "Feature", "properties": {"Name":"Village of Clarkston city","State":"Michigan","State_Abbrev":"MI"},
"geometry":{ "type": "Point", "coordinates": [-83.421132,42.732134]}},
{ "type": "Feature", "properties": {"Name":"Village of Grosse Pointe Shores city","State":"Michigan","State_Abbrev":"MI"},
"geometry":{ "type": "Point", "coordinates": [-82.870379,42.451262]}},
{ "type": "Feature", "properties": {"Name":"Vineyard Lake CDP","State":"Michigan","State_Abbrev":"MI"},
"geometry":{ "type": "Point", "coordinates": [-84.2173,42.090395]}},
{ "type": "Feature", "properties": {"Name":"Wacousta CDP","State":"Michigan","State_Abbrev":"MI"},
"geometry":{ "type": "Point", "coordinates": [-84.690964,42.816929]}},
{ "type": "Feature", "properties": {"Name":"Wakefield city","State":"Michigan","State_Abbrev":"MI"},
"geometry":{ "type": "Point", "coordinates": [-89.93343,46.476904]}},
{ "type": "Feature", "properties": {"Name":"Waldron village","State":"Michigan","State_Abbrev":"MI"},
"geometry":{ "type": "Point", "coordinates": [-84.41884,41.724175]}},
{ "type": "Feature", "properties": {"Name":"Walker city","State":"Michigan","State_Abbrev":"MI"},
"geometry":{ "type": "Point", "coordinates": [-85.756366,42.996553]}},
{ "type": "Feature", "properties": {"Name":"Walkerville village","State":"Michigan","State_Abbrev":"MI"},
"geometry":{ "type": "Point", "coordinates": [-86.125889,43.714657]}},
{ "type": "Feature", "properties": {"Name":"Walled Lake city","State":"Michigan","State_Abbrev":"MI"},
"geometry":{ "type": "Point", "coordinates": [-83.473713,42.537199]}},
{ "type": "Feature", "properties": {"Name":"Walloon Lake CDP","State":"Michigan","State_Abbrev":"MI"},
"geometry":{ "type": "Point", "coordinates": [-84.941181,45.271866]}},
{ "type": "Feature", "properties": {"Name":"Warren city","State":"Michigan","State_Abbrev":"MI"},
"geometry":{ "type": "Point", "coordinates": [-83.025001,42.492904]}},
{ "type": "Feature", "properties": {"Name":"Watersmeet CDP","State":"Michigan","State_Abbrev":"MI"},
"geometry":{ "type": "Point", "coordinates": [-89.206133,46.295281]}},
{ "type": "Feature", "properties": {"Name":"Watervliet city","State":"Michigan","State_Abbrev":"MI"},
"geometry":{ "type": "Point", "coordinates": [-86.25857,42.187565]}},
{ "type": "Feature", "properties": {"Name":"Waverly CDP","State":"Michigan","State_Abbrev":"MI"},
"geometry":{ "type": "Point", "coordinates": [-84.633987,42.7384]}},
{ "type": "Feature", "properties": {"Name":"Wayland city","State":"Michigan","State_Abbrev":"MI"},
"geometry":{ "type": "Point", "coordinates": [-85.641727,42.673081]}},
{ "type": "Feature", "properties": {"Name":"Wayne city","State":"Michigan","State_Abbrev":"MI"},
"geometry":{ "type": "Point", "coordinates": [-83.388148,42.276913]}},
{ "type": "Feature", "properties": {"Name":"Webberville village","State":"Michigan","State_Abbrev":"MI"},
"geometry":{ "type": "Point", "coordinates": [-84.189001,42.660867]}},
{ "type": "Feature", "properties": {"Name":"Wedgewood CDP","State":"Michigan","State_Abbrev":"MI"},
"geometry":{ "type": "Point", "coordinates": [-85.489842,44.194302]}},
{ "type": "Feature", "properties": {"Name":"Weidman CDP","State":"Michigan","State_Abbrev":"MI"},
"geometry":{ "type": "Point", "coordinates": [-84.977992,43.704084]}},
{ "type": "Feature", "properties": {"Name":"Wellston CDP","State":"Michigan","State_Abbrev":"MI"},
"geometry":{ "type": "Point", "coordinates": [-85.968132,44.222689]}},
{ "type": "Feature", "properties": {"Name":"West Branch city","State":"Michigan","State_Abbrev":"MI"},
"geometry":{ "type": "Point", "coordinates": [-84.236589,44.273789]}},
{ "type": "Feature", "properties": {"Name":"West Ishpeming CDP","State":"Michigan","State_Abbrev":"MI"},
"geometry":{ "type": "Point", "coordinates": [-87.717078,46.488444]}},
{ "type": "Feature", "properties": {"Name":"Westland city","State":"Michigan","State_Abbrev":"MI"},
"geometry":{ "type": "Point", "coordinates": [-83.380778,42.319173]}},
{ "type": "Feature", "properties": {"Name":"West Monroe CDP","State":"Michigan","State_Abbrev":"MI"},
"geometry":{ "type": "Point", "coordinates": [-83.431604,41.914035]}},
{ "type": "Feature", "properties": {"Name":"Westphalia village","State":"Michigan","State_Abbrev":"MI"},
"geometry":{ "type": "Point", "coordinates": [-84.797881,42.93104]}},
{ "type": "Feature", "properties": {"Name":"Westwood CDP","State":"Michigan","State_Abbrev":"MI"},
"geometry":{ "type": "Point", "coordinates": [-85.628653,42.303049]}},
{ "type": "Feature", "properties": {"Name":"White Cloud city","State":"Michigan","State_Abbrev":"MI"},
"geometry":{ "type": "Point", "coordinates": [-85.7743,43.557519]}},
{ "type": "Feature", "properties": {"Name":"Whitehall city","State":"Michigan","State_Abbrev":"MI"},
"geometry":{ "type": "Point", "coordinates": [-86.339599,43.400517]}},
{ "type": "Feature", "properties": {"Name":"White Pigeon village","State":"Michigan","State_Abbrev":"MI"},
"geometry":{ "type": "Point", "coordinates": [-85.650406,41.795234]}},
{ "type": "Feature", "properties": {"Name":"White Pine CDP","State":"Michigan","State_Abbrev":"MI"},
"geometry":{ "type": "Point", "coordinates": [-89.58126,46.740122]}},
{ "type": "Feature", "properties": {"Name":"Whitmore Lake CDP","State":"Michigan","State_Abbrev":"MI"},
"geometry":{ "type": "Point", "coordinates": [-83.752134,42.420281]}},
{ "type": "Feature", "properties": {"Name":"Whittemore city","State":"Michigan","State_Abbrev":"MI"},
"geometry":{ "type": "Point", "coordinates": [-83.803295,44.23373]}},
{ "type": "Feature", "properties": {"Name":"Williamston city","State":"Michigan","State_Abbrev":"MI"},
"geometry":{ "type": "Point", "coordinates": [-84.283557,42.683348]}},
{ "type": "Feature", "properties": {"Name":"Winn CDP","State":"Michigan","State_Abbrev":"MI"},
"geometry":{ "type": "Point", "coordinates": [-84.901052,43.518732]}},
{ "type": "Feature", "properties": {"Name":"Wixom city","State":"Michigan","State_Abbrev":"MI"},
"geometry":{ "type": "Point", "coordinates": [-83.531086,42.52305]}},
{ "type": "Feature", "properties": {"Name":"Wolf Lake CDP","State":"Michigan","State_Abbrev":"MI"},
"geometry":{ "type": "Point", "coordinates": [-86.112341,43.244424]}},
{ "type": "Feature", "properties": {"Name":"Wolverine village","State":"Michigan","State_Abbrev":"MI"},
"geometry":{ "type": "Point", "coordinates": [-84.605544,45.273593]}},
{ "type": "Feature", "properties": {"Name":"Wolverine Lake village","State":"Michigan","State_Abbrev":"MI"},
"geometry":{ "type": "Point", "coordinates": [-83.486391,42.553333]}},
{ "type": "Feature", "properties": {"Name":"Woodhaven city","State":"Michigan","State_Abbrev":"MI"},
"geometry":{ "type": "Point", "coordinates": [-83.235139,42.13453]}},
{ "type": "Feature", "properties": {"Name":"Woodland village","State":"Michigan","State_Abbrev":"MI"},
"geometry":{ "type": "Point", "coordinates": [-85.134423,42.726788]}},
{ "type": "Feature", "properties": {"Name":"Woodland Beach CDP","State":"Michigan","State_Abbrev":"MI"},
"geometry":{ "type": "Point", "coordinates": [-83.314014,41.941718]}},
{ "type": "Feature", "properties": {"Name":"Wyandotte city","State":"Michigan","State_Abbrev":"MI"},
"geometry":{ "type": "Point", "coordinates": [-83.157208,42.210674]}},
{ "type": "Feature", "properties": {"Name":"Wyoming city","State":"Michigan","State_Abbrev":"MI"},
"geometry":{ "type": "Point", "coordinates": [-85.706733,42.890317]}},
{ "type": "Feature", "properties": {"Name":"Yale city","State":"Michigan","State_Abbrev":"MI"},
"geometry":{ "type": "Point", "coordinates": [-82.797564,43.12825]}},
{ "type": "Feature", "properties": {"Name":"Ypsilanti city","State":"Michigan","State_Abbrev":"MI"},
"geometry":{ "type": "Point", "coordinates": [-83.62116,42.244354]}},
{ "type": "Feature", "properties": {"Name":"Zeba CDP","State":"Michigan","State_Abbrev":"MI"},
"geometry":{ "type": "Point", "coordinates": [-88.411787,46.787698]}},
{ "type": "Feature", "properties": {"Name":"Zeeland city","State":"Michigan","State_Abbrev":"MI"},
"geometry":{ "type": "Point", "coordinates": [-86.014255,42.814244]}},
{ "type": "Feature", "properties": {"Name":"Zilwaukee city","State":"Michigan","State_Abbrev":"MI"},
"geometry":{ "type": "Point", "coordinates": [-83.924494,43.483634]}}]}
