{"type":"FeatureCollection","features":[
{ "type": "Feature", "properties": {"Name":"Ada city","State":"Minnesota","State_Abbrev":"MN"},
"geometry":{ "type": "Point", "coordinates": [-96.516498,47.298859]}},
{ "type": "Feature", "properties": {"Name":"Adams city","State":"Minnesota","State_Abbrev":"MN"},
"geometry":{ "type": "Point", "coordinates": [-92.71904,43.565363]}},
{ "type": "Feature", "properties": {"Name":"Adrian city","State":"Minnesota","State_Abbrev":"MN"},
"geometry":{ "type": "Point", "coordinates": [-95.932804,43.63356]}},
{ "type": "Feature", "properties": {"Name":"Afton city","State":"Minnesota","State_Abbrev":"MN"},
"geometry":{ "type": "Point", "coordinates": [-92.819108,44.898776]}},
{ "type": "Feature", "properties": {"Name":"Aitkin city","State":"Minnesota","State_Abbrev":"MN"},
"geometry":{ "type": "Point", "coordinates": [-93.704992,46.52665]}},
{ "type": "Feature", "properties": {"Name":"Akeley city","State":"Minnesota","State_Abbrev":"MN"},
"geometry":{ "type": "Point", "coordinates": [-94.728215,47.000418]}},
{ "type": "Feature", "properties": {"Name":"Albany city","State":"Minnesota","State_Abbrev":"MN"},
"geometry":{ "type": "Point", "coordinates": [-94.563246,45.626657]}},
{ "type": "Feature", "properties": {"Name":"Alberta city","State":"Minnesota","State_Abbrev":"MN"},
"geometry":{ "type": "Point", "coordinates": [-96.050358,45.574922]}},
{ "type": "Feature", "properties": {"Name":"Albert Lea city","State":"Minnesota","State_Abbrev":"MN"},
"geometry":{ "type": "Point", "coordinates": [-93.364148,43.654293]}},
{ "type": "Feature", "properties": {"Name":"Albertville city","State":"Minnesota","State_Abbrev":"MN"},
"geometry":{ "type": "Point", "coordinates": [-93.662668,45.236048]}},
{ "type": "Feature", "properties": {"Name":"Alden city","State":"Minnesota","State_Abbrev":"MN"},
"geometry":{ "type": "Point", "coordinates": [-93.569804,43.667494]}},
{ "type": "Feature", "properties": {"Name":"Aldrich city","State":"Minnesota","State_Abbrev":"MN"},
"geometry":{ "type": "Point", "coordinates": [-94.939392,46.37471]}},
{ "type": "Feature", "properties": {"Name":"Alexandria city","State":"Minnesota","State_Abbrev":"MN"},
"geometry":{ "type": "Point", "coordinates": [-95.376965,45.877178]}},
{ "type": "Feature", "properties": {"Name":"Alpha city","State":"Minnesota","State_Abbrev":"MN"},
"geometry":{ "type": "Point", "coordinates": [-94.871059,43.637575]}},
{ "type": "Feature", "properties": {"Name":"Altura city","State":"Minnesota","State_Abbrev":"MN"},
"geometry":{ "type": "Point", "coordinates": [-91.94358,44.064208]}},
{ "type": "Feature", "properties": {"Name":"Alvarado city","State":"Minnesota","State_Abbrev":"MN"},
"geometry":{ "type": "Point", "coordinates": [-96.998452,48.192875]}},
{ "type": "Feature", "properties": {"Name":"Amboy city","State":"Minnesota","State_Abbrev":"MN"},
"geometry":{ "type": "Point", "coordinates": [-94.158264,43.887927]}},
{ "type": "Feature", "properties": {"Name":"Andover city","State":"Minnesota","State_Abbrev":"MN"},
"geometry":{ "type": "Point", "coordinates": [-93.337402,45.25242]}},
{ "type": "Feature", "properties": {"Name":"Angle Inlet CDP","State":"Minnesota","State_Abbrev":"MN"},
"geometry":{ "type": "Point", "coordinates": [-95.069804,49.347409]}},
{ "type": "Feature", "properties": {"Name":"Annandale city","State":"Minnesota","State_Abbrev":"MN"},
"geometry":{ "type": "Point", "coordinates": [-94.121278,45.259939]}},
{ "type": "Feature", "properties": {"Name":"Anoka city","State":"Minnesota","State_Abbrev":"MN"},
"geometry":{ "type": "Point", "coordinates": [-93.391638,45.214398]}},
{ "type": "Feature", "properties": {"Name":"Appleton city","State":"Minnesota","State_Abbrev":"MN"},
"geometry":{ "type": "Point", "coordinates": [-96.022226,45.199475]}},
{ "type": "Feature", "properties": {"Name":"Apple Valley city","State":"Minnesota","State_Abbrev":"MN"},
"geometry":{ "type": "Point", "coordinates": [-93.199413,44.745301]}},
{ "type": "Feature", "properties": {"Name":"Arco city","State":"Minnesota","State_Abbrev":"MN"},
"geometry":{ "type": "Point", "coordinates": [-96.183928,44.384736]}},
{ "type": "Feature", "properties": {"Name":"Arden Hills city","State":"Minnesota","State_Abbrev":"MN"},
"geometry":{ "type": "Point", "coordinates": [-93.165472,45.071159]}},
{ "type": "Feature", "properties": {"Name":"Argyle city","State":"Minnesota","State_Abbrev":"MN"},
"geometry":{ "type": "Point", "coordinates": [-96.816228,48.336573]}},
{ "type": "Feature", "properties": {"Name":"Arlington city","State":"Minnesota","State_Abbrev":"MN"},
"geometry":{ "type": "Point", "coordinates": [-94.076824,44.608271]}},
{ "type": "Feature", "properties": {"Name":"Ashby city","State":"Minnesota","State_Abbrev":"MN"},
"geometry":{ "type": "Point", "coordinates": [-95.819166,46.095452]}},
{ "type": "Feature", "properties": {"Name":"Askov city","State":"Minnesota","State_Abbrev":"MN"},
"geometry":{ "type": "Point", "coordinates": [-92.782393,46.188634]}},
{ "type": "Feature", "properties": {"Name":"Atwater city","State":"Minnesota","State_Abbrev":"MN"},
"geometry":{ "type": "Point", "coordinates": [-94.776877,45.135492]}},
{ "type": "Feature", "properties": {"Name":"Audubon city","State":"Minnesota","State_Abbrev":"MN"},
"geometry":{ "type": "Point", "coordinates": [-95.984096,46.865228]}},
{ "type": "Feature", "properties": {"Name":"Aurora city","State":"Minnesota","State_Abbrev":"MN"},
"geometry":{ "type": "Point", "coordinates": [-92.241012,47.531639]}},
{ "type": "Feature", "properties": {"Name":"Austin city","State":"Minnesota","State_Abbrev":"MN"},
"geometry":{ "type": "Point", "coordinates": [-92.977863,43.672098]}},
{ "type": "Feature", "properties": {"Name":"Avoca city","State":"Minnesota","State_Abbrev":"MN"},
"geometry":{ "type": "Point", "coordinates": [-95.646724,43.948754]}},
{ "type": "Feature", "properties": {"Name":"Avon city","State":"Minnesota","State_Abbrev":"MN"},
"geometry":{ "type": "Point", "coordinates": [-94.447741,45.605505]}},
{ "type": "Feature", "properties": {"Name":"Babbitt city","State":"Minnesota","State_Abbrev":"MN"},
"geometry":{ "type": "Point", "coordinates": [-91.928336,47.643105]}},
{ "type": "Feature", "properties": {"Name":"Backus city","State":"Minnesota","State_Abbrev":"MN"},
"geometry":{ "type": "Point", "coordinates": [-94.514549,46.820915]}},
{ "type": "Feature", "properties": {"Name":"Badger city","State":"Minnesota","State_Abbrev":"MN"},
"geometry":{ "type": "Point", "coordinates": [-96.021268,48.776773]}},
{ "type": "Feature", "properties": {"Name":"Bagley city","State":"Minnesota","State_Abbrev":"MN"},
"geometry":{ "type": "Point", "coordinates": [-95.402771,47.52439]}},
{ "type": "Feature", "properties": {"Name":"Baker CDP","State":"Minnesota","State_Abbrev":"MN"},
"geometry":{ "type": "Point", "coordinates": [-96.55794,46.710489]}},
{ "type": "Feature", "properties": {"Name":"Balaton city","State":"Minnesota","State_Abbrev":"MN"},
"geometry":{ "type": "Point", "coordinates": [-95.871071,44.232947]}},
{ "type": "Feature", "properties": {"Name":"Ball Club CDP","State":"Minnesota","State_Abbrev":"MN"},
"geometry":{ "type": "Point", "coordinates": [-93.946058,47.331104]}},
{ "type": "Feature", "properties": {"Name":"Barnesville city","State":"Minnesota","State_Abbrev":"MN"},
"geometry":{ "type": "Point", "coordinates": [-96.41646,46.65028]}},
{ "type": "Feature", "properties": {"Name":"Barnum city","State":"Minnesota","State_Abbrev":"MN"},
"geometry":{ "type": "Point", "coordinates": [-92.688376,46.505377]}},
{ "type": "Feature", "properties": {"Name":"Barrett city","State":"Minnesota","State_Abbrev":"MN"},
"geometry":{ "type": "Point", "coordinates": [-95.904683,45.913155]}},
{ "type": "Feature", "properties": {"Name":"Barry city","State":"Minnesota","State_Abbrev":"MN"},
"geometry":{ "type": "Point", "coordinates": [-96.560364,45.558198]}},
{ "type": "Feature", "properties": {"Name":"Battle Lake city","State":"Minnesota","State_Abbrev":"MN"},
"geometry":{ "type": "Point", "coordinates": [-95.718697,46.284912]}},
{ "type": "Feature", "properties": {"Name":"Baudette city","State":"Minnesota","State_Abbrev":"MN"},
"geometry":{ "type": "Point", "coordinates": [-94.591807,48.712267]}},
{ "type": "Feature", "properties": {"Name":"Baxter city","State":"Minnesota","State_Abbrev":"MN"},
"geometry":{ "type": "Point", "coordinates": [-94.276015,46.343935]}},
{ "type": "Feature", "properties": {"Name":"Bayport city","State":"Minnesota","State_Abbrev":"MN"},
"geometry":{ "type": "Point", "coordinates": [-92.778906,45.014845]}},
{ "type": "Feature", "properties": {"Name":"Beardsley city","State":"Minnesota","State_Abbrev":"MN"},
"geometry":{ "type": "Point", "coordinates": [-96.714484,45.557826]}},
{ "type": "Feature", "properties": {"Name":"Beaulieu CDP","State":"Minnesota","State_Abbrev":"MN"},
"geometry":{ "type": "Point", "coordinates": [-95.816504,47.335241]}},
{ "type": "Feature", "properties": {"Name":"Beaver Bay city","State":"Minnesota","State_Abbrev":"MN"},
"geometry":{ "type": "Point", "coordinates": [-91.306224,47.256182]}},
{ "type": "Feature", "properties": {"Name":"Beaver Creek city","State":"Minnesota","State_Abbrev":"MN"},
"geometry":{ "type": "Point", "coordinates": [-96.362367,43.612429]}},
{ "type": "Feature", "properties": {"Name":"Becker city","State":"Minnesota","State_Abbrev":"MN"},
"geometry":{ "type": "Point", "coordinates": [-93.88607,45.386031]}},
{ "type": "Feature", "properties": {"Name":"Bejou city","State":"Minnesota","State_Abbrev":"MN"},
"geometry":{ "type": "Point", "coordinates": [-95.972712,47.442913]}},
{ "type": "Feature", "properties": {"Name":"Belgrade city","State":"Minnesota","State_Abbrev":"MN"},
"geometry":{ "type": "Point", "coordinates": [-94.999813,45.450627]}},
{ "type": "Feature", "properties": {"Name":"Bellechester city","State":"Minnesota","State_Abbrev":"MN"},
"geometry":{ "type": "Point", "coordinates": [-92.511322,44.371019]}},
{ "type": "Feature", "properties": {"Name":"Belle Plaine city","State":"Minnesota","State_Abbrev":"MN"},
"geometry":{ "type": "Point", "coordinates": [-93.764595,44.61978]}},
{ "type": "Feature", "properties": {"Name":"Bellingham city","State":"Minnesota","State_Abbrev":"MN"},
"geometry":{ "type": "Point", "coordinates": [-96.284103,45.136439]}},
{ "type": "Feature", "properties": {"Name":"Beltrami city","State":"Minnesota","State_Abbrev":"MN"},
"geometry":{ "type": "Point", "coordinates": [-96.52708,47.542495]}},
{ "type": "Feature", "properties": {"Name":"Belview city","State":"Minnesota","State_Abbrev":"MN"},
"geometry":{ "type": "Point", "coordinates": [-95.32874,44.60654]}},
{ "type": "Feature", "properties": {"Name":"Bemidji city","State":"Minnesota","State_Abbrev":"MN"},
"geometry":{ "type": "Point", "coordinates": [-94.88269,47.487034]}},
{ "type": "Feature", "properties": {"Name":"Bena city","State":"Minnesota","State_Abbrev":"MN"},
"geometry":{ "type": "Point", "coordinates": [-94.206406,47.341003]}},
{ "type": "Feature", "properties": {"Name":"Benson city","State":"Minnesota","State_Abbrev":"MN"},
"geometry":{ "type": "Point", "coordinates": [-95.60537,45.315182]}},
{ "type": "Feature", "properties": {"Name":"Bertha city","State":"Minnesota","State_Abbrev":"MN"},
"geometry":{ "type": "Point", "coordinates": [-95.061776,46.267094]}},
{ "type": "Feature", "properties": {"Name":"Bethel city","State":"Minnesota","State_Abbrev":"MN"},
"geometry":{ "type": "Point", "coordinates": [-93.274901,45.40442]}},
{ "type": "Feature", "properties": {"Name":"Bigelow city","State":"Minnesota","State_Abbrev":"MN"},
"geometry":{ "type": "Point", "coordinates": [-95.689212,43.505285]}},
{ "type": "Feature", "properties": {"Name":"Big Falls city","State":"Minnesota","State_Abbrev":"MN"},
"geometry":{ "type": "Point", "coordinates": [-93.809244,48.179608]}},
{ "type": "Feature", "properties": {"Name":"Bigfork city","State":"Minnesota","State_Abbrev":"MN"},
"geometry":{ "type": "Point", "coordinates": [-93.653335,47.746929]}},
{ "type": "Feature", "properties": {"Name":"Big Lake CDP","State":"Minnesota","State_Abbrev":"MN"},
"geometry":{ "type": "Point", "coordinates": [-92.62114,46.70113]}},
{ "type": "Feature", "properties": {"Name":"Big Lake city","State":"Minnesota","State_Abbrev":"MN"},
"geometry":{ "type": "Point", "coordinates": [-93.743036,45.342422]}},
{ "type": "Feature", "properties": {"Name":"Bingham Lake city","State":"Minnesota","State_Abbrev":"MN"},
"geometry":{ "type": "Point", "coordinates": [-95.044663,43.909189]}},
{ "type": "Feature", "properties": {"Name":"Birchwood Village city","State":"Minnesota","State_Abbrev":"MN"},
"geometry":{ "type": "Point", "coordinates": [-92.978025,45.059981]}},
{ "type": "Feature", "properties": {"Name":"Bird Island city","State":"Minnesota","State_Abbrev":"MN"},
"geometry":{ "type": "Point", "coordinates": [-94.894194,44.765016]}},
{ "type": "Feature", "properties": {"Name":"Biscay city","State":"Minnesota","State_Abbrev":"MN"},
"geometry":{ "type": "Point", "coordinates": [-94.274071,44.826274]}},
{ "type": "Feature", "properties": {"Name":"Biwabik city","State":"Minnesota","State_Abbrev":"MN"},
"geometry":{ "type": "Point", "coordinates": [-92.342174,47.540312]}},
{ "type": "Feature", "properties": {"Name":"Blackduck city","State":"Minnesota","State_Abbrev":"MN"},
"geometry":{ "type": "Point", "coordinates": [-94.545504,47.720934]}},
{ "type": "Feature", "properties": {"Name":"Blaine city","State":"Minnesota","State_Abbrev":"MN"},
"geometry":{ "type": "Point", "coordinates": [-93.206089,45.170515]}},
{ "type": "Feature", "properties": {"Name":"Blomkest city","State":"Minnesota","State_Abbrev":"MN"},
"geometry":{ "type": "Point", "coordinates": [-95.023463,44.942812]}},
{ "type": "Feature", "properties": {"Name":"Blooming Prairie city","State":"Minnesota","State_Abbrev":"MN"},
"geometry":{ "type": "Point", "coordinates": [-93.055725,43.868455]}},
{ "type": "Feature", "properties": {"Name":"Bloomington city","State":"Minnesota","State_Abbrev":"MN"},
"geometry":{ "type": "Point", "coordinates": [-93.315217,44.829666]}},
{ "type": "Feature", "properties": {"Name":"Blue Earth city","State":"Minnesota","State_Abbrev":"MN"},
"geometry":{ "type": "Point", "coordinates": [-94.100339,43.640994]}},
{ "type": "Feature", "properties": {"Name":"Bluffton city","State":"Minnesota","State_Abbrev":"MN"},
"geometry":{ "type": "Point", "coordinates": [-95.233935,46.469401]}},
{ "type": "Feature", "properties": {"Name":"Bock city","State":"Minnesota","State_Abbrev":"MN"},
"geometry":{ "type": "Point", "coordinates": [-93.552833,45.784458]}},
{ "type": "Feature", "properties": {"Name":"Borup city","State":"Minnesota","State_Abbrev":"MN"},
"geometry":{ "type": "Point", "coordinates": [-96.505831,47.180266]}},
{ "type": "Feature", "properties": {"Name":"Bovey city","State":"Minnesota","State_Abbrev":"MN"},
"geometry":{ "type": "Point", "coordinates": [-93.405188,47.298017]}},
{ "type": "Feature", "properties": {"Name":"Bowlus city","State":"Minnesota","State_Abbrev":"MN"},
"geometry":{ "type": "Point", "coordinates": [-94.407244,45.819073]}},
{ "type": "Feature", "properties": {"Name":"Boyd city","State":"Minnesota","State_Abbrev":"MN"},
"geometry":{ "type": "Point", "coordinates": [-95.900919,44.851179]}},
{ "type": "Feature", "properties": {"Name":"Boy River city","State":"Minnesota","State_Abbrev":"MN"},
"geometry":{ "type": "Point", "coordinates": [-94.124114,47.167808]}},
{ "type": "Feature", "properties": {"Name":"Braham city","State":"Minnesota","State_Abbrev":"MN"},
"geometry":{ "type": "Point", "coordinates": [-93.172197,45.722348]}},
{ "type": "Feature", "properties": {"Name":"Brainerd city","State":"Minnesota","State_Abbrev":"MN"},
"geometry":{ "type": "Point", "coordinates": [-94.198372,46.355269]}},
{ "type": "Feature", "properties": {"Name":"Brandon city","State":"Minnesota","State_Abbrev":"MN"},
"geometry":{ "type": "Point", "coordinates": [-95.593973,45.966911]}},
{ "type": "Feature", "properties": {"Name":"Breckenridge city","State":"Minnesota","State_Abbrev":"MN"},
"geometry":{ "type": "Point", "coordinates": [-96.584989,46.266211]}},
{ "type": "Feature", "properties": {"Name":"Breezy Point city","State":"Minnesota","State_Abbrev":"MN"},
"geometry":{ "type": "Point", "coordinates": [-94.20731,46.60912]}},
{ "type": "Feature", "properties": {"Name":"Brewster city","State":"Minnesota","State_Abbrev":"MN"},
"geometry":{ "type": "Point", "coordinates": [-95.464523,43.697269]}},
{ "type": "Feature", "properties": {"Name":"Bricelyn city","State":"Minnesota","State_Abbrev":"MN"},
"geometry":{ "type": "Point", "coordinates": [-93.813062,43.56075]}},
{ "type": "Feature", "properties": {"Name":"Brooklyn Center city","State":"Minnesota","State_Abbrev":"MN"},
"geometry":{ "type": "Point", "coordinates": [-93.317829,45.06797]}},
{ "type": "Feature", "properties": {"Name":"Brooklyn Park city","State":"Minnesota","State_Abbrev":"MN"},
"geometry":{ "type": "Point", "coordinates": [-93.349088,45.110906]}},
{ "type": "Feature", "properties": {"Name":"Brook Park city","State":"Minnesota","State_Abbrev":"MN"},
"geometry":{ "type": "Point", "coordinates": [-93.072828,45.948428]}},
{ "type": "Feature", "properties": {"Name":"Brooks city","State":"Minnesota","State_Abbrev":"MN"},
"geometry":{ "type": "Point", "coordinates": [-96.003542,47.816514]}},
{ "type": "Feature", "properties": {"Name":"Brookston city","State":"Minnesota","State_Abbrev":"MN"},
"geometry":{ "type": "Point", "coordinates": [-92.601739,46.865085]}},
{ "type": "Feature", "properties": {"Name":"Brooten city","State":"Minnesota","State_Abbrev":"MN"},
"geometry":{ "type": "Point", "coordinates": [-95.115682,45.500071]}},
{ "type": "Feature", "properties": {"Name":"Browerville city","State":"Minnesota","State_Abbrev":"MN"},
"geometry":{ "type": "Point", "coordinates": [-94.864562,46.080527]}},
{ "type": "Feature", "properties": {"Name":"Brownsdale city","State":"Minnesota","State_Abbrev":"MN"},
"geometry":{ "type": "Point", "coordinates": [-92.868154,43.740406]}},
{ "type": "Feature", "properties": {"Name":"Browns Valley city","State":"Minnesota","State_Abbrev":"MN"},
"geometry":{ "type": "Point", "coordinates": [-96.832788,45.594678]}},
{ "type": "Feature", "properties": {"Name":"Brownsville city","State":"Minnesota","State_Abbrev":"MN"},
"geometry":{ "type": "Point", "coordinates": [-91.288028,43.701134]}},
{ "type": "Feature", "properties": {"Name":"Brownton city","State":"Minnesota","State_Abbrev":"MN"},
"geometry":{ "type": "Point", "coordinates": [-94.350899,44.732507]}},
{ "type": "Feature", "properties": {"Name":"Bruno city","State":"Minnesota","State_Abbrev":"MN"},
"geometry":{ "type": "Point", "coordinates": [-92.668055,46.280998]}},
{ "type": "Feature", "properties": {"Name":"Buckman city","State":"Minnesota","State_Abbrev":"MN"},
"geometry":{ "type": "Point", "coordinates": [-94.093986,45.897345]}},
{ "type": "Feature", "properties": {"Name":"Buffalo city","State":"Minnesota","State_Abbrev":"MN"},
"geometry":{ "type": "Point", "coordinates": [-93.863995,45.17951]}},
{ "type": "Feature", "properties": {"Name":"Buffalo Lake city","State":"Minnesota","State_Abbrev":"MN"},
"geometry":{ "type": "Point", "coordinates": [-94.616986,44.736768]}},
{ "type": "Feature", "properties": {"Name":"Buhl city","State":"Minnesota","State_Abbrev":"MN"},
"geometry":{ "type": "Point", "coordinates": [-92.781109,47.49859]}},
{ "type": "Feature", "properties": {"Name":"Burnsville city","State":"Minnesota","State_Abbrev":"MN"},
"geometry":{ "type": "Point", "coordinates": [-93.279372,44.764409]}},
{ "type": "Feature", "properties": {"Name":"Burtrum city","State":"Minnesota","State_Abbrev":"MN"},
"geometry":{ "type": "Point", "coordinates": [-94.687361,45.86582]}},
{ "type": "Feature", "properties": {"Name":"Butterfield city","State":"Minnesota","State_Abbrev":"MN"},
"geometry":{ "type": "Point", "coordinates": [-94.794127,43.958682]}},
{ "type": "Feature", "properties": {"Name":"Byron city","State":"Minnesota","State_Abbrev":"MN"},
"geometry":{ "type": "Point", "coordinates": [-92.64101,44.038121]}},
{ "type": "Feature", "properties": {"Name":"Caledonia city","State":"Minnesota","State_Abbrev":"MN"},
"geometry":{ "type": "Point", "coordinates": [-91.500399,43.634127]}},
{ "type": "Feature", "properties": {"Name":"Callaway city","State":"Minnesota","State_Abbrev":"MN"},
"geometry":{ "type": "Point", "coordinates": [-95.917431,46.981171]}},
{ "type": "Feature", "properties": {"Name":"Calumet city","State":"Minnesota","State_Abbrev":"MN"},
"geometry":{ "type": "Point", "coordinates": [-93.264172,47.321955]}},
{ "type": "Feature", "properties": {"Name":"Cambridge city","State":"Minnesota","State_Abbrev":"MN"},
"geometry":{ "type": "Point", "coordinates": [-93.227702,45.560772]}},
{ "type": "Feature", "properties": {"Name":"Campbell city","State":"Minnesota","State_Abbrev":"MN"},
"geometry":{ "type": "Point", "coordinates": [-96.405457,46.097528]}},
{ "type": "Feature", "properties": {"Name":"Canby city","State":"Minnesota","State_Abbrev":"MN"},
"geometry":{ "type": "Point", "coordinates": [-96.269761,44.716098]}},
{ "type": "Feature", "properties": {"Name":"Cannon Falls city","State":"Minnesota","State_Abbrev":"MN"},
"geometry":{ "type": "Point", "coordinates": [-92.889342,44.517265]}},
{ "type": "Feature", "properties": {"Name":"Canton city","State":"Minnesota","State_Abbrev":"MN"},
"geometry":{ "type": "Point", "coordinates": [-91.930019,43.529787]}},
{ "type": "Feature", "properties": {"Name":"Carlos city","State":"Minnesota","State_Abbrev":"MN"},
"geometry":{ "type": "Point", "coordinates": [-95.292338,45.973507]}},
{ "type": "Feature", "properties": {"Name":"Carlton city","State":"Minnesota","State_Abbrev":"MN"},
"geometry":{ "type": "Point", "coordinates": [-92.430397,46.655769]}},
{ "type": "Feature", "properties": {"Name":"Carver city","State":"Minnesota","State_Abbrev":"MN"},
"geometry":{ "type": "Point", "coordinates": [-93.632544,44.761475]}},
{ "type": "Feature", "properties": {"Name":"Cass Lake city","State":"Minnesota","State_Abbrev":"MN"},
"geometry":{ "type": "Point", "coordinates": [-94.599409,47.379727]}},
{ "type": "Feature", "properties": {"Name":"Cedar Mills city","State":"Minnesota","State_Abbrev":"MN"},
"geometry":{ "type": "Point", "coordinates": [-94.520103,44.942911]}},
{ "type": "Feature", "properties": {"Name":"Center City city","State":"Minnesota","State_Abbrev":"MN"},
"geometry":{ "type": "Point", "coordinates": [-92.814249,45.393771]}},
{ "type": "Feature", "properties": {"Name":"Centerville city","State":"Minnesota","State_Abbrev":"MN"},
"geometry":{ "type": "Point", "coordinates": [-93.055168,45.167461]}},
{ "type": "Feature", "properties": {"Name":"Ceylon city","State":"Minnesota","State_Abbrev":"MN"},
"geometry":{ "type": "Point", "coordinates": [-94.630701,43.532753]}},
{ "type": "Feature", "properties": {"Name":"Champlin city","State":"Minnesota","State_Abbrev":"MN"},
"geometry":{ "type": "Point", "coordinates": [-93.386829,45.172932]}},
{ "type": "Feature", "properties": {"Name":"Chandler city","State":"Minnesota","State_Abbrev":"MN"},
"geometry":{ "type": "Point", "coordinates": [-95.951171,43.930645]}},
{ "type": "Feature", "properties": {"Name":"Chanhassen city","State":"Minnesota","State_Abbrev":"MN"},
"geometry":{ "type": "Point", "coordinates": [-93.562384,44.854285]}},
{ "type": "Feature", "properties": {"Name":"Chaska city","State":"Minnesota","State_Abbrev":"MN"},
"geometry":{ "type": "Point", "coordinates": [-93.610023,44.816364]}},
{ "type": "Feature", "properties": {"Name":"Chatfield city","State":"Minnesota","State_Abbrev":"MN"},
"geometry":{ "type": "Point", "coordinates": [-92.182851,43.844464]}},
{ "type": "Feature", "properties": {"Name":"Chickamaw Beach city","State":"Minnesota","State_Abbrev":"MN"},
"geometry":{ "type": "Point", "coordinates": [-94.377832,46.745026]}},
{ "type": "Feature", "properties": {"Name":"Chisago City city","State":"Minnesota","State_Abbrev":"MN"},
"geometry":{ "type": "Point", "coordinates": [-92.910034,45.345584]}},
{ "type": "Feature", "properties": {"Name":"Chisholm city","State":"Minnesota","State_Abbrev":"MN"},
"geometry":{ "type": "Point", "coordinates": [-92.879401,47.48753]}},
{ "type": "Feature", "properties": {"Name":"Chokio city","State":"Minnesota","State_Abbrev":"MN"},
"geometry":{ "type": "Point", "coordinates": [-96.174213,45.573129]}},
{ "type": "Feature", "properties": {"Name":"Circle Pines city","State":"Minnesota","State_Abbrev":"MN"},
"geometry":{ "type": "Point", "coordinates": [-93.147517,45.143748]}},
{ "type": "Feature", "properties": {"Name":"Clara City city","State":"Minnesota","State_Abbrev":"MN"},
"geometry":{ "type": "Point", "coordinates": [-95.367668,44.957438]}},
{ "type": "Feature", "properties": {"Name":"Claremont city","State":"Minnesota","State_Abbrev":"MN"},
"geometry":{ "type": "Point", "coordinates": [-92.99722,44.044914]}},
{ "type": "Feature", "properties": {"Name":"Clarissa city","State":"Minnesota","State_Abbrev":"MN"},
"geometry":{ "type": "Point", "coordinates": [-94.949076,46.128461]}},
{ "type": "Feature", "properties": {"Name":"Clarkfield city","State":"Minnesota","State_Abbrev":"MN"},
"geometry":{ "type": "Point", "coordinates": [-95.807608,44.790327]}},
{ "type": "Feature", "properties": {"Name":"Clarks Grove city","State":"Minnesota","State_Abbrev":"MN"},
"geometry":{ "type": "Point", "coordinates": [-93.328035,43.762692]}},
{ "type": "Feature", "properties": {"Name":"Clearbrook city","State":"Minnesota","State_Abbrev":"MN"},
"geometry":{ "type": "Point", "coordinates": [-95.429274,47.696244]}},
{ "type": "Feature", "properties": {"Name":"Clear Lake city","State":"Minnesota","State_Abbrev":"MN"},
"geometry":{ "type": "Point", "coordinates": [-93.998966,45.446564]}},
{ "type": "Feature", "properties": {"Name":"Clearwater city","State":"Minnesota","State_Abbrev":"MN"},
"geometry":{ "type": "Point", "coordinates": [-94.04456,45.409879]}},
{ "type": "Feature", "properties": {"Name":"Clements city","State":"Minnesota","State_Abbrev":"MN"},
"geometry":{ "type": "Point", "coordinates": [-95.054751,44.380059]}},
{ "type": "Feature", "properties": {"Name":"Cleveland city","State":"Minnesota","State_Abbrev":"MN"},
"geometry":{ "type": "Point", "coordinates": [-93.835276,44.32356]}},
{ "type": "Feature", "properties": {"Name":"Climax city","State":"Minnesota","State_Abbrev":"MN"},
"geometry":{ "type": "Point", "coordinates": [-96.81224,47.609513]}},
{ "type": "Feature", "properties": {"Name":"Clinton city","State":"Minnesota","State_Abbrev":"MN"},
"geometry":{ "type": "Point", "coordinates": [-96.442644,45.466935]}},
{ "type": "Feature", "properties": {"Name":"Clitherall city","State":"Minnesota","State_Abbrev":"MN"},
"geometry":{ "type": "Point", "coordinates": [-95.633315,46.27368]}},
{ "type": "Feature", "properties": {"Name":"Clontarf city","State":"Minnesota","State_Abbrev":"MN"},
"geometry":{ "type": "Point", "coordinates": [-95.682935,45.382581]}},
{ "type": "Feature", "properties": {"Name":"Cloquet city","State":"Minnesota","State_Abbrev":"MN"},
"geometry":{ "type": "Point", "coordinates": [-92.50133,46.72507]}},
{ "type": "Feature", "properties": {"Name":"Coates city","State":"Minnesota","State_Abbrev":"MN"},
"geometry":{ "type": "Point", "coordinates": [-93.032064,44.715111]}},
{ "type": "Feature", "properties": {"Name":"Cobden city","State":"Minnesota","State_Abbrev":"MN"},
"geometry":{ "type": "Point", "coordinates": [-94.846585,44.282487]}},
{ "type": "Feature", "properties": {"Name":"Cohasset city","State":"Minnesota","State_Abbrev":"MN"},
"geometry":{ "type": "Point", "coordinates": [-93.66423,47.242447]}},
{ "type": "Feature", "properties": {"Name":"Cokato city","State":"Minnesota","State_Abbrev":"MN"},
"geometry":{ "type": "Point", "coordinates": [-94.187548,45.076721]}},
{ "type": "Feature", "properties": {"Name":"Cold Spring city","State":"Minnesota","State_Abbrev":"MN"},
"geometry":{ "type": "Point", "coordinates": [-94.428154,45.458256]}},
{ "type": "Feature", "properties": {"Name":"Coleraine city","State":"Minnesota","State_Abbrev":"MN"},
"geometry":{ "type": "Point", "coordinates": [-93.453936,47.258731]}},
{ "type": "Feature", "properties": {"Name":"Cologne city","State":"Minnesota","State_Abbrev":"MN"},
"geometry":{ "type": "Point", "coordinates": [-93.792428,44.769825]}},
{ "type": "Feature", "properties": {"Name":"Columbia Heights city","State":"Minnesota","State_Abbrev":"MN"},
"geometry":{ "type": "Point", "coordinates": [-93.246749,45.049104]}},
{ "type": "Feature", "properties": {"Name":"Columbus city","State":"Minnesota","State_Abbrev":"MN"},
"geometry":{ "type": "Point", "coordinates": [-93.107678,45.254914]}},
{ "type": "Feature", "properties": {"Name":"Comfrey city","State":"Minnesota","State_Abbrev":"MN"},
"geometry":{ "type": "Point", "coordinates": [-94.902839,44.111057]}},
{ "type": "Feature", "properties": {"Name":"Comstock city","State":"Minnesota","State_Abbrev":"MN"},
"geometry":{ "type": "Point", "coordinates": [-96.746472,46.659568]}},
{ "type": "Feature", "properties": {"Name":"Conger city","State":"Minnesota","State_Abbrev":"MN"},
"geometry":{ "type": "Point", "coordinates": [-93.527498,43.615251]}},
{ "type": "Feature", "properties": {"Name":"Cook city","State":"Minnesota","State_Abbrev":"MN"},
"geometry":{ "type": "Point", "coordinates": [-92.688852,47.835667]}},
{ "type": "Feature", "properties": {"Name":"Coon Rapids city","State":"Minnesota","State_Abbrev":"MN"},
"geometry":{ "type": "Point", "coordinates": [-93.311454,45.176411]}},
{ "type": "Feature", "properties": {"Name":"Corcoran city","State":"Minnesota","State_Abbrev":"MN"},
"geometry":{ "type": "Point", "coordinates": [-93.577903,45.106787]}},
{ "type": "Feature", "properties": {"Name":"Correll city","State":"Minnesota","State_Abbrev":"MN"},
"geometry":{ "type": "Point", "coordinates": [-96.162645,45.231934]}},
{ "type": "Feature", "properties": {"Name":"Cosmos city","State":"Minnesota","State_Abbrev":"MN"},
"geometry":{ "type": "Point", "coordinates": [-94.695399,44.935859]}},
{ "type": "Feature", "properties": {"Name":"Cottage Grove city","State":"Minnesota","State_Abbrev":"MN"},
"geometry":{ "type": "Point", "coordinates": [-92.914315,44.813326]}},
{ "type": "Feature", "properties": {"Name":"Cottonwood city","State":"Minnesota","State_Abbrev":"MN"},
"geometry":{ "type": "Point", "coordinates": [-95.671863,44.611023]}},
{ "type": "Feature", "properties": {"Name":"Courtland city","State":"Minnesota","State_Abbrev":"MN"},
"geometry":{ "type": "Point", "coordinates": [-94.342423,44.275349]}},
{ "type": "Feature", "properties": {"Name":"Credit River city","State":"Minnesota","State_Abbrev":"MN"},
"geometry":{ "type": "Point", "coordinates": [-93.361123,44.670781]}},
{ "type": "Feature", "properties": {"Name":"Cromwell city","State":"Minnesota","State_Abbrev":"MN"},
"geometry":{ "type": "Point", "coordinates": [-92.87074,46.679341]}},
{ "type": "Feature", "properties": {"Name":"Crookston city","State":"Minnesota","State_Abbrev":"MN"},
"geometry":{ "type": "Point", "coordinates": [-96.606256,47.774673]}},
{ "type": "Feature", "properties": {"Name":"Crosby city","State":"Minnesota","State_Abbrev":"MN"},
"geometry":{ "type": "Point", "coordinates": [-93.94569,46.493267]}},
{ "type": "Feature", "properties": {"Name":"Crosslake city","State":"Minnesota","State_Abbrev":"MN"},
"geometry":{ "type": "Point", "coordinates": [-94.102014,46.678212]}},
{ "type": "Feature", "properties": {"Name":"Crown College CDP","State":"Minnesota","State_Abbrev":"MN"},
"geometry":{ "type": "Point", "coordinates": [-93.743508,44.884686]}},
{ "type": "Feature", "properties": {"Name":"Crystal city","State":"Minnesota","State_Abbrev":"MN"},
"geometry":{ "type": "Point", "coordinates": [-93.359478,45.03731]}},
{ "type": "Feature", "properties": {"Name":"Currie city","State":"Minnesota","State_Abbrev":"MN"},
"geometry":{ "type": "Point", "coordinates": [-95.666899,44.070466]}},
{ "type": "Feature", "properties": {"Name":"Cuyuna city","State":"Minnesota","State_Abbrev":"MN"},
"geometry":{ "type": "Point", "coordinates": [-93.919671,46.506747]}},
{ "type": "Feature", "properties": {"Name":"Cyrus city","State":"Minnesota","State_Abbrev":"MN"},
"geometry":{ "type": "Point", "coordinates": [-95.738197,45.614762]}},
{ "type": "Feature", "properties": {"Name":"Dakota city","State":"Minnesota","State_Abbrev":"MN"},
"geometry":{ "type": "Point", "coordinates": [-91.361362,43.911548]}},
{ "type": "Feature", "properties": {"Name":"Dalton city","State":"Minnesota","State_Abbrev":"MN"},
"geometry":{ "type": "Point", "coordinates": [-95.915465,46.173937]}},
{ "type": "Feature", "properties": {"Name":"Danube city","State":"Minnesota","State_Abbrev":"MN"},
"geometry":{ "type": "Point", "coordinates": [-95.102898,44.791036]}},
{ "type": "Feature", "properties": {"Name":"Danvers city","State":"Minnesota","State_Abbrev":"MN"},
"geometry":{ "type": "Point", "coordinates": [-95.755953,45.281396]}},
{ "type": "Feature", "properties": {"Name":"Darfur city","State":"Minnesota","State_Abbrev":"MN"},
"geometry":{ "type": "Point", "coordinates": [-94.83775,44.053463]}},
{ "type": "Feature", "properties": {"Name":"Darwin city","State":"Minnesota","State_Abbrev":"MN"},
"geometry":{ "type": "Point", "coordinates": [-94.422474,45.098539]}},
{ "type": "Feature", "properties": {"Name":"Dassel city","State":"Minnesota","State_Abbrev":"MN"},
"geometry":{ "type": "Point", "coordinates": [-94.316956,45.084868]}},
{ "type": "Feature", "properties": {"Name":"Dawson city","State":"Minnesota","State_Abbrev":"MN"},
"geometry":{ "type": "Point", "coordinates": [-96.050376,44.928985]}},
{ "type": "Feature", "properties": {"Name":"Dayton city","State":"Minnesota","State_Abbrev":"MN"},
"geometry":{ "type": "Point", "coordinates": [-93.471575,45.189088]}},
{ "type": "Feature", "properties": {"Name":"Deephaven city","State":"Minnesota","State_Abbrev":"MN"},
"geometry":{ "type": "Point", "coordinates": [-93.529104,44.931974]}},
{ "type": "Feature", "properties": {"Name":"Deer Creek city","State":"Minnesota","State_Abbrev":"MN"},
"geometry":{ "type": "Point", "coordinates": [-95.32084,46.389663]}},
{ "type": "Feature", "properties": {"Name":"Deer River city","State":"Minnesota","State_Abbrev":"MN"},
"geometry":{ "type": "Point", "coordinates": [-93.792811,47.339082]}},
{ "type": "Feature", "properties": {"Name":"Deerwood city","State":"Minnesota","State_Abbrev":"MN"},
"geometry":{ "type": "Point", "coordinates": [-93.898401,46.467179]}},
{ "type": "Feature", "properties": {"Name":"De Graff city","State":"Minnesota","State_Abbrev":"MN"},
"geometry":{ "type": "Point", "coordinates": [-95.468378,45.259866]}},
{ "type": "Feature", "properties": {"Name":"Delano city","State":"Minnesota","State_Abbrev":"MN"},
"geometry":{ "type": "Point", "coordinates": [-93.792978,45.038399]}},
{ "type": "Feature", "properties": {"Name":"Delavan city","State":"Minnesota","State_Abbrev":"MN"},
"geometry":{ "type": "Point", "coordinates": [-94.017382,43.767711]}},
{ "type": "Feature", "properties": {"Name":"Delhi city","State":"Minnesota","State_Abbrev":"MN"},
"geometry":{ "type": "Point", "coordinates": [-95.213359,44.597999]}},
{ "type": "Feature", "properties": {"Name":"Dellwood city","State":"Minnesota","State_Abbrev":"MN"},
"geometry":{ "type": "Point", "coordinates": [-92.967619,45.098812]}},
{ "type": "Feature", "properties": {"Name":"Denham city","State":"Minnesota","State_Abbrev":"MN"},
"geometry":{ "type": "Point", "coordinates": [-92.94149,46.361693]}},
{ "type": "Feature", "properties": {"Name":"Dennison city","State":"Minnesota","State_Abbrev":"MN"},
"geometry":{ "type": "Point", "coordinates": [-93.030311,44.408827]}},
{ "type": "Feature", "properties": {"Name":"Dent city","State":"Minnesota","State_Abbrev":"MN"},
"geometry":{ "type": "Point", "coordinates": [-95.718606,46.553166]}},
{ "type": "Feature", "properties": {"Name":"Detroit Lakes city","State":"Minnesota","State_Abbrev":"MN"},
"geometry":{ "type": "Point", "coordinates": [-95.846612,46.807582]}},
{ "type": "Feature", "properties": {"Name":"Dexter city","State":"Minnesota","State_Abbrev":"MN"},
"geometry":{ "type": "Point", "coordinates": [-92.701715,43.719411]}},
{ "type": "Feature", "properties": {"Name":"Dilworth city","State":"Minnesota","State_Abbrev":"MN"},
"geometry":{ "type": "Point", "coordinates": [-96.698332,46.879436]}},
{ "type": "Feature", "properties": {"Name":"Dodge Center city","State":"Minnesota","State_Abbrev":"MN"},
"geometry":{ "type": "Point", "coordinates": [-92.852159,44.028522]}},
{ "type": "Feature", "properties": {"Name":"Donaldson city","State":"Minnesota","State_Abbrev":"MN"},
"geometry":{ "type": "Point", "coordinates": [-96.894065,48.57277]}},
{ "type": "Feature", "properties": {"Name":"Donnelly city","State":"Minnesota","State_Abbrev":"MN"},
"geometry":{ "type": "Point", "coordinates": [-96.01433,45.689266]}},
{ "type": "Feature", "properties": {"Name":"Doran city","State":"Minnesota","State_Abbrev":"MN"},
"geometry":{ "type": "Point", "coordinates": [-96.485605,46.185139]}},
{ "type": "Feature", "properties": {"Name":"Dover city","State":"Minnesota","State_Abbrev":"MN"},
"geometry":{ "type": "Point", "coordinates": [-92.134022,43.969815]}},
{ "type": "Feature", "properties": {"Name":"Dovray city","State":"Minnesota","State_Abbrev":"MN"},
"geometry":{ "type": "Point", "coordinates": [-95.547738,44.054516]}},
{ "type": "Feature", "properties": {"Name":"Dresbach CDP","State":"Minnesota","State_Abbrev":"MN"},
"geometry":{ "type": "Point", "coordinates": [-91.346803,43.886874]}},
{ "type": "Feature", "properties": {"Name":"Duluth city","State":"Minnesota","State_Abbrev":"MN"},
"geometry":{ "type": "Point", "coordinates": [-92.134135,46.774458]}},
{ "type": "Feature", "properties": {"Name":"Dumont city","State":"Minnesota","State_Abbrev":"MN"},
"geometry":{ "type": "Point", "coordinates": [-96.423094,45.717375]}},
{ "type": "Feature", "properties": {"Name":"Dundas city","State":"Minnesota","State_Abbrev":"MN"},
"geometry":{ "type": "Point", "coordinates": [-93.203878,44.427644]}},
{ "type": "Feature", "properties": {"Name":"Dundee city","State":"Minnesota","State_Abbrev":"MN"},
"geometry":{ "type": "Point", "coordinates": [-95.466566,43.844012]}},
{ "type": "Feature", "properties": {"Name":"Dunnell city","State":"Minnesota","State_Abbrev":"MN"},
"geometry":{ "type": "Point", "coordinates": [-94.775179,43.560465]}},
{ "type": "Feature", "properties": {"Name":"Eagan city","State":"Minnesota","State_Abbrev":"MN"},
"geometry":{ "type": "Point", "coordinates": [-93.162816,44.815217]}},
{ "type": "Feature", "properties": {"Name":"Eagle Bend city","State":"Minnesota","State_Abbrev":"MN"},
"geometry":{ "type": "Point", "coordinates": [-95.034111,46.164272]}},
{ "type": "Feature", "properties": {"Name":"Eagle Lake city","State":"Minnesota","State_Abbrev":"MN"},
"geometry":{ "type": "Point", "coordinates": [-93.882016,44.1635]}},
{ "type": "Feature", "properties": {"Name":"East Bethel city","State":"Minnesota","State_Abbrev":"MN"},
"geometry":{ "type": "Point", "coordinates": [-93.21766,45.353204]}},
{ "type": "Feature", "properties": {"Name":"East Grand Forks city","State":"Minnesota","State_Abbrev":"MN"},
"geometry":{ "type": "Point", "coordinates": [-97.013814,47.928573]}},
{ "type": "Feature", "properties": {"Name":"East Gull Lake city","State":"Minnesota","State_Abbrev":"MN"},
"geometry":{ "type": "Point", "coordinates": [-94.363791,46.397047]}},
{ "type": "Feature", "properties": {"Name":"Easton city","State":"Minnesota","State_Abbrev":"MN"},
"geometry":{ "type": "Point", "coordinates": [-93.90001,43.766087]}},
{ "type": "Feature", "properties": {"Name":"Ebro CDP","State":"Minnesota","State_Abbrev":"MN"},
"geometry":{ "type": "Point", "coordinates": [-95.541079,47.49422]}},
{ "type": "Feature", "properties": {"Name":"Echo city","State":"Minnesota","State_Abbrev":"MN"},
"geometry":{ "type": "Point", "coordinates": [-95.413787,44.617646]}},
{ "type": "Feature", "properties": {"Name":"Eden Prairie city","State":"Minnesota","State_Abbrev":"MN"},
"geometry":{ "type": "Point", "coordinates": [-93.458721,44.849595]}},
{ "type": "Feature", "properties": {"Name":"Eden Valley city","State":"Minnesota","State_Abbrev":"MN"},
"geometry":{ "type": "Point", "coordinates": [-94.545926,45.325566]}},
{ "type": "Feature", "properties": {"Name":"Edgerton city","State":"Minnesota","State_Abbrev":"MN"},
"geometry":{ "type": "Point", "coordinates": [-96.130472,43.87533]}},
{ "type": "Feature", "properties": {"Name":"Edina city","State":"Minnesota","State_Abbrev":"MN"},
"geometry":{ "type": "Point", "coordinates": [-93.359752,44.891123]}},
{ "type": "Feature", "properties": {"Name":"Effie city","State":"Minnesota","State_Abbrev":"MN"},
"geometry":{ "type": "Point", "coordinates": [-93.637703,47.841166]}},
{ "type": "Feature", "properties": {"Name":"Eitzen city","State":"Minnesota","State_Abbrev":"MN"},
"geometry":{ "type": "Point", "coordinates": [-91.465003,43.508356]}},
{ "type": "Feature", "properties": {"Name":"Elba city","State":"Minnesota","State_Abbrev":"MN"},
"geometry":{ "type": "Point", "coordinates": [-92.016858,44.086708]}},
{ "type": "Feature", "properties": {"Name":"Elbow Lake CDP","State":"Minnesota","State_Abbrev":"MN"},
"geometry":{ "type": "Point", "coordinates": [-95.544075,47.146718]}},
{ "type": "Feature", "properties": {"Name":"Elbow Lake city","State":"Minnesota","State_Abbrev":"MN"},
"geometry":{ "type": "Point", "coordinates": [-95.978766,45.989595]}},
{ "type": "Feature", "properties": {"Name":"Elgin city","State":"Minnesota","State_Abbrev":"MN"},
"geometry":{ "type": "Point", "coordinates": [-92.25443,44.129221]}},
{ "type": "Feature", "properties": {"Name":"Elizabeth city","State":"Minnesota","State_Abbrev":"MN"},
"geometry":{ "type": "Point", "coordinates": [-96.130973,46.38012]}},
{ "type": "Feature", "properties": {"Name":"Elko New Market city","State":"Minnesota","State_Abbrev":"MN"},
"geometry":{ "type": "Point", "coordinates": [-93.337396,44.566785]}},
{ "type": "Feature", "properties": {"Name":"Elk River city","State":"Minnesota","State_Abbrev":"MN"},
"geometry":{ "type": "Point", "coordinates": [-93.566528,45.332212]}},
{ "type": "Feature", "properties": {"Name":"Elkton city","State":"Minnesota","State_Abbrev":"MN"},
"geometry":{ "type": "Point", "coordinates": [-92.706449,43.660197]}},
{ "type": "Feature", "properties": {"Name":"Ellendale city","State":"Minnesota","State_Abbrev":"MN"},
"geometry":{ "type": "Point", "coordinates": [-93.299331,43.872721]}},
{ "type": "Feature", "properties": {"Name":"Ellsworth city","State":"Minnesota","State_Abbrev":"MN"},
"geometry":{ "type": "Point", "coordinates": [-96.01859,43.520579]}},
{ "type": "Feature", "properties": {"Name":"Elmdale city","State":"Minnesota","State_Abbrev":"MN"},
"geometry":{ "type": "Point", "coordinates": [-94.494218,45.834018]}},
{ "type": "Feature", "properties": {"Name":"Elmore city","State":"Minnesota","State_Abbrev":"MN"},
"geometry":{ "type": "Point", "coordinates": [-94.088257,43.506382]}},
{ "type": "Feature", "properties": {"Name":"Elrosa city","State":"Minnesota","State_Abbrev":"MN"},
"geometry":{ "type": "Point", "coordinates": [-94.947199,45.562902]}},
{ "type": "Feature", "properties": {"Name":"Ely city","State":"Minnesota","State_Abbrev":"MN"},
"geometry":{ "type": "Point", "coordinates": [-91.850729,47.905603]}},
{ "type": "Feature", "properties": {"Name":"Elysian city","State":"Minnesota","State_Abbrev":"MN"},
"geometry":{ "type": "Point", "coordinates": [-93.681284,44.206366]}},
{ "type": "Feature", "properties": {"Name":"Emily city","State":"Minnesota","State_Abbrev":"MN"},
"geometry":{ "type": "Point", "coordinates": [-93.980502,46.769011]}},
{ "type": "Feature", "properties": {"Name":"Emmons city","State":"Minnesota","State_Abbrev":"MN"},
"geometry":{ "type": "Point", "coordinates": [-93.484247,43.508245]}},
{ "type": "Feature", "properties": {"Name":"Erhard city","State":"Minnesota","State_Abbrev":"MN"},
"geometry":{ "type": "Point", "coordinates": [-96.096181,46.481653]}},
{ "type": "Feature", "properties": {"Name":"Erskine city","State":"Minnesota","State_Abbrev":"MN"},
"geometry":{ "type": "Point", "coordinates": [-96.016683,47.663163]}},
{ "type": "Feature", "properties": {"Name":"Esko CDP","State":"Minnesota","State_Abbrev":"MN"},
"geometry":{ "type": "Point", "coordinates": [-92.372095,46.710036]}},
{ "type": "Feature", "properties": {"Name":"Essig CDP","State":"Minnesota","State_Abbrev":"MN"},
"geometry":{ "type": "Point", "coordinates": [-94.603361,44.328351]}},
{ "type": "Feature", "properties": {"Name":"Evan city","State":"Minnesota","State_Abbrev":"MN"},
"geometry":{ "type": "Point", "coordinates": [-94.836091,44.35494]}},
{ "type": "Feature", "properties": {"Name":"Evansville city","State":"Minnesota","State_Abbrev":"MN"},
"geometry":{ "type": "Point", "coordinates": [-95.687979,46.006002]}},
{ "type": "Feature", "properties": {"Name":"Eveleth city","State":"Minnesota","State_Abbrev":"MN"},
"geometry":{ "type": "Point", "coordinates": [-92.549641,47.474963]}},
{ "type": "Feature", "properties": {"Name":"Excelsior city","State":"Minnesota","State_Abbrev":"MN"},
"geometry":{ "type": "Point", "coordinates": [-93.56643,44.902695]}},
{ "type": "Feature", "properties": {"Name":"Eyota city","State":"Minnesota","State_Abbrev":"MN"},
"geometry":{ "type": "Point", "coordinates": [-92.232124,43.98831]}},
{ "type": "Feature", "properties": {"Name":"Fairfax city","State":"Minnesota","State_Abbrev":"MN"},
"geometry":{ "type": "Point", "coordinates": [-94.722995,44.528324]}},
{ "type": "Feature", "properties": {"Name":"Fairhaven CDP","State":"Minnesota","State_Abbrev":"MN"},
"geometry":{ "type": "Point", "coordinates": [-94.205474,45.323991]}},
{ "type": "Feature", "properties": {"Name":"Fairmont city","State":"Minnesota","State_Abbrev":"MN"},
"geometry":{ "type": "Point", "coordinates": [-94.464015,43.644789]}},
{ "type": "Feature", "properties": {"Name":"Falcon Heights city","State":"Minnesota","State_Abbrev":"MN"},
"geometry":{ "type": "Point", "coordinates": [-93.174659,44.988052]}},
{ "type": "Feature", "properties": {"Name":"Faribault city","State":"Minnesota","State_Abbrev":"MN"},
"geometry":{ "type": "Point", "coordinates": [-93.278946,44.299709]}},
{ "type": "Feature", "properties": {"Name":"Farmington city","State":"Minnesota","State_Abbrev":"MN"},
"geometry":{ "type": "Point", "coordinates": [-93.168705,44.659163]}},
{ "type": "Feature", "properties": {"Name":"Farwell city","State":"Minnesota","State_Abbrev":"MN"},
"geometry":{ "type": "Point", "coordinates": [-95.618868,45.752338]}},
{ "type": "Feature", "properties": {"Name":"Federal Dam city","State":"Minnesota","State_Abbrev":"MN"},
"geometry":{ "type": "Point", "coordinates": [-94.211998,47.240227]}},
{ "type": "Feature", "properties": {"Name":"Felton city","State":"Minnesota","State_Abbrev":"MN"},
"geometry":{ "type": "Point", "coordinates": [-96.505745,47.074977]}},
{ "type": "Feature", "properties": {"Name":"Fergus Falls city","State":"Minnesota","State_Abbrev":"MN"},
"geometry":{ "type": "Point", "coordinates": [-96.076145,46.285002]}},
{ "type": "Feature", "properties": {"Name":"Fertile city","State":"Minnesota","State_Abbrev":"MN"},
"geometry":{ "type": "Point", "coordinates": [-96.281553,47.530705]}},
{ "type": "Feature", "properties": {"Name":"Fifty Lakes city","State":"Minnesota","State_Abbrev":"MN"},
"geometry":{ "type": "Point", "coordinates": [-94.117844,46.765469]}},
{ "type": "Feature", "properties": {"Name":"Finland CDP","State":"Minnesota","State_Abbrev":"MN"},
"geometry":{ "type": "Point", "coordinates": [-91.25596,47.43209]}},
{ "type": "Feature", "properties": {"Name":"Finlayson city","State":"Minnesota","State_Abbrev":"MN"},
"geometry":{ "type": "Point", "coordinates": [-92.930407,46.210367]}},
{ "type": "Feature", "properties": {"Name":"Fisher city","State":"Minnesota","State_Abbrev":"MN"},
"geometry":{ "type": "Point", "coordinates": [-96.799527,47.79917]}},
{ "type": "Feature", "properties": {"Name":"Fish Lake CDP","State":"Minnesota","State_Abbrev":"MN"},
"geometry":{ "type": "Point", "coordinates": [-95.047048,43.838611]}},
{ "type": "Feature", "properties": {"Name":"Flensburg city","State":"Minnesota","State_Abbrev":"MN"},
"geometry":{ "type": "Point", "coordinates": [-94.530468,45.94764]}},
{ "type": "Feature", "properties": {"Name":"Floodwood city","State":"Minnesota","State_Abbrev":"MN"},
"geometry":{ "type": "Point", "coordinates": [-92.905937,46.910627]}},
{ "type": "Feature", "properties": {"Name":"Florence city","State":"Minnesota","State_Abbrev":"MN"},
"geometry":{ "type": "Point", "coordinates": [-96.051944,44.23722]}},
{ "type": "Feature", "properties": {"Name":"Foley city","State":"Minnesota","State_Abbrev":"MN"},
"geometry":{ "type": "Point", "coordinates": [-93.909459,45.663599]}},
{ "type": "Feature", "properties": {"Name":"Forada city","State":"Minnesota","State_Abbrev":"MN"},
"geometry":{ "type": "Point", "coordinates": [-95.356846,45.788736]}},
{ "type": "Feature", "properties": {"Name":"Forest Lake city","State":"Minnesota","State_Abbrev":"MN"},
"geometry":{ "type": "Point", "coordinates": [-92.96692,45.250831]}},
{ "type": "Feature", "properties": {"Name":"Foreston city","State":"Minnesota","State_Abbrev":"MN"},
"geometry":{ "type": "Point", "coordinates": [-93.708918,45.727023]}},
{ "type": "Feature", "properties": {"Name":"Fort Ripley city","State":"Minnesota","State_Abbrev":"MN"},
"geometry":{ "type": "Point", "coordinates": [-94.365014,46.166457]}},
{ "type": "Feature", "properties": {"Name":"Fosston city","State":"Minnesota","State_Abbrev":"MN"},
"geometry":{ "type": "Point", "coordinates": [-95.752685,47.585142]}},
{ "type": "Feature", "properties": {"Name":"Fountain city","State":"Minnesota","State_Abbrev":"MN"},
"geometry":{ "type": "Point", "coordinates": [-92.134233,43.742538]}},
{ "type": "Feature", "properties": {"Name":"Foxhome city","State":"Minnesota","State_Abbrev":"MN"},
"geometry":{ "type": "Point", "coordinates": [-96.312231,46.276889]}},
{ "type": "Feature", "properties": {"Name":"Franklin city","State":"Minnesota","State_Abbrev":"MN"},
"geometry":{ "type": "Point", "coordinates": [-94.884118,44.53058]}},
{ "type": "Feature", "properties": {"Name":"Frazee city","State":"Minnesota","State_Abbrev":"MN"},
"geometry":{ "type": "Point", "coordinates": [-95.701886,46.727613]}},
{ "type": "Feature", "properties": {"Name":"Freeborn city","State":"Minnesota","State_Abbrev":"MN"},
"geometry":{ "type": "Point", "coordinates": [-93.564377,43.76596]}},
{ "type": "Feature", "properties": {"Name":"Freeport city","State":"Minnesota","State_Abbrev":"MN"},
"geometry":{ "type": "Point", "coordinates": [-94.684271,45.660453]}},
{ "type": "Feature", "properties": {"Name":"Fridley city","State":"Minnesota","State_Abbrev":"MN"},
"geometry":{ "type": "Point", "coordinates": [-93.26005,45.084246]}},
{ "type": "Feature", "properties": {"Name":"Frontenac CDP","State":"Minnesota","State_Abbrev":"MN"},
"geometry":{ "type": "Point", "coordinates": [-92.352561,44.503785]}},
{ "type": "Feature", "properties": {"Name":"Frost city","State":"Minnesota","State_Abbrev":"MN"},
"geometry":{ "type": "Point", "coordinates": [-93.924727,43.584608]}},
{ "type": "Feature", "properties": {"Name":"Fulda city","State":"Minnesota","State_Abbrev":"MN"},
"geometry":{ "type": "Point", "coordinates": [-95.60552,43.867377]}},
{ "type": "Feature", "properties": {"Name":"Funkley city","State":"Minnesota","State_Abbrev":"MN"},
"geometry":{ "type": "Point", "coordinates": [-94.42664,47.786816]}},
{ "type": "Feature", "properties": {"Name":"Garden City CDP","State":"Minnesota","State_Abbrev":"MN"},
"geometry":{ "type": "Point", "coordinates": [-94.170681,44.047814]}},
{ "type": "Feature", "properties": {"Name":"Garfield city","State":"Minnesota","State_Abbrev":"MN"},
"geometry":{ "type": "Point", "coordinates": [-95.498535,45.937601]}},
{ "type": "Feature", "properties": {"Name":"Garrison city","State":"Minnesota","State_Abbrev":"MN"},
"geometry":{ "type": "Point", "coordinates": [-93.825954,46.298696]}},
{ "type": "Feature", "properties": {"Name":"Garvin city","State":"Minnesota","State_Abbrev":"MN"},
"geometry":{ "type": "Point", "coordinates": [-95.76019,44.212479]}},
{ "type": "Feature", "properties": {"Name":"Gary city","State":"Minnesota","State_Abbrev":"MN"},
"geometry":{ "type": "Point", "coordinates": [-96.265564,47.372476]}},
{ "type": "Feature", "properties": {"Name":"Gaylord city","State":"Minnesota","State_Abbrev":"MN"},
"geometry":{ "type": "Point", "coordinates": [-94.213222,44.55577]}},
{ "type": "Feature", "properties": {"Name":"Gem Lake city","State":"Minnesota","State_Abbrev":"MN"},
"geometry":{ "type": "Point", "coordinates": [-93.038067,45.061068]}},
{ "type": "Feature", "properties": {"Name":"Geneva city","State":"Minnesota","State_Abbrev":"MN"},
"geometry":{ "type": "Point", "coordinates": [-93.272612,43.819522]}},
{ "type": "Feature", "properties": {"Name":"Genola city","State":"Minnesota","State_Abbrev":"MN"},
"geometry":{ "type": "Point", "coordinates": [-94.112788,45.965536]}},
{ "type": "Feature", "properties": {"Name":"Georgetown city","State":"Minnesota","State_Abbrev":"MN"},
"geometry":{ "type": "Point", "coordinates": [-96.795872,47.07842]}},
{ "type": "Feature", "properties": {"Name":"Ghent city","State":"Minnesota","State_Abbrev":"MN"},
"geometry":{ "type": "Point", "coordinates": [-95.89261,44.511569]}},
{ "type": "Feature", "properties": {"Name":"Gibbon city","State":"Minnesota","State_Abbrev":"MN"},
"geometry":{ "type": "Point", "coordinates": [-94.524219,44.533228]}},
{ "type": "Feature", "properties": {"Name":"Gilbert city","State":"Minnesota","State_Abbrev":"MN"},
"geometry":{ "type": "Point", "coordinates": [-92.458312,47.490784]}},
{ "type": "Feature", "properties": {"Name":"Gilman city","State":"Minnesota","State_Abbrev":"MN"},
"geometry":{ "type": "Point", "coordinates": [-93.948552,45.73533]}},
{ "type": "Feature", "properties": {"Name":"Glencoe city","State":"Minnesota","State_Abbrev":"MN"},
"geometry":{ "type": "Point", "coordinates": [-94.151027,44.769566]}},
{ "type": "Feature", "properties": {"Name":"Glenville city","State":"Minnesota","State_Abbrev":"MN"},
"geometry":{ "type": "Point", "coordinates": [-93.281066,43.574187]}},
{ "type": "Feature", "properties": {"Name":"Glenwood city","State":"Minnesota","State_Abbrev":"MN"},
"geometry":{ "type": "Point", "coordinates": [-95.387261,45.6647]}},
{ "type": "Feature", "properties": {"Name":"Glyndon city","State":"Minnesota","State_Abbrev":"MN"},
"geometry":{ "type": "Point", "coordinates": [-96.578411,46.870987]}},
{ "type": "Feature", "properties": {"Name":"Golden Valley city","State":"Minnesota","State_Abbrev":"MN"},
"geometry":{ "type": "Point", "coordinates": [-93.358736,44.990233]}},
{ "type": "Feature", "properties": {"Name":"Gonvick city","State":"Minnesota","State_Abbrev":"MN"},
"geometry":{ "type": "Point", "coordinates": [-95.51247,47.739118]}},
{ "type": "Feature", "properties": {"Name":"Goodhue city","State":"Minnesota","State_Abbrev":"MN"},
"geometry":{ "type": "Point", "coordinates": [-92.625458,44.399432]}},
{ "type": "Feature", "properties": {"Name":"Goodland CDP","State":"Minnesota","State_Abbrev":"MN"},
"geometry":{ "type": "Point", "coordinates": [-93.137587,47.163583]}},
{ "type": "Feature", "properties": {"Name":"Goodridge city","State":"Minnesota","State_Abbrev":"MN"},
"geometry":{ "type": "Point", "coordinates": [-95.80396,48.144175]}},
{ "type": "Feature", "properties": {"Name":"Good Thunder city","State":"Minnesota","State_Abbrev":"MN"},
"geometry":{ "type": "Point", "coordinates": [-94.070296,44.00669]}},
{ "type": "Feature", "properties": {"Name":"Goodview city","State":"Minnesota","State_Abbrev":"MN"},
"geometry":{ "type": "Point", "coordinates": [-91.714643,44.068809]}},
{ "type": "Feature", "properties": {"Name":"Graceville city","State":"Minnesota","State_Abbrev":"MN"},
"geometry":{ "type": "Point", "coordinates": [-96.437187,45.568681]}},
{ "type": "Feature", "properties": {"Name":"Granada city","State":"Minnesota","State_Abbrev":"MN"},
"geometry":{ "type": "Point", "coordinates": [-94.349537,43.693017]}},
{ "type": "Feature", "properties": {"Name":"Grand Marais city","State":"Minnesota","State_Abbrev":"MN"},
"geometry":{ "type": "Point", "coordinates": [-90.344319,47.758556]}},
{ "type": "Feature", "properties": {"Name":"Grand Meadow city","State":"Minnesota","State_Abbrev":"MN"},
"geometry":{ "type": "Point", "coordinates": [-92.570163,43.706205]}},
{ "type": "Feature", "properties": {"Name":"Grand Rapids city","State":"Minnesota","State_Abbrev":"MN"},
"geometry":{ "type": "Point", "coordinates": [-93.532203,47.237481]}},
{ "type": "Feature", "properties": {"Name":"Granite Falls city","State":"Minnesota","State_Abbrev":"MN"},
"geometry":{ "type": "Point", "coordinates": [-95.542338,44.807268]}},
{ "type": "Feature", "properties": {"Name":"Grant city","State":"Minnesota","State_Abbrev":"MN"},
"geometry":{ "type": "Point", "coordinates": [-92.910948,45.082077]}},
{ "type": "Feature", "properties": {"Name":"Grasston city","State":"Minnesota","State_Abbrev":"MN"},
"geometry":{ "type": "Point", "coordinates": [-93.155005,45.797369]}},
{ "type": "Feature", "properties": {"Name":"Greenbush city","State":"Minnesota","State_Abbrev":"MN"},
"geometry":{ "type": "Point", "coordinates": [-96.183554,48.701061]}},
{ "type": "Feature", "properties": {"Name":"Greenfield city","State":"Minnesota","State_Abbrev":"MN"},
"geometry":{ "type": "Point", "coordinates": [-93.690773,45.094065]}},
{ "type": "Feature", "properties": {"Name":"Green Isle city","State":"Minnesota","State_Abbrev":"MN"},
"geometry":{ "type": "Point", "coordinates": [-94.004043,44.682857]}},
{ "type": "Feature", "properties": {"Name":"Greenwald city","State":"Minnesota","State_Abbrev":"MN"},
"geometry":{ "type": "Point", "coordinates": [-94.859334,45.60137]}},
{ "type": "Feature", "properties": {"Name":"Greenwood city","State":"Minnesota","State_Abbrev":"MN"},
"geometry":{ "type": "Point", "coordinates": [-93.553999,44.912956]}},
{ "type": "Feature", "properties": {"Name":"Grey Eagle city","State":"Minnesota","State_Abbrev":"MN"},
"geometry":{ "type": "Point", "coordinates": [-94.749141,45.824307]}},
{ "type": "Feature", "properties": {"Name":"Grove City city","State":"Minnesota","State_Abbrev":"MN"},
"geometry":{ "type": "Point", "coordinates": [-94.682451,45.149166]}},
{ "type": "Feature", "properties": {"Name":"Grygla city","State":"Minnesota","State_Abbrev":"MN"},
"geometry":{ "type": "Point", "coordinates": [-95.623963,48.299667]}},
{ "type": "Feature", "properties": {"Name":"Gully city","State":"Minnesota","State_Abbrev":"MN"},
"geometry":{ "type": "Point", "coordinates": [-95.622861,47.768437]}},
{ "type": "Feature", "properties": {"Name":"Hackensack city","State":"Minnesota","State_Abbrev":"MN"},
"geometry":{ "type": "Point", "coordinates": [-94.515987,46.926471]}},
{ "type": "Feature", "properties": {"Name":"Hadley city","State":"Minnesota","State_Abbrev":"MN"},
"geometry":{ "type": "Point", "coordinates": [-95.855559,44.001797]}},
{ "type": "Feature", "properties": {"Name":"Hallock city","State":"Minnesota","State_Abbrev":"MN"},
"geometry":{ "type": "Point", "coordinates": [-96.942485,48.765415]}},
{ "type": "Feature", "properties": {"Name":"Halma city","State":"Minnesota","State_Abbrev":"MN"},
"geometry":{ "type": "Point", "coordinates": [-96.59763,48.660453]}},
{ "type": "Feature", "properties": {"Name":"Halstad city","State":"Minnesota","State_Abbrev":"MN"},
"geometry":{ "type": "Point", "coordinates": [-96.825733,47.351131]}},
{ "type": "Feature", "properties": {"Name":"Hamburg city","State":"Minnesota","State_Abbrev":"MN"},
"geometry":{ "type": "Point", "coordinates": [-93.963197,44.732495]}},
{ "type": "Feature", "properties": {"Name":"Ham Lake city","State":"Minnesota","State_Abbrev":"MN"},
"geometry":{ "type": "Point", "coordinates": [-93.194841,45.25393]}},
{ "type": "Feature", "properties": {"Name":"Hammond city","State":"Minnesota","State_Abbrev":"MN"},
"geometry":{ "type": "Point", "coordinates": [-92.373728,44.22266]}},
{ "type": "Feature", "properties": {"Name":"Hampton city","State":"Minnesota","State_Abbrev":"MN"},
"geometry":{ "type": "Point", "coordinates": [-93.002617,44.608847]}},
{ "type": "Feature", "properties": {"Name":"Hancock city","State":"Minnesota","State_Abbrev":"MN"},
"geometry":{ "type": "Point", "coordinates": [-95.794822,45.497591]}},
{ "type": "Feature", "properties": {"Name":"Hanley Falls city","State":"Minnesota","State_Abbrev":"MN"},
"geometry":{ "type": "Point", "coordinates": [-95.619427,44.691843]}},
{ "type": "Feature", "properties": {"Name":"Hanover city","State":"Minnesota","State_Abbrev":"MN"},
"geometry":{ "type": "Point", "coordinates": [-93.66275,45.157755]}},
{ "type": "Feature", "properties": {"Name":"Hanska city","State":"Minnesota","State_Abbrev":"MN"},
"geometry":{ "type": "Point", "coordinates": [-94.494459,44.148743]}},
{ "type": "Feature", "properties": {"Name":"Harding city","State":"Minnesota","State_Abbrev":"MN"},
"geometry":{ "type": "Point", "coordinates": [-94.036798,46.119106]}},
{ "type": "Feature", "properties": {"Name":"Hardwick city","State":"Minnesota","State_Abbrev":"MN"},
"geometry":{ "type": "Point", "coordinates": [-96.197462,43.77419]}},
{ "type": "Feature", "properties": {"Name":"Harmony city","State":"Minnesota","State_Abbrev":"MN"},
"geometry":{ "type": "Point", "coordinates": [-92.007471,43.554005]}},
{ "type": "Feature", "properties": {"Name":"Harris city","State":"Minnesota","State_Abbrev":"MN"},
"geometry":{ "type": "Point", "coordinates": [-92.988641,45.597768]}},
{ "type": "Feature", "properties": {"Name":"Hartland city","State":"Minnesota","State_Abbrev":"MN"},
"geometry":{ "type": "Point", "coordinates": [-93.48435,43.80422]}},
{ "type": "Feature", "properties": {"Name":"Hastings city","State":"Minnesota","State_Abbrev":"MN"},
"geometry":{ "type": "Point", "coordinates": [-92.854512,44.73178]}},
{ "type": "Feature", "properties": {"Name":"Hatfield city","State":"Minnesota","State_Abbrev":"MN"},
"geometry":{ "type": "Point", "coordinates": [-96.188895,43.953677]}},
{ "type": "Feature", "properties": {"Name":"Hawley city","State":"Minnesota","State_Abbrev":"MN"},
"geometry":{ "type": "Point", "coordinates": [-96.319268,46.873097]}},
{ "type": "Feature", "properties": {"Name":"Hayfield city","State":"Minnesota","State_Abbrev":"MN"},
"geometry":{ "type": "Point", "coordinates": [-92.847034,43.890261]}},
{ "type": "Feature", "properties": {"Name":"Hayward city","State":"Minnesota","State_Abbrev":"MN"},
"geometry":{ "type": "Point", "coordinates": [-93.245986,43.649892]}},
{ "type": "Feature", "properties": {"Name":"Hazel Run city","State":"Minnesota","State_Abbrev":"MN"},
"geometry":{ "type": "Point", "coordinates": [-95.716542,44.748434]}},
{ "type": "Feature", "properties": {"Name":"Hector city","State":"Minnesota","State_Abbrev":"MN"},
"geometry":{ "type": "Point", "coordinates": [-94.712084,44.741255]}},
{ "type": "Feature", "properties": {"Name":"Heidelberg city","State":"Minnesota","State_Abbrev":"MN"},
"geometry":{ "type": "Point", "coordinates": [-93.626434,44.493062]}},
{ "type": "Feature", "properties": {"Name":"Henderson city","State":"Minnesota","State_Abbrev":"MN"},
"geometry":{ "type": "Point", "coordinates": [-93.913547,44.524305]}},
{ "type": "Feature", "properties": {"Name":"Hendricks city","State":"Minnesota","State_Abbrev":"MN"},
"geometry":{ "type": "Point", "coordinates": [-96.426422,44.508647]}},
{ "type": "Feature", "properties": {"Name":"Hendrum city","State":"Minnesota","State_Abbrev":"MN"},
"geometry":{ "type": "Point", "coordinates": [-96.81068,47.264053]}},
{ "type": "Feature", "properties": {"Name":"Henning city","State":"Minnesota","State_Abbrev":"MN"},
"geometry":{ "type": "Point", "coordinates": [-95.441961,46.322998]}},
{ "type": "Feature", "properties": {"Name":"Henriette city","State":"Minnesota","State_Abbrev":"MN"},
"geometry":{ "type": "Point", "coordinates": [-93.119702,45.871291]}},
{ "type": "Feature", "properties": {"Name":"Herman city","State":"Minnesota","State_Abbrev":"MN"},
"geometry":{ "type": "Point", "coordinates": [-96.141358,45.810537]}},
{ "type": "Feature", "properties": {"Name":"Hermantown city","State":"Minnesota","State_Abbrev":"MN"},
"geometry":{ "type": "Point", "coordinates": [-92.240837,46.802343]}},
{ "type": "Feature", "properties": {"Name":"Heron Lake city","State":"Minnesota","State_Abbrev":"MN"},
"geometry":{ "type": "Point", "coordinates": [-95.319778,43.798059]}},
{ "type": "Feature", "properties": {"Name":"Hewitt city","State":"Minnesota","State_Abbrev":"MN"},
"geometry":{ "type": "Point", "coordinates": [-95.090167,46.323968]}},
{ "type": "Feature", "properties": {"Name":"Hibbing city","State":"Minnesota","State_Abbrev":"MN"},
"geometry":{ "type": "Point", "coordinates": [-92.946466,47.395902]}},
{ "type": "Feature", "properties": {"Name":"High Forest CDP","State":"Minnesota","State_Abbrev":"MN"},
"geometry":{ "type": "Point", "coordinates": [-92.548017,43.846158]}},
{ "type": "Feature", "properties": {"Name":"Hill City city","State":"Minnesota","State_Abbrev":"MN"},
"geometry":{ "type": "Point", "coordinates": [-93.594992,46.985161]}},
{ "type": "Feature", "properties": {"Name":"Hillman city","State":"Minnesota","State_Abbrev":"MN"},
"geometry":{ "type": "Point", "coordinates": [-93.88865,46.006281]}},
{ "type": "Feature", "properties": {"Name":"Hills city","State":"Minnesota","State_Abbrev":"MN"},
"geometry":{ "type": "Point", "coordinates": [-96.359322,43.527617]}},
{ "type": "Feature", "properties": {"Name":"Hilltop city","State":"Minnesota","State_Abbrev":"MN"},
"geometry":{ "type": "Point", "coordinates": [-93.250127,45.053579]}},
{ "type": "Feature", "properties": {"Name":"Hinckley city","State":"Minnesota","State_Abbrev":"MN"},
"geometry":{ "type": "Point", "coordinates": [-92.912722,46.013033]}},
{ "type": "Feature", "properties": {"Name":"Hitterdal city","State":"Minnesota","State_Abbrev":"MN"},
"geometry":{ "type": "Point", "coordinates": [-96.258505,46.978567]}},
{ "type": "Feature", "properties": {"Name":"Hoffman city","State":"Minnesota","State_Abbrev":"MN"},
"geometry":{ "type": "Point", "coordinates": [-95.787357,45.834383]}},
{ "type": "Feature", "properties": {"Name":"Hokah city","State":"Minnesota","State_Abbrev":"MN"},
"geometry":{ "type": "Point", "coordinates": [-91.349435,43.760062]}},
{ "type": "Feature", "properties": {"Name":"Holdingford city","State":"Minnesota","State_Abbrev":"MN"},
"geometry":{ "type": "Point", "coordinates": [-94.471373,45.730321]}},
{ "type": "Feature", "properties": {"Name":"Holland city","State":"Minnesota","State_Abbrev":"MN"},
"geometry":{ "type": "Point", "coordinates": [-96.198886,44.090171]}},
{ "type": "Feature", "properties": {"Name":"Hollandale city","State":"Minnesota","State_Abbrev":"MN"},
"geometry":{ "type": "Point", "coordinates": [-93.205586,43.759781]}},
{ "type": "Feature", "properties": {"Name":"Holloway city","State":"Minnesota","State_Abbrev":"MN"},
"geometry":{ "type": "Point", "coordinates": [-95.906795,45.243082]}},
{ "type": "Feature", "properties": {"Name":"Holt city","State":"Minnesota","State_Abbrev":"MN"},
"geometry":{ "type": "Point", "coordinates": [-96.194471,48.292923]}},
{ "type": "Feature", "properties": {"Name":"Homer CDP","State":"Minnesota","State_Abbrev":"MN"},
"geometry":{ "type": "Point", "coordinates": [-91.560865,44.007209]}},
{ "type": "Feature", "properties": {"Name":"Hopkins city","State":"Minnesota","State_Abbrev":"MN"},
"geometry":{ "type": "Point", "coordinates": [-93.404494,44.925107]}},
{ "type": "Feature", "properties": {"Name":"Houston city","State":"Minnesota","State_Abbrev":"MN"},
"geometry":{ "type": "Point", "coordinates": [-91.572676,43.756636]}},
{ "type": "Feature", "properties": {"Name":"Howard Lake city","State":"Minnesota","State_Abbrev":"MN"},
"geometry":{ "type": "Point", "coordinates": [-94.061,45.053986]}},
{ "type": "Feature", "properties": {"Name":"Hoyt Lakes city","State":"Minnesota","State_Abbrev":"MN"},
"geometry":{ "type": "Point", "coordinates": [-92.108331,47.571615]}},
{ "type": "Feature", "properties": {"Name":"Hubbard CDP","State":"Minnesota","State_Abbrev":"MN"},
"geometry":{ "type": "Point", "coordinates": [-95.009045,46.837454]}},
{ "type": "Feature", "properties": {"Name":"Hugo city","State":"Minnesota","State_Abbrev":"MN"},
"geometry":{ "type": "Point", "coordinates": [-92.960105,45.164225]}},
{ "type": "Feature", "properties": {"Name":"Humboldt city","State":"Minnesota","State_Abbrev":"MN"},
"geometry":{ "type": "Point", "coordinates": [-97.094642,48.921522]}},
{ "type": "Feature", "properties": {"Name":"Hutchinson city","State":"Minnesota","State_Abbrev":"MN"},
"geometry":{ "type": "Point", "coordinates": [-94.376876,44.885358]}},
{ "type": "Feature", "properties": {"Name":"Ihlen city","State":"Minnesota","State_Abbrev":"MN"},
"geometry":{ "type": "Point", "coordinates": [-96.372771,43.915574]}},
{ "type": "Feature", "properties": {"Name":"Independence city","State":"Minnesota","State_Abbrev":"MN"},
"geometry":{ "type": "Point", "coordinates": [-93.71975,45.018594]}},
{ "type": "Feature", "properties": {"Name":"Inger CDP","State":"Minnesota","State_Abbrev":"MN"},
"geometry":{ "type": "Point", "coordinates": [-93.977317,47.563282]}},
{ "type": "Feature", "properties": {"Name":"International Falls city","State":"Minnesota","State_Abbrev":"MN"},
"geometry":{ "type": "Point", "coordinates": [-93.407743,48.586353]}},
{ "type": "Feature", "properties": {"Name":"Inver Grove Heights city","State":"Minnesota","State_Abbrev":"MN"},
"geometry":{ "type": "Point", "coordinates": [-93.060072,44.829015]}},
{ "type": "Feature", "properties": {"Name":"Iona city","State":"Minnesota","State_Abbrev":"MN"},
"geometry":{ "type": "Point", "coordinates": [-95.783085,43.915596]}},
{ "type": "Feature", "properties": {"Name":"Iron Junction city","State":"Minnesota","State_Abbrev":"MN"},
"geometry":{ "type": "Point", "coordinates": [-92.608644,47.418986]}},
{ "type": "Feature", "properties": {"Name":"Ironton city","State":"Minnesota","State_Abbrev":"MN"},
"geometry":{ "type": "Point", "coordinates": [-94.003348,46.48219]}},
{ "type": "Feature", "properties": {"Name":"Isanti city","State":"Minnesota","State_Abbrev":"MN"},
"geometry":{ "type": "Point", "coordinates": [-93.242818,45.491545]}},
{ "type": "Feature", "properties": {"Name":"Isle city","State":"Minnesota","State_Abbrev":"MN"},
"geometry":{ "type": "Point", "coordinates": [-93.455793,46.138076]}},
{ "type": "Feature", "properties": {"Name":"Ivanhoe city","State":"Minnesota","State_Abbrev":"MN"},
"geometry":{ "type": "Point", "coordinates": [-96.251729,44.464282]}},
{ "type": "Feature", "properties": {"Name":"Jackson city","State":"Minnesota","State_Abbrev":"MN"},
"geometry":{ "type": "Point", "coordinates": [-94.988585,43.62568]}},
{ "type": "Feature", "properties": {"Name":"Janesville city","State":"Minnesota","State_Abbrev":"MN"},
"geometry":{ "type": "Point", "coordinates": [-93.709698,44.119846]}},
{ "type": "Feature", "properties": {"Name":"Jasper city","State":"Minnesota","State_Abbrev":"MN"},
"geometry":{ "type": "Point", "coordinates": [-96.399636,43.848886]}},
{ "type": "Feature", "properties": {"Name":"Jeffers city","State":"Minnesota","State_Abbrev":"MN"},
"geometry":{ "type": "Point", "coordinates": [-95.195353,44.055905]}},
{ "type": "Feature", "properties": {"Name":"Jenkins city","State":"Minnesota","State_Abbrev":"MN"},
"geometry":{ "type": "Point", "coordinates": [-94.328181,46.651092]}},
{ "type": "Feature", "properties": {"Name":"Johnson city","State":"Minnesota","State_Abbrev":"MN"},
"geometry":{ "type": "Point", "coordinates": [-96.29404,45.572251]}},
{ "type": "Feature", "properties": {"Name":"Jordan city","State":"Minnesota","State_Abbrev":"MN"},
"geometry":{ "type": "Point", "coordinates": [-93.640222,44.66463]}},
{ "type": "Feature", "properties": {"Name":"Kandiyohi city","State":"Minnesota","State_Abbrev":"MN"},
"geometry":{ "type": "Point", "coordinates": [-94.932793,45.131524]}},
{ "type": "Feature", "properties": {"Name":"Karlstad city","State":"Minnesota","State_Abbrev":"MN"},
"geometry":{ "type": "Point", "coordinates": [-96.516113,48.577986]}},
{ "type": "Feature", "properties": {"Name":"Kasota city","State":"Minnesota","State_Abbrev":"MN"},
"geometry":{ "type": "Point", "coordinates": [-93.968289,44.29186]}},
{ "type": "Feature", "properties": {"Name":"Kasson city","State":"Minnesota","State_Abbrev":"MN"},
"geometry":{ "type": "Point", "coordinates": [-92.74825,44.033135]}},
{ "type": "Feature", "properties": {"Name":"Keewatin city","State":"Minnesota","State_Abbrev":"MN"},
"geometry":{ "type": "Point", "coordinates": [-93.084205,47.399441]}},
{ "type": "Feature", "properties": {"Name":"Kelliher city","State":"Minnesota","State_Abbrev":"MN"},
"geometry":{ "type": "Point", "coordinates": [-94.43783,47.948176]}},
{ "type": "Feature", "properties": {"Name":"Kellogg city","State":"Minnesota","State_Abbrev":"MN"},
"geometry":{ "type": "Point", "coordinates": [-91.998701,44.307013]}},
{ "type": "Feature", "properties": {"Name":"Kennedy city","State":"Minnesota","State_Abbrev":"MN"},
"geometry":{ "type": "Point", "coordinates": [-96.910516,48.643666]}},
{ "type": "Feature", "properties": {"Name":"Kenneth city","State":"Minnesota","State_Abbrev":"MN"},
"geometry":{ "type": "Point", "coordinates": [-96.072529,43.754338]}},
{ "type": "Feature", "properties": {"Name":"Kensington city","State":"Minnesota","State_Abbrev":"MN"},
"geometry":{ "type": "Point", "coordinates": [-95.696867,45.778179]}},
{ "type": "Feature", "properties": {"Name":"Kent city","State":"Minnesota","State_Abbrev":"MN"},
"geometry":{ "type": "Point", "coordinates": [-96.683224,46.437568]}},
{ "type": "Feature", "properties": {"Name":"Kenyon city","State":"Minnesota","State_Abbrev":"MN"},
"geometry":{ "type": "Point", "coordinates": [-92.9864,44.272551]}},
{ "type": "Feature", "properties": {"Name":"Kerkhoven city","State":"Minnesota","State_Abbrev":"MN"},
"geometry":{ "type": "Point", "coordinates": [-95.31821,45.191399]}},
{ "type": "Feature", "properties": {"Name":"Kerrick city","State":"Minnesota","State_Abbrev":"MN"},
"geometry":{ "type": "Point", "coordinates": [-92.585161,46.339061]}},
{ "type": "Feature", "properties": {"Name":"Kettle River city","State":"Minnesota","State_Abbrev":"MN"},
"geometry":{ "type": "Point", "coordinates": [-92.877569,46.486219]}},
{ "type": "Feature", "properties": {"Name":"Kiester city","State":"Minnesota","State_Abbrev":"MN"},
"geometry":{ "type": "Point", "coordinates": [-93.711172,43.536505]}},
{ "type": "Feature", "properties": {"Name":"Kilkenny city","State":"Minnesota","State_Abbrev":"MN"},
"geometry":{ "type": "Point", "coordinates": [-93.574047,44.315232]}},
{ "type": "Feature", "properties": {"Name":"Kimball city","State":"Minnesota","State_Abbrev":"MN"},
"geometry":{ "type": "Point", "coordinates": [-94.300807,45.31433]}},
{ "type": "Feature", "properties": {"Name":"Kinbrae city","State":"Minnesota","State_Abbrev":"MN"},
"geometry":{ "type": "Point", "coordinates": [-95.475935,43.822805]}},
{ "type": "Feature", "properties": {"Name":"Kingston city","State":"Minnesota","State_Abbrev":"MN"},
"geometry":{ "type": "Point", "coordinates": [-94.307118,45.194384]}},
{ "type": "Feature", "properties": {"Name":"Kinney city","State":"Minnesota","State_Abbrev":"MN"},
"geometry":{ "type": "Point", "coordinates": [-92.719531,47.516501]}},
{ "type": "Feature", "properties": {"Name":"Knife River CDP","State":"Minnesota","State_Abbrev":"MN"},
"geometry":{ "type": "Point", "coordinates": [-91.78419,46.948908]}},
{ "type": "Feature", "properties": {"Name":"La Crescent city","State":"Minnesota","State_Abbrev":"MN"},
"geometry":{ "type": "Point", "coordinates": [-91.304953,43.829716]}},
{ "type": "Feature", "properties": {"Name":"Lafayette city","State":"Minnesota","State_Abbrev":"MN"},
"geometry":{ "type": "Point", "coordinates": [-94.392687,44.4471]}},
{ "type": "Feature", "properties": {"Name":"Lake Benton city","State":"Minnesota","State_Abbrev":"MN"},
"geometry":{ "type": "Point", "coordinates": [-96.299257,44.262226]}},
{ "type": "Feature", "properties": {"Name":"Lake Bronson city","State":"Minnesota","State_Abbrev":"MN"},
"geometry":{ "type": "Point", "coordinates": [-96.664928,48.732431]}},
{ "type": "Feature", "properties": {"Name":"Lake City city","State":"Minnesota","State_Abbrev":"MN"},
"geometry":{ "type": "Point", "coordinates": [-92.280925,44.445705]}},
{ "type": "Feature", "properties": {"Name":"Lake Crystal city","State":"Minnesota","State_Abbrev":"MN"},
"geometry":{ "type": "Point", "coordinates": [-94.219141,44.105404]}},
{ "type": "Feature", "properties": {"Name":"Lake Elmo city","State":"Minnesota","State_Abbrev":"MN"},
"geometry":{ "type": "Point", "coordinates": [-92.909654,44.987847]}},
{ "type": "Feature", "properties": {"Name":"Lakefield city","State":"Minnesota","State_Abbrev":"MN"},
"geometry":{ "type": "Point", "coordinates": [-95.169454,43.678014]}},
{ "type": "Feature", "properties": {"Name":"Lake George CDP","State":"Minnesota","State_Abbrev":"MN"},
"geometry":{ "type": "Point", "coordinates": [-94.972365,47.178816]}},
{ "type": "Feature", "properties": {"Name":"Lake Henry city","State":"Minnesota","State_Abbrev":"MN"},
"geometry":{ "type": "Point", "coordinates": [-94.796493,45.462042]}},
{ "type": "Feature", "properties": {"Name":"Lakeland city","State":"Minnesota","State_Abbrev":"MN"},
"geometry":{ "type": "Point", "coordinates": [-92.76663,44.953174]}},
{ "type": "Feature", "properties": {"Name":"Lakeland Shores city","State":"Minnesota","State_Abbrev":"MN"},
"geometry":{ "type": "Point", "coordinates": [-92.762428,44.949468]}},
{ "type": "Feature", "properties": {"Name":"Lake Lillian city","State":"Minnesota","State_Abbrev":"MN"},
"geometry":{ "type": "Point", "coordinates": [-94.879995,44.945868]}},
{ "type": "Feature", "properties": {"Name":"Lake Park city","State":"Minnesota","State_Abbrev":"MN"},
"geometry":{ "type": "Point", "coordinates": [-96.097582,46.883625]}},
{ "type": "Feature", "properties": {"Name":"Lake St. Croix Beach city","State":"Minnesota","State_Abbrev":"MN"},
"geometry":{ "type": "Point", "coordinates": [-92.766121,44.924492]}},
{ "type": "Feature", "properties": {"Name":"Lake Shore city","State":"Minnesota","State_Abbrev":"MN"},
"geometry":{ "type": "Point", "coordinates": [-94.366514,46.504346]}},
{ "type": "Feature", "properties": {"Name":"Lakeville city","State":"Minnesota","State_Abbrev":"MN"},
"geometry":{ "type": "Point", "coordinates": [-93.251743,44.676134]}},
{ "type": "Feature", "properties": {"Name":"Lake Wilson city","State":"Minnesota","State_Abbrev":"MN"},
"geometry":{ "type": "Point", "coordinates": [-95.954588,43.995358]}},
{ "type": "Feature", "properties": {"Name":"Lamberton city","State":"Minnesota","State_Abbrev":"MN"},
"geometry":{ "type": "Point", "coordinates": [-95.2676,44.230644]}},
{ "type": "Feature", "properties": {"Name":"Lancaster city","State":"Minnesota","State_Abbrev":"MN"},
"geometry":{ "type": "Point", "coordinates": [-96.801382,48.858249]}},
{ "type": "Feature", "properties": {"Name":"Landfall city","State":"Minnesota","State_Abbrev":"MN"},
"geometry":{ "type": "Point", "coordinates": [-92.976955,44.950029]}},
{ "type": "Feature", "properties": {"Name":"Lanesboro city","State":"Minnesota","State_Abbrev":"MN"},
"geometry":{ "type": "Point", "coordinates": [-91.970197,43.715122]}},
{ "type": "Feature", "properties": {"Name":"Lansing CDP","State":"Minnesota","State_Abbrev":"MN"},
"geometry":{ "type": "Point", "coordinates": [-92.965732,43.747724]}},
{ "type": "Feature", "properties": {"Name":"Laporte city","State":"Minnesota","State_Abbrev":"MN"},
"geometry":{ "type": "Point", "coordinates": [-94.757377,47.214735]}},
{ "type": "Feature", "properties": {"Name":"La Prairie city","State":"Minnesota","State_Abbrev":"MN"},
"geometry":{ "type": "Point", "coordinates": [-93.491362,47.230043]}},
{ "type": "Feature", "properties": {"Name":"La Salle city","State":"Minnesota","State_Abbrev":"MN"},
"geometry":{ "type": "Point", "coordinates": [-94.571289,44.07106]}},
{ "type": "Feature", "properties": {"Name":"Lastrup city","State":"Minnesota","State_Abbrev":"MN"},
"geometry":{ "type": "Point", "coordinates": [-94.061769,46.039845]}},
{ "type": "Feature", "properties": {"Name":"Lauderdale city","State":"Minnesota","State_Abbrev":"MN"},
"geometry":{ "type": "Point", "coordinates": [-93.203134,44.994407]}},
{ "type": "Feature", "properties": {"Name":"Le Center city","State":"Minnesota","State_Abbrev":"MN"},
"geometry":{ "type": "Point", "coordinates": [-93.731082,44.386593]}},
{ "type": "Feature", "properties": {"Name":"Lengby city","State":"Minnesota","State_Abbrev":"MN"},
"geometry":{ "type": "Point", "coordinates": [-95.634568,47.515347]}},
{ "type": "Feature", "properties": {"Name":"Leonard city","State":"Minnesota","State_Abbrev":"MN"},
"geometry":{ "type": "Point", "coordinates": [-95.264158,47.649802]}},
{ "type": "Feature", "properties": {"Name":"Leonidas city","State":"Minnesota","State_Abbrev":"MN"},
"geometry":{ "type": "Point", "coordinates": [-92.567436,47.46766]}},
{ "type": "Feature", "properties": {"Name":"Leota CDP","State":"Minnesota","State_Abbrev":"MN"},
"geometry":{ "type": "Point", "coordinates": [-96.024232,43.826383]}},
{ "type": "Feature", "properties": {"Name":"Le Roy city","State":"Minnesota","State_Abbrev":"MN"},
"geometry":{ "type": "Point", "coordinates": [-92.507793,43.513277]}},
{ "type": "Feature", "properties": {"Name":"Lester Prairie city","State":"Minnesota","State_Abbrev":"MN"},
"geometry":{ "type": "Point", "coordinates": [-94.036998,44.883322]}},
{ "type": "Feature", "properties": {"Name":"Le Sueur city","State":"Minnesota","State_Abbrev":"MN"},
"geometry":{ "type": "Point", "coordinates": [-93.901773,44.470513]}},
{ "type": "Feature", "properties": {"Name":"Lewiston city","State":"Minnesota","State_Abbrev":"MN"},
"geometry":{ "type": "Point", "coordinates": [-91.869487,43.982386]}},
{ "type": "Feature", "properties": {"Name":"Lewisville city","State":"Minnesota","State_Abbrev":"MN"},
"geometry":{ "type": "Point", "coordinates": [-94.434137,43.924142]}},
{ "type": "Feature", "properties": {"Name":"Lexington city","State":"Minnesota","State_Abbrev":"MN"},
"geometry":{ "type": "Point", "coordinates": [-93.171375,45.138153]}},
{ "type": "Feature", "properties": {"Name":"Lilydale city","State":"Minnesota","State_Abbrev":"MN"},
"geometry":{ "type": "Point", "coordinates": [-93.130754,44.908785]}},
{ "type": "Feature", "properties": {"Name":"Lindstrom city","State":"Minnesota","State_Abbrev":"MN"},
"geometry":{ "type": "Point", "coordinates": [-92.843674,45.385816]}},
{ "type": "Feature", "properties": {"Name":"Lino Lakes city","State":"Minnesota","State_Abbrev":"MN"},
"geometry":{ "type": "Point", "coordinates": [-93.106858,45.15546]}},
{ "type": "Feature", "properties": {"Name":"Lismore city","State":"Minnesota","State_Abbrev":"MN"},
"geometry":{ "type": "Point", "coordinates": [-95.94809,43.749112]}},
{ "type": "Feature", "properties": {"Name":"Litchfield city","State":"Minnesota","State_Abbrev":"MN"},
"geometry":{ "type": "Point", "coordinates": [-94.525901,45.12197]}},
{ "type": "Feature", "properties": {"Name":"Little Canada city","State":"Minnesota","State_Abbrev":"MN"},
"geometry":{ "type": "Point", "coordinates": [-93.083655,45.023265]}},
{ "type": "Feature", "properties": {"Name":"Little Falls city","State":"Minnesota","State_Abbrev":"MN"},
"geometry":{ "type": "Point", "coordinates": [-94.359676,45.985557]}},
{ "type": "Feature", "properties": {"Name":"Littlefork city","State":"Minnesota","State_Abbrev":"MN"},
"geometry":{ "type": "Point", "coordinates": [-93.557778,48.396427]}},
{ "type": "Feature", "properties": {"Name":"Little Rock CDP","State":"Minnesota","State_Abbrev":"MN"},
"geometry":{ "type": "Point", "coordinates": [-95.100155,47.864588]}},
{ "type": "Feature", "properties": {"Name":"Long Beach city","State":"Minnesota","State_Abbrev":"MN"},
"geometry":{ "type": "Point", "coordinates": [-95.430768,45.652051]}},
{ "type": "Feature", "properties": {"Name":"Long Lake city","State":"Minnesota","State_Abbrev":"MN"},
"geometry":{ "type": "Point", "coordinates": [-93.570054,44.983248]}},
{ "type": "Feature", "properties": {"Name":"Long Prairie city","State":"Minnesota","State_Abbrev":"MN"},
"geometry":{ "type": "Point", "coordinates": [-94.861352,45.97472]}},
{ "type": "Feature", "properties": {"Name":"Longville city","State":"Minnesota","State_Abbrev":"MN"},
"geometry":{ "type": "Point", "coordinates": [-94.211983,46.987368]}},
{ "type": "Feature", "properties": {"Name":"Lonsdale city","State":"Minnesota","State_Abbrev":"MN"},
"geometry":{ "type": "Point", "coordinates": [-93.424226,44.477631]}},
{ "type": "Feature", "properties": {"Name":"Loretto city","State":"Minnesota","State_Abbrev":"MN"},
"geometry":{ "type": "Point", "coordinates": [-93.635337,45.054769]}},
{ "type": "Feature", "properties": {"Name":"Louisburg city","State":"Minnesota","State_Abbrev":"MN"},
"geometry":{ "type": "Point", "coordinates": [-96.171064,45.164478]}},
{ "type": "Feature", "properties": {"Name":"Lowry city","State":"Minnesota","State_Abbrev":"MN"},
"geometry":{ "type": "Point", "coordinates": [-95.519086,45.704901]}},
{ "type": "Feature", "properties": {"Name":"Lucan city","State":"Minnesota","State_Abbrev":"MN"},
"geometry":{ "type": "Point", "coordinates": [-95.412945,44.410183]}},
{ "type": "Feature", "properties": {"Name":"Lutsen CDP","State":"Minnesota","State_Abbrev":"MN"},
"geometry":{ "type": "Point", "coordinates": [-90.692776,47.67443]}},
{ "type": "Feature", "properties": {"Name":"Luverne city","State":"Minnesota","State_Abbrev":"MN"},
"geometry":{ "type": "Point", "coordinates": [-96.215101,43.653565]}},
{ "type": "Feature", "properties": {"Name":"Lyle city","State":"Minnesota","State_Abbrev":"MN"},
"geometry":{ "type": "Point", "coordinates": [-92.941231,43.505852]}},
{ "type": "Feature", "properties": {"Name":"Lynd city","State":"Minnesota","State_Abbrev":"MN"},
"geometry":{ "type": "Point", "coordinates": [-95.874091,44.401754]}},
{ "type": "Feature", "properties": {"Name":"Mabel city","State":"Minnesota","State_Abbrev":"MN"},
"geometry":{ "type": "Point", "coordinates": [-91.768053,43.51984]}},
{ "type": "Feature", "properties": {"Name":"McGrath city","State":"Minnesota","State_Abbrev":"MN"},
"geometry":{ "type": "Point", "coordinates": [-93.275056,46.242136]}},
{ "type": "Feature", "properties": {"Name":"McGregor city","State":"Minnesota","State_Abbrev":"MN"},
"geometry":{ "type": "Point", "coordinates": [-93.299668,46.610434]}},
{ "type": "Feature", "properties": {"Name":"McIntosh city","State":"Minnesota","State_Abbrev":"MN"},
"geometry":{ "type": "Point", "coordinates": [-95.88701,47.637371]}},
{ "type": "Feature", "properties": {"Name":"McKinley city","State":"Minnesota","State_Abbrev":"MN"},
"geometry":{ "type": "Point", "coordinates": [-92.406529,47.50985]}},
{ "type": "Feature", "properties": {"Name":"Madelia city","State":"Minnesota","State_Abbrev":"MN"},
"geometry":{ "type": "Point", "coordinates": [-94.419927,44.048164]}},
{ "type": "Feature", "properties": {"Name":"Madison city","State":"Minnesota","State_Abbrev":"MN"},
"geometry":{ "type": "Point", "coordinates": [-96.189057,45.012763]}},
{ "type": "Feature", "properties": {"Name":"Madison Lake city","State":"Minnesota","State_Abbrev":"MN"},
"geometry":{ "type": "Point", "coordinates": [-93.817855,44.208059]}},
{ "type": "Feature", "properties": {"Name":"Magnolia city","State":"Minnesota","State_Abbrev":"MN"},
"geometry":{ "type": "Point", "coordinates": [-96.075282,43.644078]}},
{ "type": "Feature", "properties": {"Name":"Mahnomen city","State":"Minnesota","State_Abbrev":"MN"},
"geometry":{ "type": "Point", "coordinates": [-95.967389,47.314653]}},
{ "type": "Feature", "properties": {"Name":"Mahnomen CDP","State":"Minnesota","State_Abbrev":"MN"},
"geometry":{ "type": "Point", "coordinates": [-92.541752,46.773064]}},
{ "type": "Feature", "properties": {"Name":"Mahtomedi city","State":"Minnesota","State_Abbrev":"MN"},
"geometry":{ "type": "Point", "coordinates": [-92.970186,45.058292]}},
{ "type": "Feature", "properties": {"Name":"Mahtowa CDP","State":"Minnesota","State_Abbrev":"MN"},
"geometry":{ "type": "Point", "coordinates": [-92.636106,46.551745]}},
{ "type": "Feature", "properties": {"Name":"Manchester city","State":"Minnesota","State_Abbrev":"MN"},
"geometry":{ "type": "Point", "coordinates": [-93.45087,43.725424]}},
{ "type": "Feature", "properties": {"Name":"Manhattan Beach city","State":"Minnesota","State_Abbrev":"MN"},
"geometry":{ "type": "Point", "coordinates": [-94.143626,46.7356]}},
{ "type": "Feature", "properties": {"Name":"Mankato city","State":"Minnesota","State_Abbrev":"MN"},
"geometry":{ "type": "Point", "coordinates": [-93.97638,44.171122]}},
{ "type": "Feature", "properties": {"Name":"Mantorville city","State":"Minnesota","State_Abbrev":"MN"},
"geometry":{ "type": "Point", "coordinates": [-92.753757,44.065909]}},
{ "type": "Feature", "properties": {"Name":"Maple Grove city","State":"Minnesota","State_Abbrev":"MN"},
"geometry":{ "type": "Point", "coordinates": [-93.462975,45.112764]}},
{ "type": "Feature", "properties": {"Name":"Maple Lake city","State":"Minnesota","State_Abbrev":"MN"},
"geometry":{ "type": "Point", "coordinates": [-94.009546,45.232626]}},
{ "type": "Feature", "properties": {"Name":"Maple Plain city","State":"Minnesota","State_Abbrev":"MN"},
"geometry":{ "type": "Point", "coordinates": [-93.662369,45.008633]}},
{ "type": "Feature", "properties": {"Name":"Mapleton city","State":"Minnesota","State_Abbrev":"MN"},
"geometry":{ "type": "Point", "coordinates": [-93.955282,43.927138]}},
{ "type": "Feature", "properties": {"Name":"Mapleview city","State":"Minnesota","State_Abbrev":"MN"},
"geometry":{ "type": "Point", "coordinates": [-92.974,43.690063]}},
{ "type": "Feature", "properties": {"Name":"Maplewood city","State":"Minnesota","State_Abbrev":"MN"},
"geometry":{ "type": "Point", "coordinates": [-93.03106,45.019015]}},
{ "type": "Feature", "properties": {"Name":"Marble city","State":"Minnesota","State_Abbrev":"MN"},
"geometry":{ "type": "Point", "coordinates": [-93.291449,47.332601]}},
{ "type": "Feature", "properties": {"Name":"Marietta city","State":"Minnesota","State_Abbrev":"MN"},
"geometry":{ "type": "Point", "coordinates": [-96.418942,45.010489]}},
{ "type": "Feature", "properties": {"Name":"Marine on St. Croix city","State":"Minnesota","State_Abbrev":"MN"},
"geometry":{ "type": "Point", "coordinates": [-92.77843,45.190929]}},
{ "type": "Feature", "properties": {"Name":"Marion CDP","State":"Minnesota","State_Abbrev":"MN"},
"geometry":{ "type": "Point", "coordinates": [-92.353105,43.943115]}},
{ "type": "Feature", "properties": {"Name":"Marshall city","State":"Minnesota","State_Abbrev":"MN"},
"geometry":{ "type": "Point", "coordinates": [-95.789925,44.44852]}},
{ "type": "Feature", "properties": {"Name":"Martin Lake CDP","State":"Minnesota","State_Abbrev":"MN"},
"geometry":{ "type": "Point", "coordinates": [-93.08994,45.383384]}},
{ "type": "Feature", "properties": {"Name":"Mayer city","State":"Minnesota","State_Abbrev":"MN"},
"geometry":{ "type": "Point", "coordinates": [-93.894539,44.888916]}},
{ "type": "Feature", "properties": {"Name":"Maynard city","State":"Minnesota","State_Abbrev":"MN"},
"geometry":{ "type": "Point", "coordinates": [-95.468607,44.905587]}},
{ "type": "Feature", "properties": {"Name":"Mazeppa city","State":"Minnesota","State_Abbrev":"MN"},
"geometry":{ "type": "Point", "coordinates": [-92.540246,44.273689]}},
{ "type": "Feature", "properties": {"Name":"Meadowlands city","State":"Minnesota","State_Abbrev":"MN"},
"geometry":{ "type": "Point", "coordinates": [-92.731274,47.073102]}},
{ "type": "Feature", "properties": {"Name":"Medford city","State":"Minnesota","State_Abbrev":"MN"},
"geometry":{ "type": "Point", "coordinates": [-93.247259,44.168531]}},
{ "type": "Feature", "properties": {"Name":"Medicine Lake city","State":"Minnesota","State_Abbrev":"MN"},
"geometry":{ "type": "Point", "coordinates": [-93.418072,44.995786]}},
{ "type": "Feature", "properties": {"Name":"Medina city","State":"Minnesota","State_Abbrev":"MN"},
"geometry":{ "type": "Point", "coordinates": [-93.575598,45.03452]}},
{ "type": "Feature", "properties": {"Name":"Meire Grove city","State":"Minnesota","State_Abbrev":"MN"},
"geometry":{ "type": "Point", "coordinates": [-94.869394,45.626408]}},
{ "type": "Feature", "properties": {"Name":"Melrose city","State":"Minnesota","State_Abbrev":"MN"},
"geometry":{ "type": "Point", "coordinates": [-94.814774,45.677008]}},
{ "type": "Feature", "properties": {"Name":"Menahga city","State":"Minnesota","State_Abbrev":"MN"},
"geometry":{ "type": "Point", "coordinates": [-95.102864,46.753697]}},
{ "type": "Feature", "properties": {"Name":"Mendota city","State":"Minnesota","State_Abbrev":"MN"},
"geometry":{ "type": "Point", "coordinates": [-93.161716,44.887493]}},
{ "type": "Feature", "properties": {"Name":"Mendota Heights city","State":"Minnesota","State_Abbrev":"MN"},
"geometry":{ "type": "Point", "coordinates": [-93.133929,44.878932]}},
{ "type": "Feature", "properties": {"Name":"Mentor city","State":"Minnesota","State_Abbrev":"MN"},
"geometry":{ "type": "Point", "coordinates": [-96.144035,47.696662]}},
{ "type": "Feature", "properties": {"Name":"Merrifield CDP","State":"Minnesota","State_Abbrev":"MN"},
"geometry":{ "type": "Point", "coordinates": [-94.174627,46.467412]}},
{ "type": "Feature", "properties": {"Name":"Middle River city","State":"Minnesota","State_Abbrev":"MN"},
"geometry":{ "type": "Point", "coordinates": [-96.161722,48.43485]}},
{ "type": "Feature", "properties": {"Name":"Midway CDP","State":"Minnesota","State_Abbrev":"MN"},
"geometry":{ "type": "Point", "coordinates": [-95.779375,47.315943]}},
{ "type": "Feature", "properties": {"Name":"Miesville city","State":"Minnesota","State_Abbrev":"MN"},
"geometry":{ "type": "Point", "coordinates": [-92.81961,44.598982]}},
{ "type": "Feature", "properties": {"Name":"Milaca city","State":"Minnesota","State_Abbrev":"MN"},
"geometry":{ "type": "Point", "coordinates": [-93.651256,45.756748]}},
{ "type": "Feature", "properties": {"Name":"Milan city","State":"Minnesota","State_Abbrev":"MN"},
"geometry":{ "type": "Point", "coordinates": [-95.911829,45.112649]}},
{ "type": "Feature", "properties": {"Name":"Millerville city","State":"Minnesota","State_Abbrev":"MN"},
"geometry":{ "type": "Point", "coordinates": [-95.557004,46.069087]}},
{ "type": "Feature", "properties": {"Name":"Millville city","State":"Minnesota","State_Abbrev":"MN"},
"geometry":{ "type": "Point", "coordinates": [-92.296734,44.244329]}},
{ "type": "Feature", "properties": {"Name":"Milroy city","State":"Minnesota","State_Abbrev":"MN"},
"geometry":{ "type": "Point", "coordinates": [-95.553595,44.41775]}},
{ "type": "Feature", "properties": {"Name":"Miltona city","State":"Minnesota","State_Abbrev":"MN"},
"geometry":{ "type": "Point", "coordinates": [-95.293197,46.046258]}},
{ "type": "Feature", "properties": {"Name":"Minneapolis city","State":"Minnesota","State_Abbrev":"MN"},
"geometry":{ "type": "Point", "coordinates": [-93.26832,44.963324]}},
{ "type": "Feature", "properties": {"Name":"Minneiska city","State":"Minnesota","State_Abbrev":"MN"},
"geometry":{ "type": "Point", "coordinates": [-91.880651,44.197331]}},
{ "type": "Feature", "properties": {"Name":"Minneota city","State":"Minnesota","State_Abbrev":"MN"},
"geometry":{ "type": "Point", "coordinates": [-95.98272,44.562526]}},
{ "type": "Feature", "properties": {"Name":"Minnesota City city","State":"Minnesota","State_Abbrev":"MN"},
"geometry":{ "type": "Point", "coordinates": [-91.749995,44.092296]}},
{ "type": "Feature", "properties": {"Name":"Minnesota Lake city","State":"Minnesota","State_Abbrev":"MN"},
"geometry":{ "type": "Point", "coordinates": [-93.828978,43.84191]}},
{ "type": "Feature", "properties": {"Name":"Minnetonka city","State":"Minnesota","State_Abbrev":"MN"},
"geometry":{ "type": "Point", "coordinates": [-93.456705,44.93256]}},
{ "type": "Feature", "properties": {"Name":"Minnetonka Beach city","State":"Minnesota","State_Abbrev":"MN"},
"geometry":{ "type": "Point", "coordinates": [-93.587127,44.939625]}},
{ "type": "Feature", "properties": {"Name":"Minnetrista city","State":"Minnesota","State_Abbrev":"MN"},
"geometry":{ "type": "Point", "coordinates": [-93.712387,44.938619]}},
{ "type": "Feature", "properties": {"Name":"Mizpah city","State":"Minnesota","State_Abbrev":"MN"},
"geometry":{ "type": "Point", "coordinates": [-94.213179,47.920867]}},
{ "type": "Feature", "properties": {"Name":"Montevideo city","State":"Minnesota","State_Abbrev":"MN"},
"geometry":{ "type": "Point", "coordinates": [-95.715382,44.950165]}},
{ "type": "Feature", "properties": {"Name":"Montgomery city","State":"Minnesota","State_Abbrev":"MN"},
"geometry":{ "type": "Point", "coordinates": [-93.579753,44.445075]}},
{ "type": "Feature", "properties": {"Name":"Monticello city","State":"Minnesota","State_Abbrev":"MN"},
"geometry":{ "type": "Point", "coordinates": [-93.798323,45.297884]}},
{ "type": "Feature", "properties": {"Name":"Montrose city","State":"Minnesota","State_Abbrev":"MN"},
"geometry":{ "type": "Point", "coordinates": [-93.920253,45.066545]}},
{ "type": "Feature", "properties": {"Name":"Moorhead city","State":"Minnesota","State_Abbrev":"MN"},
"geometry":{ "type": "Point", "coordinates": [-96.744552,46.864704]}},
{ "type": "Feature", "properties": {"Name":"Moose Lake city","State":"Minnesota","State_Abbrev":"MN"},
"geometry":{ "type": "Point", "coordinates": [-92.760955,46.450299]}},
{ "type": "Feature", "properties": {"Name":"Mora city","State":"Minnesota","State_Abbrev":"MN"},
"geometry":{ "type": "Point", "coordinates": [-93.290284,45.876981]}},
{ "type": "Feature", "properties": {"Name":"Morgan city","State":"Minnesota","State_Abbrev":"MN"},
"geometry":{ "type": "Point", "coordinates": [-94.924889,44.415862]}},
{ "type": "Feature", "properties": {"Name":"Morris city","State":"Minnesota","State_Abbrev":"MN"},
"geometry":{ "type": "Point", "coordinates": [-95.905406,45.585879]}},
{ "type": "Feature", "properties": {"Name":"Morristown city","State":"Minnesota","State_Abbrev":"MN"},
"geometry":{ "type": "Point", "coordinates": [-93.445227,44.225203]}},
{ "type": "Feature", "properties": {"Name":"Morton city","State":"Minnesota","State_Abbrev":"MN"},
"geometry":{ "type": "Point", "coordinates": [-94.984321,44.553268]}},
{ "type": "Feature", "properties": {"Name":"Motley city","State":"Minnesota","State_Abbrev":"MN"},
"geometry":{ "type": "Point", "coordinates": [-94.642772,46.334754]}},
{ "type": "Feature", "properties": {"Name":"Mound city","State":"Minnesota","State_Abbrev":"MN"},
"geometry":{ "type": "Point", "coordinates": [-93.658302,44.93196]}},
{ "type": "Feature", "properties": {"Name":"Mounds View city","State":"Minnesota","State_Abbrev":"MN"},
"geometry":{ "type": "Point", "coordinates": [-93.206834,45.106737]}},
{ "type": "Feature", "properties": {"Name":"Mountain Iron city","State":"Minnesota","State_Abbrev":"MN"},
"geometry":{ "type": "Point", "coordinates": [-92.616572,47.53669]}},
{ "type": "Feature", "properties": {"Name":"Mountain Lake city","State":"Minnesota","State_Abbrev":"MN"},
"geometry":{ "type": "Point", "coordinates": [-94.927696,43.940133]}},
{ "type": "Feature", "properties": {"Name":"Murdock city","State":"Minnesota","State_Abbrev":"MN"},
"geometry":{ "type": "Point", "coordinates": [-95.394613,45.223392]}},
{ "type": "Feature", "properties": {"Name":"Myrtle city","State":"Minnesota","State_Abbrev":"MN"},
"geometry":{ "type": "Point", "coordinates": [-93.162987,43.563233]}},
{ "type": "Feature", "properties": {"Name":"Nashua city","State":"Minnesota","State_Abbrev":"MN"},
"geometry":{ "type": "Point", "coordinates": [-96.30598,46.03772]}},
{ "type": "Feature", "properties": {"Name":"Nashwauk city","State":"Minnesota","State_Abbrev":"MN"},
"geometry":{ "type": "Point", "coordinates": [-93.166686,47.379958]}},
{ "type": "Feature", "properties": {"Name":"Nassau city","State":"Minnesota","State_Abbrev":"MN"},
"geometry":{ "type": "Point", "coordinates": [-96.44176,45.067723]}},
{ "type": "Feature", "properties": {"Name":"Naytahwaush CDP","State":"Minnesota","State_Abbrev":"MN"},
"geometry":{ "type": "Point", "coordinates": [-95.627671,47.274921]}},
{ "type": "Feature", "properties": {"Name":"Nelson city","State":"Minnesota","State_Abbrev":"MN"},
"geometry":{ "type": "Point", "coordinates": [-95.264865,45.886537]}},
{ "type": "Feature", "properties": {"Name":"Nerstrand city","State":"Minnesota","State_Abbrev":"MN"},
"geometry":{ "type": "Point", "coordinates": [-93.063856,44.342944]}},
{ "type": "Feature", "properties": {"Name":"Nett Lake CDP","State":"Minnesota","State_Abbrev":"MN"},
"geometry":{ "type": "Point", "coordinates": [-93.081069,48.114619]}},
{ "type": "Feature", "properties": {"Name":"Nevis city","State":"Minnesota","State_Abbrev":"MN"},
"geometry":{ "type": "Point", "coordinates": [-94.842984,46.964831]}},
{ "type": "Feature", "properties": {"Name":"New Auburn city","State":"Minnesota","State_Abbrev":"MN"},
"geometry":{ "type": "Point", "coordinates": [-94.232022,44.672806]}},
{ "type": "Feature", "properties": {"Name":"New Brighton city","State":"Minnesota","State_Abbrev":"MN"},
"geometry":{ "type": "Point", "coordinates": [-93.205779,45.067226]}},
{ "type": "Feature", "properties": {"Name":"Newfolden city","State":"Minnesota","State_Abbrev":"MN"},
"geometry":{ "type": "Point", "coordinates": [-96.329729,48.356733]}},
{ "type": "Feature", "properties": {"Name":"New Germany city","State":"Minnesota","State_Abbrev":"MN"},
"geometry":{ "type": "Point", "coordinates": [-93.978093,44.880196]}},
{ "type": "Feature", "properties": {"Name":"New Hope city","State":"Minnesota","State_Abbrev":"MN"},
"geometry":{ "type": "Point", "coordinates": [-93.386886,45.035943]}},
{ "type": "Feature", "properties": {"Name":"New London city","State":"Minnesota","State_Abbrev":"MN"},
"geometry":{ "type": "Point", "coordinates": [-94.94753,45.296875]}},
{ "type": "Feature", "properties": {"Name":"New Munich city","State":"Minnesota","State_Abbrev":"MN"},
"geometry":{ "type": "Point", "coordinates": [-94.752499,45.630815]}},
{ "type": "Feature", "properties": {"Name":"Newport city","State":"Minnesota","State_Abbrev":"MN"},
"geometry":{ "type": "Point", "coordinates": [-92.998647,44.874399]}},
{ "type": "Feature", "properties": {"Name":"New Prague city","State":"Minnesota","State_Abbrev":"MN"},
"geometry":{ "type": "Point", "coordinates": [-93.575559,44.545736]}},
{ "type": "Feature", "properties": {"Name":"New Richland city","State":"Minnesota","State_Abbrev":"MN"},
"geometry":{ "type": "Point", "coordinates": [-93.493922,43.893914]}},
{ "type": "Feature", "properties": {"Name":"New Trier city","State":"Minnesota","State_Abbrev":"MN"},
"geometry":{ "type": "Point", "coordinates": [-92.932839,44.603801]}},
{ "type": "Feature", "properties": {"Name":"New Ulm city","State":"Minnesota","State_Abbrev":"MN"},
"geometry":{ "type": "Point", "coordinates": [-94.468896,44.312067]}},
{ "type": "Feature", "properties": {"Name":"New York Mills city","State":"Minnesota","State_Abbrev":"MN"},
"geometry":{ "type": "Point", "coordinates": [-95.37278,46.51963]}},
{ "type": "Feature", "properties": {"Name":"Nicollet city","State":"Minnesota","State_Abbrev":"MN"},
"geometry":{ "type": "Point", "coordinates": [-94.188069,44.274615]}},
{ "type": "Feature", "properties": {"Name":"Nielsville city","State":"Minnesota","State_Abbrev":"MN"},
"geometry":{ "type": "Point", "coordinates": [-96.815699,47.529323]}},
{ "type": "Feature", "properties": {"Name":"Nimrod city","State":"Minnesota","State_Abbrev":"MN"},
"geometry":{ "type": "Point", "coordinates": [-94.880637,46.635167]}},
{ "type": "Feature", "properties": {"Name":"Nisswa city","State":"Minnesota","State_Abbrev":"MN"},
"geometry":{ "type": "Point", "coordinates": [-94.297783,46.500661]}},
{ "type": "Feature", "properties": {"Name":"Norcross city","State":"Minnesota","State_Abbrev":"MN"},
"geometry":{ "type": "Point", "coordinates": [-96.196424,45.868708]}},
{ "type": "Feature", "properties": {"Name":"North Branch city","State":"Minnesota","State_Abbrev":"MN"},
"geometry":{ "type": "Point", "coordinates": [-92.944286,45.510939]}},
{ "type": "Feature", "properties": {"Name":"Northfield city","State":"Minnesota","State_Abbrev":"MN"},
"geometry":{ "type": "Point", "coordinates": [-93.175688,44.452669]}},
{ "type": "Feature", "properties": {"Name":"North Mankato city","State":"Minnesota","State_Abbrev":"MN"},
"geometry":{ "type": "Point", "coordinates": [-94.041128,44.182714]}},
{ "type": "Feature", "properties": {"Name":"North Oaks city","State":"Minnesota","State_Abbrev":"MN"},
"geometry":{ "type": "Point", "coordinates": [-93.101065,45.10484]}},
{ "type": "Feature", "properties": {"Name":"Northome city","State":"Minnesota","State_Abbrev":"MN"},
"geometry":{ "type": "Point", "coordinates": [-94.26831,47.874387]}},
{ "type": "Feature", "properties": {"Name":"Northrop city","State":"Minnesota","State_Abbrev":"MN"},
"geometry":{ "type": "Point", "coordinates": [-94.436615,43.735962]}},
{ "type": "Feature", "properties": {"Name":"North St. Paul city","State":"Minnesota","State_Abbrev":"MN"},
"geometry":{ "type": "Point", "coordinates": [-93.00184,45.013522]}},
{ "type": "Feature", "properties": {"Name":"Norwood Young America city","State":"Minnesota","State_Abbrev":"MN"},
"geometry":{ "type": "Point", "coordinates": [-93.917287,44.772107]}},
{ "type": "Feature", "properties": {"Name":"Nowthen city","State":"Minnesota","State_Abbrev":"MN"},
"geometry":{ "type": "Point", "coordinates": [-93.449553,45.343116]}},
{ "type": "Feature", "properties": {"Name":"Oakdale city","State":"Minnesota","State_Abbrev":"MN"},
"geometry":{ "type": "Point", "coordinates": [-92.963553,44.987546]}},
{ "type": "Feature", "properties": {"Name":"Oak Grove city","State":"Minnesota","State_Abbrev":"MN"},
"geometry":{ "type": "Point", "coordinates": [-93.32727,45.348351]}},
{ "type": "Feature", "properties": {"Name":"Oak Park Heights city","State":"Minnesota","State_Abbrev":"MN"},
"geometry":{ "type": "Point", "coordinates": [-92.810186,45.033432]}},
{ "type": "Feature", "properties": {"Name":"Odessa city","State":"Minnesota","State_Abbrev":"MN"},
"geometry":{ "type": "Point", "coordinates": [-96.33348,45.262184]}},
{ "type": "Feature", "properties": {"Name":"Odin city","State":"Minnesota","State_Abbrev":"MN"},
"geometry":{ "type": "Point", "coordinates": [-94.742762,43.86727]}},
{ "type": "Feature", "properties": {"Name":"Ogema city","State":"Minnesota","State_Abbrev":"MN"},
"geometry":{ "type": "Point", "coordinates": [-95.916567,47.10232]}},
{ "type": "Feature", "properties": {"Name":"Ogilvie city","State":"Minnesota","State_Abbrev":"MN"},
"geometry":{ "type": "Point", "coordinates": [-93.423042,45.829828]}},
{ "type": "Feature", "properties": {"Name":"Okabena city","State":"Minnesota","State_Abbrev":"MN"},
"geometry":{ "type": "Point", "coordinates": [-95.318758,43.739298]}},
{ "type": "Feature", "properties": {"Name":"Oklee city","State":"Minnesota","State_Abbrev":"MN"},
"geometry":{ "type": "Point", "coordinates": [-95.849548,47.838746]}},
{ "type": "Feature", "properties": {"Name":"Olivia city","State":"Minnesota","State_Abbrev":"MN"},
"geometry":{ "type": "Point", "coordinates": [-94.997158,44.777058]}},
{ "type": "Feature", "properties": {"Name":"Onamia city","State":"Minnesota","State_Abbrev":"MN"},
"geometry":{ "type": "Point", "coordinates": [-93.66705,46.070301]}},
{ "type": "Feature", "properties": {"Name":"Ormsby city","State":"Minnesota","State_Abbrev":"MN"},
"geometry":{ "type": "Point", "coordinates": [-94.698589,43.850369]}},
{ "type": "Feature", "properties": {"Name":"Orono city","State":"Minnesota","State_Abbrev":"MN"},
"geometry":{ "type": "Point", "coordinates": [-93.587728,44.96098]}},
{ "type": "Feature", "properties": {"Name":"Oronoco city","State":"Minnesota","State_Abbrev":"MN"},
"geometry":{ "type": "Point", "coordinates": [-92.539194,44.158446]}},
{ "type": "Feature", "properties": {"Name":"Orr city","State":"Minnesota","State_Abbrev":"MN"},
"geometry":{ "type": "Point", "coordinates": [-92.823568,48.05763]}},
{ "type": "Feature", "properties": {"Name":"Ortonville city","State":"Minnesota","State_Abbrev":"MN"},
"geometry":{ "type": "Point", "coordinates": [-96.442223,45.302445]}},
{ "type": "Feature", "properties": {"Name":"Osage CDP","State":"Minnesota","State_Abbrev":"MN"},
"geometry":{ "type": "Point", "coordinates": [-95.263086,46.928354]}},
{ "type": "Feature", "properties": {"Name":"Osakis city","State":"Minnesota","State_Abbrev":"MN"},
"geometry":{ "type": "Point", "coordinates": [-95.153072,45.865374]}},
{ "type": "Feature", "properties": {"Name":"Oslo city","State":"Minnesota","State_Abbrev":"MN"},
"geometry":{ "type": "Point", "coordinates": [-97.13144,48.195632]}},
{ "type": "Feature", "properties": {"Name":"Osseo city","State":"Minnesota","State_Abbrev":"MN"},
"geometry":{ "type": "Point", "coordinates": [-93.3992,45.117866]}},
{ "type": "Feature", "properties": {"Name":"Ostrander city","State":"Minnesota","State_Abbrev":"MN"},
"geometry":{ "type": "Point", "coordinates": [-92.426263,43.613734]}},
{ "type": "Feature", "properties": {"Name":"Otsego city","State":"Minnesota","State_Abbrev":"MN"},
"geometry":{ "type": "Point", "coordinates": [-93.620742,45.264286]}},
{ "type": "Feature", "properties": {"Name":"Ottertail city","State":"Minnesota","State_Abbrev":"MN"},
"geometry":{ "type": "Point", "coordinates": [-95.571171,46.431637]}},
{ "type": "Feature", "properties": {"Name":"Owatonna city","State":"Minnesota","State_Abbrev":"MN"},
"geometry":{ "type": "Point", "coordinates": [-93.231715,44.091904]}},
{ "type": "Feature", "properties": {"Name":"Palisade city","State":"Minnesota","State_Abbrev":"MN"},
"geometry":{ "type": "Point", "coordinates": [-93.489312,46.712723]}},
{ "type": "Feature", "properties": {"Name":"Parkers Prairie city","State":"Minnesota","State_Abbrev":"MN"},
"geometry":{ "type": "Point", "coordinates": [-95.328313,46.152827]}},
{ "type": "Feature", "properties": {"Name":"Park Rapids city","State":"Minnesota","State_Abbrev":"MN"},
"geometry":{ "type": "Point", "coordinates": [-95.057932,46.916394]}},
{ "type": "Feature", "properties": {"Name":"Paynesville city","State":"Minnesota","State_Abbrev":"MN"},
"geometry":{ "type": "Point", "coordinates": [-94.721592,45.378519]}},
{ "type": "Feature", "properties": {"Name":"Pease city","State":"Minnesota","State_Abbrev":"MN"},
"geometry":{ "type": "Point", "coordinates": [-93.648699,45.70079]}},
{ "type": "Feature", "properties": {"Name":"Pelican Rapids city","State":"Minnesota","State_Abbrev":"MN"},
"geometry":{ "type": "Point", "coordinates": [-96.085853,46.570281]}},
{ "type": "Feature", "properties": {"Name":"Pemberton city","State":"Minnesota","State_Abbrev":"MN"},
"geometry":{ "type": "Point", "coordinates": [-93.783893,44.008499]}},
{ "type": "Feature", "properties": {"Name":"Pennock city","State":"Minnesota","State_Abbrev":"MN"},
"geometry":{ "type": "Point", "coordinates": [-95.175033,45.145855]}},
{ "type": "Feature", "properties": {"Name":"Pequot Lakes city","State":"Minnesota","State_Abbrev":"MN"},
"geometry":{ "type": "Point", "coordinates": [-94.287969,46.588091]}},
{ "type": "Feature", "properties": {"Name":"Perham city","State":"Minnesota","State_Abbrev":"MN"},
"geometry":{ "type": "Point", "coordinates": [-95.577104,46.599611]}},
{ "type": "Feature", "properties": {"Name":"Perley city","State":"Minnesota","State_Abbrev":"MN"},
"geometry":{ "type": "Point", "coordinates": [-96.801521,47.176158]}},
{ "type": "Feature", "properties": {"Name":"Peterson city","State":"Minnesota","State_Abbrev":"MN"},
"geometry":{ "type": "Point", "coordinates": [-91.831968,43.788469]}},
{ "type": "Feature", "properties": {"Name":"Pickwick CDP","State":"Minnesota","State_Abbrev":"MN"},
"geometry":{ "type": "Point", "coordinates": [-91.494553,43.981591]}},
{ "type": "Feature", "properties": {"Name":"Pierz city","State":"Minnesota","State_Abbrev":"MN"},
"geometry":{ "type": "Point", "coordinates": [-94.10082,45.977198]}},
{ "type": "Feature", "properties": {"Name":"Pillager city","State":"Minnesota","State_Abbrev":"MN"},
"geometry":{ "type": "Point", "coordinates": [-94.477434,46.330798]}},
{ "type": "Feature", "properties": {"Name":"Pine Bend CDP","State":"Minnesota","State_Abbrev":"MN"},
"geometry":{ "type": "Point", "coordinates": [-95.596838,47.418251]}},
{ "type": "Feature", "properties": {"Name":"Pine City city","State":"Minnesota","State_Abbrev":"MN"},
"geometry":{ "type": "Point", "coordinates": [-92.966492,45.84098]}},
{ "type": "Feature", "properties": {"Name":"Pine Island city","State":"Minnesota","State_Abbrev":"MN"},
"geometry":{ "type": "Point", "coordinates": [-92.628119,44.198124]}},
{ "type": "Feature", "properties": {"Name":"Pine Point CDP","State":"Minnesota","State_Abbrev":"MN"},
"geometry":{ "type": "Point", "coordinates": [-95.400015,46.985338]}},
{ "type": "Feature", "properties": {"Name":"Pine River city","State":"Minnesota","State_Abbrev":"MN"},
"geometry":{ "type": "Point", "coordinates": [-94.396599,46.723289]}},
{ "type": "Feature", "properties": {"Name":"Pine Springs city","State":"Minnesota","State_Abbrev":"MN"},
"geometry":{ "type": "Point", "coordinates": [-92.95594,45.038031]}},
{ "type": "Feature", "properties": {"Name":"Pipestone city","State":"Minnesota","State_Abbrev":"MN"},
"geometry":{ "type": "Point", "coordinates": [-96.31108,43.995916]}},
{ "type": "Feature", "properties": {"Name":"Plainview city","State":"Minnesota","State_Abbrev":"MN"},
"geometry":{ "type": "Point", "coordinates": [-92.16919,44.164687]}},
{ "type": "Feature", "properties": {"Name":"Plato city","State":"Minnesota","State_Abbrev":"MN"},
"geometry":{ "type": "Point", "coordinates": [-94.039337,44.77235]}},
{ "type": "Feature", "properties": {"Name":"Plummer city","State":"Minnesota","State_Abbrev":"MN"},
"geometry":{ "type": "Point", "coordinates": [-96.041542,47.915166]}},
{ "type": "Feature", "properties": {"Name":"Plymouth city","State":"Minnesota","State_Abbrev":"MN"},
"geometry":{ "type": "Point", "coordinates": [-93.462883,45.022312]}},
{ "type": "Feature", "properties": {"Name":"Ponemah CDP","State":"Minnesota","State_Abbrev":"MN"},
"geometry":{ "type": "Point", "coordinates": [-94.898296,48.034837]}},
{ "type": "Feature", "properties": {"Name":"Porter city","State":"Minnesota","State_Abbrev":"MN"},
"geometry":{ "type": "Point", "coordinates": [-96.169869,44.641399]}},
{ "type": "Feature", "properties": {"Name":"Preston city","State":"Minnesota","State_Abbrev":"MN"},
"geometry":{ "type": "Point", "coordinates": [-92.082802,43.672567]}},
{ "type": "Feature", "properties": {"Name":"Princeton city","State":"Minnesota","State_Abbrev":"MN"},
"geometry":{ "type": "Point", "coordinates": [-93.590254,45.568215]}},
{ "type": "Feature", "properties": {"Name":"Prinsburg city","State":"Minnesota","State_Abbrev":"MN"},
"geometry":{ "type": "Point", "coordinates": [-95.187003,44.934915]}},
{ "type": "Feature", "properties": {"Name":"Prior Lake city","State":"Minnesota","State_Abbrev":"MN"},
"geometry":{ "type": "Point", "coordinates": [-93.440877,44.725594]}},
{ "type": "Feature", "properties": {"Name":"Proctor city","State":"Minnesota","State_Abbrev":"MN"},
"geometry":{ "type": "Point", "coordinates": [-92.228132,46.740786]}},
{ "type": "Feature", "properties": {"Name":"Quamba city","State":"Minnesota","State_Abbrev":"MN"},
"geometry":{ "type": "Point", "coordinates": [-93.175868,45.915045]}},
{ "type": "Feature", "properties": {"Name":"Racine city","State":"Minnesota","State_Abbrev":"MN"},
"geometry":{ "type": "Point", "coordinates": [-92.480969,43.77551]}},
{ "type": "Feature", "properties": {"Name":"Ramsey city","State":"Minnesota","State_Abbrev":"MN"},
"geometry":{ "type": "Point", "coordinates": [-93.452233,45.260019]}},
{ "type": "Feature", "properties": {"Name":"Randall city","State":"Minnesota","State_Abbrev":"MN"},
"geometry":{ "type": "Point", "coordinates": [-94.500718,46.088667]}},
{ "type": "Feature", "properties": {"Name":"Randolph city","State":"Minnesota","State_Abbrev":"MN"},
"geometry":{ "type": "Point", "coordinates": [-93.020642,44.526624]}},
{ "type": "Feature", "properties": {"Name":"Ranier city","State":"Minnesota","State_Abbrev":"MN"},
"geometry":{ "type": "Point", "coordinates": [-93.357296,48.604323]}},
{ "type": "Feature", "properties": {"Name":"Raymond city","State":"Minnesota","State_Abbrev":"MN"},
"geometry":{ "type": "Point", "coordinates": [-95.236681,45.018413]}},
{ "type": "Feature", "properties": {"Name":"Redby CDP","State":"Minnesota","State_Abbrev":"MN"},
"geometry":{ "type": "Point", "coordinates": [-94.903668,47.870044]}},
{ "type": "Feature", "properties": {"Name":"Red Lake CDP","State":"Minnesota","State_Abbrev":"MN"},
"geometry":{ "type": "Point", "coordinates": [-95.005018,47.869888]}},
{ "type": "Feature", "properties": {"Name":"Red Lake Falls city","State":"Minnesota","State_Abbrev":"MN"},
"geometry":{ "type": "Point", "coordinates": [-96.272727,47.883688]}},
{ "type": "Feature", "properties": {"Name":"Red Wing city","State":"Minnesota","State_Abbrev":"MN"},
"geometry":{ "type": "Point", "coordinates": [-92.605011,44.581265]}},
{ "type": "Feature", "properties": {"Name":"Redwood Falls city","State":"Minnesota","State_Abbrev":"MN"},
"geometry":{ "type": "Point", "coordinates": [-95.102637,44.547125]}},
{ "type": "Feature", "properties": {"Name":"Regal city","State":"Minnesota","State_Abbrev":"MN"},
"geometry":{ "type": "Point", "coordinates": [-94.83973,45.405377]}},
{ "type": "Feature", "properties": {"Name":"Remer city","State":"Minnesota","State_Abbrev":"MN"},
"geometry":{ "type": "Point", "coordinates": [-93.91259,47.056855]}},
{ "type": "Feature", "properties": {"Name":"Renville city","State":"Minnesota","State_Abbrev":"MN"},
"geometry":{ "type": "Point", "coordinates": [-95.204794,44.790785]}},
{ "type": "Feature", "properties": {"Name":"Revere city","State":"Minnesota","State_Abbrev":"MN"},
"geometry":{ "type": "Point", "coordinates": [-95.361148,44.221554]}},
{ "type": "Feature", "properties": {"Name":"Rice city","State":"Minnesota","State_Abbrev":"MN"},
"geometry":{ "type": "Point", "coordinates": [-94.242906,45.758617]}},
{ "type": "Feature", "properties": {"Name":"Rice Lake CDP","State":"Minnesota","State_Abbrev":"MN"},
"geometry":{ "type": "Point", "coordinates": [-95.524367,47.388299]}},
{ "type": "Feature", "properties": {"Name":"Rice Lake city","State":"Minnesota","State_Abbrev":"MN"},
"geometry":{ "type": "Point", "coordinates": [-92.132225,46.908901]}},
{ "type": "Feature", "properties": {"Name":"Richfield city","State":"Minnesota","State_Abbrev":"MN"},
"geometry":{ "type": "Point", "coordinates": [-93.282445,44.874354]}},
{ "type": "Feature", "properties": {"Name":"Richmond city","State":"Minnesota","State_Abbrev":"MN"},
"geometry":{ "type": "Point", "coordinates": [-94.513607,45.454513]}},
{ "type": "Feature", "properties": {"Name":"Richville city","State":"Minnesota","State_Abbrev":"MN"},
"geometry":{ "type": "Point", "coordinates": [-95.625871,46.505895]}},
{ "type": "Feature", "properties": {"Name":"Riverland CDP","State":"Minnesota","State_Abbrev":"MN"},
"geometry":{ "type": "Point", "coordinates": [-95.951066,47.322899]}},
{ "type": "Feature", "properties": {"Name":"Riverton city","State":"Minnesota","State_Abbrev":"MN"},
"geometry":{ "type": "Point", "coordinates": [-94.054461,46.457035]}},
{ "type": "Feature", "properties": {"Name":"Robbinsdale city","State":"Minnesota","State_Abbrev":"MN"},
"geometry":{ "type": "Point", "coordinates": [-93.330644,45.024534]}},
{ "type": "Feature", "properties": {"Name":"Rochester city","State":"Minnesota","State_Abbrev":"MN"},
"geometry":{ "type": "Point", "coordinates": [-92.47721,44.015442]}},
{ "type": "Feature", "properties": {"Name":"Rock Creek city","State":"Minnesota","State_Abbrev":"MN"},
"geometry":{ "type": "Point", "coordinates": [-92.903506,45.764654]}},
{ "type": "Feature", "properties": {"Name":"Rockford city","State":"Minnesota","State_Abbrev":"MN"},
"geometry":{ "type": "Point", "coordinates": [-93.74524,45.091179]}},
{ "type": "Feature", "properties": {"Name":"Rockville city","State":"Minnesota","State_Abbrev":"MN"},
"geometry":{ "type": "Point", "coordinates": [-94.318918,45.466049]}},
{ "type": "Feature", "properties": {"Name":"Rogers city","State":"Minnesota","State_Abbrev":"MN"},
"geometry":{ "type": "Point", "coordinates": [-93.571669,45.18385]}},
{ "type": "Feature", "properties": {"Name":"Rollingstone city","State":"Minnesota","State_Abbrev":"MN"},
"geometry":{ "type": "Point", "coordinates": [-91.818587,44.099397]}},
{ "type": "Feature", "properties": {"Name":"Ronneby CDP","State":"Minnesota","State_Abbrev":"MN"},
"geometry":{ "type": "Point", "coordinates": [-93.86011,45.685346]}},
{ "type": "Feature", "properties": {"Name":"Roosevelt city","State":"Minnesota","State_Abbrev":"MN"},
"geometry":{ "type": "Point", "coordinates": [-95.100969,48.806952]}},
{ "type": "Feature", "properties": {"Name":"Roscoe city","State":"Minnesota","State_Abbrev":"MN"},
"geometry":{ "type": "Point", "coordinates": [-94.636518,45.432334]}},
{ "type": "Feature", "properties": {"Name":"Roseau city","State":"Minnesota","State_Abbrev":"MN"},
"geometry":{ "type": "Point", "coordinates": [-95.762548,48.844446]}},
{ "type": "Feature", "properties": {"Name":"Rose Creek city","State":"Minnesota","State_Abbrev":"MN"},
"geometry":{ "type": "Point", "coordinates": [-92.828902,43.60446]}},
{ "type": "Feature", "properties": {"Name":"Rosemount city","State":"Minnesota","State_Abbrev":"MN"},
"geometry":{ "type": "Point", "coordinates": [-93.068864,44.745814]}},
{ "type": "Feature", "properties": {"Name":"Roseville city","State":"Minnesota","State_Abbrev":"MN"},
"geometry":{ "type": "Point", "coordinates": [-93.153807,45.015625]}},
{ "type": "Feature", "properties": {"Name":"Rothsay city","State":"Minnesota","State_Abbrev":"MN"},
"geometry":{ "type": "Point", "coordinates": [-96.284242,46.473091]}},
{ "type": "Feature", "properties": {"Name":"Round Lake city","State":"Minnesota","State_Abbrev":"MN"},
"geometry":{ "type": "Point", "coordinates": [-95.471926,43.537198]}},
{ "type": "Feature", "properties": {"Name":"Royalton city","State":"Minnesota","State_Abbrev":"MN"},
"geometry":{ "type": "Point", "coordinates": [-94.292615,45.830329]}},
{ "type": "Feature", "properties": {"Name":"Roy Lake CDP","State":"Minnesota","State_Abbrev":"MN"},
"geometry":{ "type": "Point", "coordinates": [-95.538731,47.316833]}},
{ "type": "Feature", "properties": {"Name":"Rush City city","State":"Minnesota","State_Abbrev":"MN"},
"geometry":{ "type": "Point", "coordinates": [-92.965303,45.687442]}},
{ "type": "Feature", "properties": {"Name":"Rushford city","State":"Minnesota","State_Abbrev":"MN"},
"geometry":{ "type": "Point", "coordinates": [-91.753828,43.813437]}},
{ "type": "Feature", "properties": {"Name":"Rushford Village city","State":"Minnesota","State_Abbrev":"MN"},
"geometry":{ "type": "Point", "coordinates": [-91.785578,43.804587]}},
{ "type": "Feature", "properties": {"Name":"Rushmore city","State":"Minnesota","State_Abbrev":"MN"},
"geometry":{ "type": "Point", "coordinates": [-95.79895,43.619708]}},
{ "type": "Feature", "properties": {"Name":"Russell city","State":"Minnesota","State_Abbrev":"MN"},
"geometry":{ "type": "Point", "coordinates": [-95.943997,44.320439]}},
{ "type": "Feature", "properties": {"Name":"Ruthton city","State":"Minnesota","State_Abbrev":"MN"},
"geometry":{ "type": "Point", "coordinates": [-96.103397,44.177479]}},
{ "type": "Feature", "properties": {"Name":"Rutledge city","State":"Minnesota","State_Abbrev":"MN"},
"geometry":{ "type": "Point", "coordinates": [-92.878205,46.25589]}},
{ "type": "Feature", "properties": {"Name":"Sabin city","State":"Minnesota","State_Abbrev":"MN"},
"geometry":{ "type": "Point", "coordinates": [-96.654227,46.781371]}},
{ "type": "Feature", "properties": {"Name":"Sacred Heart city","State":"Minnesota","State_Abbrev":"MN"},
"geometry":{ "type": "Point", "coordinates": [-95.350728,44.781715]}},
{ "type": "Feature", "properties": {"Name":"St. Anthony city","State":"Minnesota","State_Abbrev":"MN"},
"geometry":{ "type": "Point", "coordinates": [-93.215417,45.030332]}},
{ "type": "Feature", "properties": {"Name":"St. Anthony city","State":"Minnesota","State_Abbrev":"MN"},
"geometry":{ "type": "Point", "coordinates": [-94.61165,45.688967]}},
{ "type": "Feature", "properties": {"Name":"St. Augusta city","State":"Minnesota","State_Abbrev":"MN"},
"geometry":{ "type": "Point", "coordinates": [-94.193785,45.450173]}},
{ "type": "Feature", "properties": {"Name":"St. Bonifacius city","State":"Minnesota","State_Abbrev":"MN"},
"geometry":{ "type": "Point", "coordinates": [-93.748288,44.905066]}},
{ "type": "Feature", "properties": {"Name":"St. Charles city","State":"Minnesota","State_Abbrev":"MN"},
"geometry":{ "type": "Point", "coordinates": [-92.059295,43.968747]}},
{ "type": "Feature", "properties": {"Name":"St. Clair city","State":"Minnesota","State_Abbrev":"MN"},
"geometry":{ "type": "Point", "coordinates": [-93.860545,44.083885]}},
{ "type": "Feature", "properties": {"Name":"St. Cloud city","State":"Minnesota","State_Abbrev":"MN"},
"geometry":{ "type": "Point", "coordinates": [-94.171007,45.526658]}},
{ "type": "Feature", "properties": {"Name":"St. Francis city","State":"Minnesota","State_Abbrev":"MN"},
"geometry":{ "type": "Point", "coordinates": [-93.394117,45.394034]}},
{ "type": "Feature", "properties": {"Name":"St. Hilaire city","State":"Minnesota","State_Abbrev":"MN"},
"geometry":{ "type": "Point", "coordinates": [-96.21357,48.01316]}},
{ "type": "Feature", "properties": {"Name":"St. James city","State":"Minnesota","State_Abbrev":"MN"},
"geometry":{ "type": "Point", "coordinates": [-94.625392,43.983362]}},
{ "type": "Feature", "properties": {"Name":"St. John's University CDP","State":"Minnesota","State_Abbrev":"MN"},
"geometry":{ "type": "Point", "coordinates": [-94.391868,45.579722]}},
{ "type": "Feature", "properties": {"Name":"St. Joseph city","State":"Minnesota","State_Abbrev":"MN"},
"geometry":{ "type": "Point", "coordinates": [-94.30207,45.56507]}},
{ "type": "Feature", "properties": {"Name":"St. Leo city","State":"Minnesota","State_Abbrev":"MN"},
"geometry":{ "type": "Point", "coordinates": [-96.0526,44.717313]}},
{ "type": "Feature", "properties": {"Name":"St. Louis Park city","State":"Minnesota","State_Abbrev":"MN"},
"geometry":{ "type": "Point", "coordinates": [-93.365035,44.948681]}},
{ "type": "Feature", "properties": {"Name":"St. Martin city","State":"Minnesota","State_Abbrev":"MN"},
"geometry":{ "type": "Point", "coordinates": [-94.667741,45.502779]}},
{ "type": "Feature", "properties": {"Name":"St. Marys Point city","State":"Minnesota","State_Abbrev":"MN"},
"geometry":{ "type": "Point", "coordinates": [-92.770157,44.910548]}},
{ "type": "Feature", "properties": {"Name":"St. Michael city","State":"Minnesota","State_Abbrev":"MN"},
"geometry":{ "type": "Point", "coordinates": [-93.689526,45.199238]}},
{ "type": "Feature", "properties": {"Name":"St. Paul city","State":"Minnesota","State_Abbrev":"MN"},
"geometry":{ "type": "Point", "coordinates": [-93.104063,44.948901]}},
{ "type": "Feature", "properties": {"Name":"St. Paul Park city","State":"Minnesota","State_Abbrev":"MN"},
"geometry":{ "type": "Point", "coordinates": [-92.994128,44.83568]}},
{ "type": "Feature", "properties": {"Name":"St. Peter city","State":"Minnesota","State_Abbrev":"MN"},
"geometry":{ "type": "Point", "coordinates": [-93.967656,44.329282]}},
{ "type": "Feature", "properties": {"Name":"St. Rosa city","State":"Minnesota","State_Abbrev":"MN"},
"geometry":{ "type": "Point", "coordinates": [-94.713701,45.72679]}},
{ "type": "Feature", "properties": {"Name":"St. Stephen city","State":"Minnesota","State_Abbrev":"MN"},
"geometry":{ "type": "Point", "coordinates": [-94.274204,45.701039]}},
{ "type": "Feature", "properties": {"Name":"St. Vincent city","State":"Minnesota","State_Abbrev":"MN"},
"geometry":{ "type": "Point", "coordinates": [-97.226337,48.969125]}},
{ "type": "Feature", "properties": {"Name":"Sanborn city","State":"Minnesota","State_Abbrev":"MN"},
"geometry":{ "type": "Point", "coordinates": [-95.129477,44.210004]}},
{ "type": "Feature", "properties": {"Name":"Sandstone city","State":"Minnesota","State_Abbrev":"MN"},
"geometry":{ "type": "Point", "coordinates": [-92.864553,46.129036]}},
{ "type": "Feature", "properties": {"Name":"Sargeant city","State":"Minnesota","State_Abbrev":"MN"},
"geometry":{ "type": "Point", "coordinates": [-92.800174,43.806082]}},
{ "type": "Feature", "properties": {"Name":"Sartell city","State":"Minnesota","State_Abbrev":"MN"},
"geometry":{ "type": "Point", "coordinates": [-94.212153,45.61809]}},
{ "type": "Feature", "properties": {"Name":"Sauk Centre city","State":"Minnesota","State_Abbrev":"MN"},
"geometry":{ "type": "Point", "coordinates": [-94.952729,45.736472]}},
{ "type": "Feature", "properties": {"Name":"Sauk Rapids city","State":"Minnesota","State_Abbrev":"MN"},
"geometry":{ "type": "Point", "coordinates": [-94.152747,45.594724]}},
{ "type": "Feature", "properties": {"Name":"Savage city","State":"Minnesota","State_Abbrev":"MN"},
"geometry":{ "type": "Point", "coordinates": [-93.364213,44.759057]}},
{ "type": "Feature", "properties": {"Name":"Scandia city","State":"Minnesota","State_Abbrev":"MN"},
"geometry":{ "type": "Point", "coordinates": [-92.833409,45.251536]}},
{ "type": "Feature", "properties": {"Name":"Scanlon city","State":"Minnesota","State_Abbrev":"MN"},
"geometry":{ "type": "Point", "coordinates": [-92.42873,46.705945]}},
{ "type": "Feature", "properties": {"Name":"Seaforth city","State":"Minnesota","State_Abbrev":"MN"},
"geometry":{ "type": "Point", "coordinates": [-95.335862,44.475861]}},
{ "type": "Feature", "properties": {"Name":"Searles CDP","State":"Minnesota","State_Abbrev":"MN"},
"geometry":{ "type": "Point", "coordinates": [-94.436126,44.230751]}},
{ "type": "Feature", "properties": {"Name":"Sebeka city","State":"Minnesota","State_Abbrev":"MN"},
"geometry":{ "type": "Point", "coordinates": [-95.087882,46.629164]}},
{ "type": "Feature", "properties": {"Name":"Sedan city","State":"Minnesota","State_Abbrev":"MN"},
"geometry":{ "type": "Point", "coordinates": [-95.245295,45.578175]}},
{ "type": "Feature", "properties": {"Name":"Shafer city","State":"Minnesota","State_Abbrev":"MN"},
"geometry":{ "type": "Point", "coordinates": [-92.758343,45.389965]}},
{ "type": "Feature", "properties": {"Name":"Shakopee city","State":"Minnesota","State_Abbrev":"MN"},
"geometry":{ "type": "Point", "coordinates": [-93.475699,44.771906]}},
{ "type": "Feature", "properties": {"Name":"Shelly city","State":"Minnesota","State_Abbrev":"MN"},
"geometry":{ "type": "Point", "coordinates": [-96.819717,47.458194]}},
{ "type": "Feature", "properties": {"Name":"Sherburn city","State":"Minnesota","State_Abbrev":"MN"},
"geometry":{ "type": "Point", "coordinates": [-94.727489,43.6549]}},
{ "type": "Feature", "properties": {"Name":"Shevlin city","State":"Minnesota","State_Abbrev":"MN"},
"geometry":{ "type": "Point", "coordinates": [-95.259509,47.530146]}},
{ "type": "Feature", "properties": {"Name":"Shoreview city","State":"Minnesota","State_Abbrev":"MN"},
"geometry":{ "type": "Point", "coordinates": [-93.140492,45.082989]}},
{ "type": "Feature", "properties": {"Name":"Shorewood city","State":"Minnesota","State_Abbrev":"MN"},
"geometry":{ "type": "Point", "coordinates": [-93.595334,44.902442]}},
{ "type": "Feature", "properties": {"Name":"Silver Bay city","State":"Minnesota","State_Abbrev":"MN"},
"geometry":{ "type": "Point", "coordinates": [-91.276813,47.293311]}},
{ "type": "Feature", "properties": {"Name":"Silver Creek CDP","State":"Minnesota","State_Abbrev":"MN"},
"geometry":{ "type": "Point", "coordinates": [-93.98638,45.308206]}},
{ "type": "Feature", "properties": {"Name":"Silver Lake city","State":"Minnesota","State_Abbrev":"MN"},
"geometry":{ "type": "Point", "coordinates": [-94.198638,44.904169]}},
{ "type": "Feature", "properties": {"Name":"Skyline city","State":"Minnesota","State_Abbrev":"MN"},
"geometry":{ "type": "Point", "coordinates": [-94.033618,44.140892]}},
{ "type": "Feature", "properties": {"Name":"Slayton city","State":"Minnesota","State_Abbrev":"MN"},
"geometry":{ "type": "Point", "coordinates": [-95.758371,43.990229]}},
{ "type": "Feature", "properties": {"Name":"Sleepy Eye city","State":"Minnesota","State_Abbrev":"MN"},
"geometry":{ "type": "Point", "coordinates": [-94.723605,44.29896]}},
{ "type": "Feature", "properties": {"Name":"Sobieski city","State":"Minnesota","State_Abbrev":"MN"},
"geometry":{ "type": "Point", "coordinates": [-94.482024,45.923002]}},
{ "type": "Feature", "properties": {"Name":"Solway city","State":"Minnesota","State_Abbrev":"MN"},
"geometry":{ "type": "Point", "coordinates": [-95.130255,47.521044]}},
{ "type": "Feature", "properties": {"Name":"Soudan CDP","State":"Minnesota","State_Abbrev":"MN"},
"geometry":{ "type": "Point", "coordinates": [-92.235608,47.81301]}},
{ "type": "Feature", "properties": {"Name":"South End CDP","State":"Minnesota","State_Abbrev":"MN"},
"geometry":{ "type": "Point", "coordinates": [-95.478783,47.323094]}},
{ "type": "Feature", "properties": {"Name":"South Haven city","State":"Minnesota","State_Abbrev":"MN"},
"geometry":{ "type": "Point", "coordinates": [-94.217376,45.292736]}},
{ "type": "Feature", "properties": {"Name":"South St. Paul city","State":"Minnesota","State_Abbrev":"MN"},
"geometry":{ "type": "Point", "coordinates": [-93.040497,44.888027]}},
{ "type": "Feature", "properties": {"Name":"Spicer city","State":"Minnesota","State_Abbrev":"MN"},
"geometry":{ "type": "Point", "coordinates": [-94.939962,45.233643]}},
{ "type": "Feature", "properties": {"Name":"Springfield city","State":"Minnesota","State_Abbrev":"MN"},
"geometry":{ "type": "Point", "coordinates": [-94.981872,44.237214]}},
{ "type": "Feature", "properties": {"Name":"Spring Grove city","State":"Minnesota","State_Abbrev":"MN"},
"geometry":{ "type": "Point", "coordinates": [-91.636968,43.560754]}},
{ "type": "Feature", "properties": {"Name":"Spring Hill city","State":"Minnesota","State_Abbrev":"MN"},
"geometry":{ "type": "Point", "coordinates": [-94.831711,45.523239]}},
{ "type": "Feature", "properties": {"Name":"Spring Lake Park city","State":"Minnesota","State_Abbrev":"MN"},
"geometry":{ "type": "Point", "coordinates": [-93.245164,45.11593]}},
{ "type": "Feature", "properties": {"Name":"Spring Park city","State":"Minnesota","State_Abbrev":"MN"},
"geometry":{ "type": "Point", "coordinates": [-93.63011,44.935926]}},
{ "type": "Feature", "properties": {"Name":"Spring Valley city","State":"Minnesota","State_Abbrev":"MN"},
"geometry":{ "type": "Point", "coordinates": [-92.389765,43.688803]}},
{ "type": "Feature", "properties": {"Name":"Squaw Lake city","State":"Minnesota","State_Abbrev":"MN"},
"geometry":{ "type": "Point", "coordinates": [-94.137439,47.620687]}},
{ "type": "Feature", "properties": {"Name":"Stacy city","State":"Minnesota","State_Abbrev":"MN"},
"geometry":{ "type": "Point", "coordinates": [-92.985974,45.395404]}},
{ "type": "Feature", "properties": {"Name":"Stanchfield CDP","State":"Minnesota","State_Abbrev":"MN"},
"geometry":{ "type": "Point", "coordinates": [-93.181684,45.663247]}},
{ "type": "Feature", "properties": {"Name":"Staples city","State":"Minnesota","State_Abbrev":"MN"},
"geometry":{ "type": "Point", "coordinates": [-94.815011,46.372154]}},
{ "type": "Feature", "properties": {"Name":"Starbuck city","State":"Minnesota","State_Abbrev":"MN"},
"geometry":{ "type": "Point", "coordinates": [-95.532189,45.611628]}},
{ "type": "Feature", "properties": {"Name":"Steen city","State":"Minnesota","State_Abbrev":"MN"},
"geometry":{ "type": "Point", "coordinates": [-96.263083,43.514305]}},
{ "type": "Feature", "properties": {"Name":"Stephen city","State":"Minnesota","State_Abbrev":"MN"},
"geometry":{ "type": "Point", "coordinates": [-96.876337,48.452415]}},
{ "type": "Feature", "properties": {"Name":"Stewart city","State":"Minnesota","State_Abbrev":"MN"},
"geometry":{ "type": "Point", "coordinates": [-94.486595,44.723772]}},
{ "type": "Feature", "properties": {"Name":"Stewartville city","State":"Minnesota","State_Abbrev":"MN"},
"geometry":{ "type": "Point", "coordinates": [-92.489658,43.860645]}},
{ "type": "Feature", "properties": {"Name":"Stillwater city","State":"Minnesota","State_Abbrev":"MN"},
"geometry":{ "type": "Point", "coordinates": [-92.830408,45.058606]}},
{ "type": "Feature", "properties": {"Name":"Stockton city","State":"Minnesota","State_Abbrev":"MN"},
"geometry":{ "type": "Point", "coordinates": [-91.76971,44.027113]}},
{ "type": "Feature", "properties": {"Name":"Storden city","State":"Minnesota","State_Abbrev":"MN"},
"geometry":{ "type": "Point", "coordinates": [-95.319272,44.039616]}},
{ "type": "Feature", "properties": {"Name":"Strandquist city","State":"Minnesota","State_Abbrev":"MN"},
"geometry":{ "type": "Point", "coordinates": [-96.447928,48.489396]}},
{ "type": "Feature", "properties": {"Name":"Strathcona city","State":"Minnesota","State_Abbrev":"MN"},
"geometry":{ "type": "Point", "coordinates": [-96.167045,48.553705]}},
{ "type": "Feature", "properties": {"Name":"Sturgeon Lake city","State":"Minnesota","State_Abbrev":"MN"},
"geometry":{ "type": "Point", "coordinates": [-92.822118,46.390335]}},
{ "type": "Feature", "properties": {"Name":"Sunburg city","State":"Minnesota","State_Abbrev":"MN"},
"geometry":{ "type": "Point", "coordinates": [-95.239819,45.348017]}},
{ "type": "Feature", "properties": {"Name":"Sunfish Lake city","State":"Minnesota","State_Abbrev":"MN"},
"geometry":{ "type": "Point", "coordinates": [-93.086963,44.872673]}},
{ "type": "Feature", "properties": {"Name":"Swanville city","State":"Minnesota","State_Abbrev":"MN"},
"geometry":{ "type": "Point", "coordinates": [-94.638792,45.916175]}},
{ "type": "Feature", "properties": {"Name":"Taconite city","State":"Minnesota","State_Abbrev":"MN"},
"geometry":{ "type": "Point", "coordinates": [-93.382848,47.317896]}},
{ "type": "Feature", "properties": {"Name":"Tamarack city","State":"Minnesota","State_Abbrev":"MN"},
"geometry":{ "type": "Point", "coordinates": [-93.12496,46.652958]}},
{ "type": "Feature", "properties": {"Name":"Taopi city","State":"Minnesota","State_Abbrev":"MN"},
"geometry":{ "type": "Point", "coordinates": [-92.640411,43.557486]}},
{ "type": "Feature", "properties": {"Name":"Taunton city","State":"Minnesota","State_Abbrev":"MN"},
"geometry":{ "type": "Point", "coordinates": [-96.062947,44.59424]}},
{ "type": "Feature", "properties": {"Name":"Taylors Falls city","State":"Minnesota","State_Abbrev":"MN"},
"geometry":{ "type": "Point", "coordinates": [-92.673632,45.405611]}},
{ "type": "Feature", "properties": {"Name":"Tenstrike city","State":"Minnesota","State_Abbrev":"MN"},
"geometry":{ "type": "Point", "coordinates": [-94.68391,47.659447]}},
{ "type": "Feature", "properties": {"Name":"The Lakes CDP","State":"Minnesota","State_Abbrev":"MN"},
"geometry":{ "type": "Point", "coordinates": [-95.670244,44.104869]}},
{ "type": "Feature", "properties": {"Name":"The Ranch CDP","State":"Minnesota","State_Abbrev":"MN"},
"geometry":{ "type": "Point", "coordinates": [-95.695154,47.319773]}},
{ "type": "Feature", "properties": {"Name":"Thief River Falls city","State":"Minnesota","State_Abbrev":"MN"},
"geometry":{ "type": "Point", "coordinates": [-96.177562,48.111241]}},
{ "type": "Feature", "properties": {"Name":"Tintah city","State":"Minnesota","State_Abbrev":"MN"},
"geometry":{ "type": "Point", "coordinates": [-96.320091,46.010831]}},
{ "type": "Feature", "properties": {"Name":"Tonka Bay city","State":"Minnesota","State_Abbrev":"MN"},
"geometry":{ "type": "Point", "coordinates": [-93.585542,44.914403]}},
{ "type": "Feature", "properties": {"Name":"Tower city","State":"Minnesota","State_Abbrev":"MN"},
"geometry":{ "type": "Point", "coordinates": [-92.27469,47.815753]}},
{ "type": "Feature", "properties": {"Name":"Tracy city","State":"Minnesota","State_Abbrev":"MN"},
"geometry":{ "type": "Point", "coordinates": [-95.620851,44.24039]}},
{ "type": "Feature", "properties": {"Name":"Trail city","State":"Minnesota","State_Abbrev":"MN"},
"geometry":{ "type": "Point", "coordinates": [-95.698034,47.783285]}},
{ "type": "Feature", "properties": {"Name":"Trimont city","State":"Minnesota","State_Abbrev":"MN"},
"geometry":{ "type": "Point", "coordinates": [-94.716232,43.761045]}},
{ "type": "Feature", "properties": {"Name":"Trommald city","State":"Minnesota","State_Abbrev":"MN"},
"geometry":{ "type": "Point", "coordinates": [-94.015179,46.507744]}},
{ "type": "Feature", "properties": {"Name":"Trosky city","State":"Minnesota","State_Abbrev":"MN"},
"geometry":{ "type": "Point", "coordinates": [-96.247833,43.89]}},
{ "type": "Feature", "properties": {"Name":"Truman city","State":"Minnesota","State_Abbrev":"MN"},
"geometry":{ "type": "Point", "coordinates": [-94.436569,43.827872]}},
{ "type": "Feature", "properties": {"Name":"Turtle River city","State":"Minnesota","State_Abbrev":"MN"},
"geometry":{ "type": "Point", "coordinates": [-94.758264,47.588353]}},
{ "type": "Feature", "properties": {"Name":"Twin Lakes city","State":"Minnesota","State_Abbrev":"MN"},
"geometry":{ "type": "Point", "coordinates": [-93.423478,43.561114]}},
{ "type": "Feature", "properties": {"Name":"Twin Lakes CDP","State":"Minnesota","State_Abbrev":"MN"},
"geometry":{ "type": "Point", "coordinates": [-95.648816,47.219043]}},
{ "type": "Feature", "properties": {"Name":"Twin Valley city","State":"Minnesota","State_Abbrev":"MN"},
"geometry":{ "type": "Point", "coordinates": [-96.259189,47.258871]}},
{ "type": "Feature", "properties": {"Name":"Two Harbors city","State":"Minnesota","State_Abbrev":"MN"},
"geometry":{ "type": "Point", "coordinates": [-91.675744,47.029954]}},
{ "type": "Feature", "properties": {"Name":"Tyler city","State":"Minnesota","State_Abbrev":"MN"},
"geometry":{ "type": "Point", "coordinates": [-96.1361,44.277941]}},
{ "type": "Feature", "properties": {"Name":"Ulen city","State":"Minnesota","State_Abbrev":"MN"},
"geometry":{ "type": "Point", "coordinates": [-96.258209,47.078152]}},
{ "type": "Feature", "properties": {"Name":"Underwood city","State":"Minnesota","State_Abbrev":"MN"},
"geometry":{ "type": "Point", "coordinates": [-95.872798,46.291145]}},
{ "type": "Feature", "properties": {"Name":"Upsala city","State":"Minnesota","State_Abbrev":"MN"},
"geometry":{ "type": "Point", "coordinates": [-94.563729,45.812893]}},
{ "type": "Feature", "properties": {"Name":"Urbank city","State":"Minnesota","State_Abbrev":"MN"},
"geometry":{ "type": "Point", "coordinates": [-95.51006,46.124024]}},
{ "type": "Feature", "properties": {"Name":"Utica city","State":"Minnesota","State_Abbrev":"MN"},
"geometry":{ "type": "Point", "coordinates": [-91.949457,43.977166]}},
{ "type": "Feature", "properties": {"Name":"Vadnais Heights city","State":"Minnesota","State_Abbrev":"MN"},
"geometry":{ "type": "Point", "coordinates": [-93.066454,45.057938]}},
{ "type": "Feature", "properties": {"Name":"Vergas city","State":"Minnesota","State_Abbrev":"MN"},
"geometry":{ "type": "Point", "coordinates": [-95.802262,46.648579]}},
{ "type": "Feature", "properties": {"Name":"Vermillion city","State":"Minnesota","State_Abbrev":"MN"},
"geometry":{ "type": "Point", "coordinates": [-92.963426,44.669691]}},
{ "type": "Feature", "properties": {"Name":"Verndale city","State":"Minnesota","State_Abbrev":"MN"},
"geometry":{ "type": "Point", "coordinates": [-95.012151,46.396883]}},
{ "type": "Feature", "properties": {"Name":"Vernon Center city","State":"Minnesota","State_Abbrev":"MN"},
"geometry":{ "type": "Point", "coordinates": [-94.166881,43.962365]}},
{ "type": "Feature", "properties": {"Name":"Vesta city","State":"Minnesota","State_Abbrev":"MN"},
"geometry":{ "type": "Point", "coordinates": [-95.414074,44.506633]}},
{ "type": "Feature", "properties": {"Name":"Victoria city","State":"Minnesota","State_Abbrev":"MN"},
"geometry":{ "type": "Point", "coordinates": [-93.658426,44.862117]}},
{ "type": "Feature", "properties": {"Name":"Viking city","State":"Minnesota","State_Abbrev":"MN"},
"geometry":{ "type": "Point", "coordinates": [-96.406784,48.2182]}},
{ "type": "Feature", "properties": {"Name":"Villard city","State":"Minnesota","State_Abbrev":"MN"},
"geometry":{ "type": "Point", "coordinates": [-95.269852,45.713438]}},
{ "type": "Feature", "properties": {"Name":"Vineland CDP","State":"Minnesota","State_Abbrev":"MN"},
"geometry":{ "type": "Point", "coordinates": [-93.781161,46.179281]}},
{ "type": "Feature", "properties": {"Name":"Vining city","State":"Minnesota","State_Abbrev":"MN"},
"geometry":{ "type": "Point", "coordinates": [-95.535893,46.257406]}},
{ "type": "Feature", "properties": {"Name":"Virginia city","State":"Minnesota","State_Abbrev":"MN"},
"geometry":{ "type": "Point", "coordinates": [-92.517602,47.527955]}},
{ "type": "Feature", "properties": {"Name":"Wabasha city","State":"Minnesota","State_Abbrev":"MN"},
"geometry":{ "type": "Point", "coordinates": [-92.0457,44.371107]}},
{ "type": "Feature", "properties": {"Name":"Wabasso city","State":"Minnesota","State_Abbrev":"MN"},
"geometry":{ "type": "Point", "coordinates": [-95.255412,44.402517]}},
{ "type": "Feature", "properties": {"Name":"Waconia city","State":"Minnesota","State_Abbrev":"MN"},
"geometry":{ "type": "Point", "coordinates": [-93.790092,44.84153]}},
{ "type": "Feature", "properties": {"Name":"Wadena city","State":"Minnesota","State_Abbrev":"MN"},
"geometry":{ "type": "Point", "coordinates": [-95.126697,46.447194]}},
{ "type": "Feature", "properties": {"Name":"Wahkon city","State":"Minnesota","State_Abbrev":"MN"},
"geometry":{ "type": "Point", "coordinates": [-93.522383,46.120021]}},
{ "type": "Feature", "properties": {"Name":"Waite Park city","State":"Minnesota","State_Abbrev":"MN"},
"geometry":{ "type": "Point", "coordinates": [-94.242982,45.520868]}},
{ "type": "Feature", "properties": {"Name":"Waldorf city","State":"Minnesota","State_Abbrev":"MN"},
"geometry":{ "type": "Point", "coordinates": [-93.69756,43.933149]}},
{ "type": "Feature", "properties": {"Name":"Walker city","State":"Minnesota","State_Abbrev":"MN"},
"geometry":{ "type": "Point", "coordinates": [-94.586932,47.090803]}},
{ "type": "Feature", "properties": {"Name":"Walnut Grove city","State":"Minnesota","State_Abbrev":"MN"},
"geometry":{ "type": "Point", "coordinates": [-95.469189,44.225005]}},
{ "type": "Feature", "properties": {"Name":"Walters city","State":"Minnesota","State_Abbrev":"MN"},
"geometry":{ "type": "Point", "coordinates": [-93.674346,43.604928]}},
{ "type": "Feature", "properties": {"Name":"Waltham city","State":"Minnesota","State_Abbrev":"MN"},
"geometry":{ "type": "Point", "coordinates": [-92.874625,43.819315]}},
{ "type": "Feature", "properties": {"Name":"Wanamingo city","State":"Minnesota","State_Abbrev":"MN"},
"geometry":{ "type": "Point", "coordinates": [-92.787281,44.302775]}},
{ "type": "Feature", "properties": {"Name":"Wanda city","State":"Minnesota","State_Abbrev":"MN"},
"geometry":{ "type": "Point", "coordinates": [-95.213542,44.313221]}},
{ "type": "Feature", "properties": {"Name":"Warba city","State":"Minnesota","State_Abbrev":"MN"},
"geometry":{ "type": "Point", "coordinates": [-93.27006,47.135623]}},
{ "type": "Feature", "properties": {"Name":"Warren city","State":"Minnesota","State_Abbrev":"MN"},
"geometry":{ "type": "Point", "coordinates": [-96.768816,48.194034]}},
{ "type": "Feature", "properties": {"Name":"Warroad city","State":"Minnesota","State_Abbrev":"MN"},
"geometry":{ "type": "Point", "coordinates": [-95.327984,48.917103]}},
{ "type": "Feature", "properties": {"Name":"Warsaw CDP","State":"Minnesota","State_Abbrev":"MN"},
"geometry":{ "type": "Point", "coordinates": [-93.376876,44.262189]}},
{ "type": "Feature", "properties": {"Name":"Waseca city","State":"Minnesota","State_Abbrev":"MN"},
"geometry":{ "type": "Point", "coordinates": [-93.503954,44.081533]}},
{ "type": "Feature", "properties": {"Name":"Watertown city","State":"Minnesota","State_Abbrev":"MN"},
"geometry":{ "type": "Point", "coordinates": [-93.843921,44.960214]}},
{ "type": "Feature", "properties": {"Name":"Waterville city","State":"Minnesota","State_Abbrev":"MN"},
"geometry":{ "type": "Point", "coordinates": [-93.572571,44.221886]}},
{ "type": "Feature", "properties": {"Name":"Watkins city","State":"Minnesota","State_Abbrev":"MN"},
"geometry":{ "type": "Point", "coordinates": [-94.412004,45.315829]}},
{ "type": "Feature", "properties": {"Name":"Watson city","State":"Minnesota","State_Abbrev":"MN"},
"geometry":{ "type": "Point", "coordinates": [-95.799777,45.010065]}},
{ "type": "Feature", "properties": {"Name":"Waubun city","State":"Minnesota","State_Abbrev":"MN"},
"geometry":{ "type": "Point", "coordinates": [-95.940124,47.183916]}},
{ "type": "Feature", "properties": {"Name":"Waverly city","State":"Minnesota","State_Abbrev":"MN"},
"geometry":{ "type": "Point", "coordinates": [-93.966628,45.06374]}},
{ "type": "Feature", "properties": {"Name":"Wayzata city","State":"Minnesota","State_Abbrev":"MN"},
"geometry":{ "type": "Point", "coordinates": [-93.518214,44.969981]}},
{ "type": "Feature", "properties": {"Name":"Welcome city","State":"Minnesota","State_Abbrev":"MN"},
"geometry":{ "type": "Point", "coordinates": [-94.607302,43.666246]}},
{ "type": "Feature", "properties": {"Name":"Wells city","State":"Minnesota","State_Abbrev":"MN"},
"geometry":{ "type": "Point", "coordinates": [-93.732947,43.743211]}},
{ "type": "Feature", "properties": {"Name":"Wendell city","State":"Minnesota","State_Abbrev":"MN"},
"geometry":{ "type": "Point", "coordinates": [-96.100817,46.035908]}},
{ "type": "Feature", "properties": {"Name":"Westbrook city","State":"Minnesota","State_Abbrev":"MN"},
"geometry":{ "type": "Point", "coordinates": [-95.437489,44.042214]}},
{ "type": "Feature", "properties": {"Name":"West Concord city","State":"Minnesota","State_Abbrev":"MN"},
"geometry":{ "type": "Point", "coordinates": [-92.900003,44.152818]}},
{ "type": "Feature", "properties": {"Name":"Westport city","State":"Minnesota","State_Abbrev":"MN"},
"geometry":{ "type": "Point", "coordinates": [-95.167917,45.714515]}},
{ "type": "Feature", "properties": {"Name":"West Roy Lake CDP","State":"Minnesota","State_Abbrev":"MN"},
"geometry":{ "type": "Point", "coordinates": [-95.595442,47.311549]}},
{ "type": "Feature", "properties": {"Name":"West St. Paul city","State":"Minnesota","State_Abbrev":"MN"},
"geometry":{ "type": "Point", "coordinates": [-93.085327,44.902414]}},
{ "type": "Feature", "properties": {"Name":"West Union city","State":"Minnesota","State_Abbrev":"MN"},
"geometry":{ "type": "Point", "coordinates": [-95.082685,45.804202]}},
{ "type": "Feature", "properties": {"Name":"Whalan city","State":"Minnesota","State_Abbrev":"MN"},
"geometry":{ "type": "Point", "coordinates": [-91.925022,43.73318]}},
{ "type": "Feature", "properties": {"Name":"Wheaton city","State":"Minnesota","State_Abbrev":"MN"},
"geometry":{ "type": "Point", "coordinates": [-96.498048,45.80588]}},
{ "type": "Feature", "properties": {"Name":"Whipholt CDP","State":"Minnesota","State_Abbrev":"MN"},
"geometry":{ "type": "Point", "coordinates": [-94.385438,47.040458]}},
{ "type": "Feature", "properties": {"Name":"White Bear Lake city","State":"Minnesota","State_Abbrev":"MN"},
"geometry":{ "type": "Point", "coordinates": [-93.012871,45.065214]}},
{ "type": "Feature", "properties": {"Name":"White Earth CDP","State":"Minnesota","State_Abbrev":"MN"},
"geometry":{ "type": "Point", "coordinates": [-95.857318,47.101357]}},
{ "type": "Feature", "properties": {"Name":"Wilder city","State":"Minnesota","State_Abbrev":"MN"},
"geometry":{ "type": "Point", "coordinates": [-95.207805,43.828862]}},
{ "type": "Feature", "properties": {"Name":"Willernie city","State":"Minnesota","State_Abbrev":"MN"},
"geometry":{ "type": "Point", "coordinates": [-92.957987,45.053731]}},
{ "type": "Feature", "properties": {"Name":"Williams city","State":"Minnesota","State_Abbrev":"MN"},
"geometry":{ "type": "Point", "coordinates": [-94.953304,48.767954]}},
{ "type": "Feature", "properties": {"Name":"Willmar city","State":"Minnesota","State_Abbrev":"MN"},
"geometry":{ "type": "Point", "coordinates": [-95.058651,45.121042]}},
{ "type": "Feature", "properties": {"Name":"Willow River city","State":"Minnesota","State_Abbrev":"MN"},
"geometry":{ "type": "Point", "coordinates": [-92.829961,46.323766]}},
{ "type": "Feature", "properties": {"Name":"Wilmont city","State":"Minnesota","State_Abbrev":"MN"},
"geometry":{ "type": "Point", "coordinates": [-95.82633,43.763861]}},
{ "type": "Feature", "properties": {"Name":"Wilton city","State":"Minnesota","State_Abbrev":"MN"},
"geometry":{ "type": "Point", "coordinates": [-94.999767,47.50748]}},
{ "type": "Feature", "properties": {"Name":"Windom city","State":"Minnesota","State_Abbrev":"MN"},
"geometry":{ "type": "Point", "coordinates": [-95.119136,43.873552]}},
{ "type": "Feature", "properties": {"Name":"Winger city","State":"Minnesota","State_Abbrev":"MN"},
"geometry":{ "type": "Point", "coordinates": [-95.985969,47.536303]}},
{ "type": "Feature", "properties": {"Name":"Winnebago city","State":"Minnesota","State_Abbrev":"MN"},
"geometry":{ "type": "Point", "coordinates": [-94.170634,43.764946]}},
{ "type": "Feature", "properties": {"Name":"Winona city","State":"Minnesota","State_Abbrev":"MN"},
"geometry":{ "type": "Point", "coordinates": [-91.668076,44.051271]}},
{ "type": "Feature", "properties": {"Name":"Winsted city","State":"Minnesota","State_Abbrev":"MN"},
"geometry":{ "type": "Point", "coordinates": [-94.050277,44.958192]}},
{ "type": "Feature", "properties": {"Name":"Winthrop city","State":"Minnesota","State_Abbrev":"MN"},
"geometry":{ "type": "Point", "coordinates": [-94.360013,44.542254]}},
{ "type": "Feature", "properties": {"Name":"Winton city","State":"Minnesota","State_Abbrev":"MN"},
"geometry":{ "type": "Point", "coordinates": [-91.801294,47.92917]}},
{ "type": "Feature", "properties": {"Name":"Wolf Lake city","State":"Minnesota","State_Abbrev":"MN"},
"geometry":{ "type": "Point", "coordinates": [-95.35034,46.8101]}},
{ "type": "Feature", "properties": {"Name":"Wolverton city","State":"Minnesota","State_Abbrev":"MN"},
"geometry":{ "type": "Point", "coordinates": [-96.736245,46.563031]}},
{ "type": "Feature", "properties": {"Name":"Woodbury city","State":"Minnesota","State_Abbrev":"MN"},
"geometry":{ "type": "Point", "coordinates": [-92.923703,44.906283]}},
{ "type": "Feature", "properties": {"Name":"Wood Lake city","State":"Minnesota","State_Abbrev":"MN"},
"geometry":{ "type": "Point", "coordinates": [-95.535842,44.65132]}},
{ "type": "Feature", "properties": {"Name":"Woodland city","State":"Minnesota","State_Abbrev":"MN"},
"geometry":{ "type": "Point", "coordinates": [-93.521372,44.94976]}},
{ "type": "Feature", "properties": {"Name":"Woodstock city","State":"Minnesota","State_Abbrev":"MN"},
"geometry":{ "type": "Point", "coordinates": [-96.096678,44.01104]}},
{ "type": "Feature", "properties": {"Name":"Worthington city","State":"Minnesota","State_Abbrev":"MN"},
"geometry":{ "type": "Point", "coordinates": [-95.599702,43.628733]}},
{ "type": "Feature", "properties": {"Name":"Wrenshall city","State":"Minnesota","State_Abbrev":"MN"},
"geometry":{ "type": "Point", "coordinates": [-92.384069,46.621689]}},
{ "type": "Feature", "properties": {"Name":"Wright city","State":"Minnesota","State_Abbrev":"MN"},
"geometry":{ "type": "Point", "coordinates": [-93.006856,46.672515]}},
{ "type": "Feature", "properties": {"Name":"Wykoff city","State":"Minnesota","State_Abbrev":"MN"},
"geometry":{ "type": "Point", "coordinates": [-92.267391,43.708656]}},
{ "type": "Feature", "properties": {"Name":"Wyoming city","State":"Minnesota","State_Abbrev":"MN"},
"geometry":{ "type": "Point", "coordinates": [-92.968288,45.339953]}},
{ "type": "Feature", "properties": {"Name":"Zemple city","State":"Minnesota","State_Abbrev":"MN"},
"geometry":{ "type": "Point", "coordinates": [-93.785869,47.32065]}},
{ "type": "Feature", "properties": {"Name":"Zimmerman city","State":"Minnesota","State_Abbrev":"MN"},
"geometry":{ "type": "Point", "coordinates": [-93.596092,45.440562]}},
{ "type": "Feature", "properties": {"Name":"Zumbro Falls city","State":"Minnesota","State_Abbrev":"MN"},
"geometry":{ "type": "Point", "coordinates": [-92.427083,44.28782]}},
{ "type": "Feature", "properties": {"Name":"Zumbrota city","State":"Minnesota","State_Abbrev":"MN"},
"geometry":{ "type": "Point", "coordinates": [-92.67287,44.295165]}}]}
