{"type":"FeatureCollection","features":[
{ "type": "Feature", "properties": {"Name":"Abbeville town","State":"Mississippi","State_Abbrev":"MS"},
"geometry":{ "type": "Point", "coordinates": [-89.502517,34.503392]}},
{ "type": "Feature", "properties": {"Name":"Aberdeen city","State":"Mississippi","State_Abbrev":"MS"},
"geometry":{ "type": "Point", "coordinates": [-88.554741,33.828299]}},
{ "type": "Feature", "properties": {"Name":"Ackerman town","State":"Mississippi","State_Abbrev":"MS"},
"geometry":{ "type": "Point", "coordinates": [-89.170247,33.310649]}},
{ "type": "Feature", "properties": {"Name":"Agricola CDP","State":"Mississippi","State_Abbrev":"MS"},
"geometry":{ "type": "Point", "coordinates": [-88.524917,30.813804]}},
{ "type": "Feature", "properties": {"Name":"Alcorn State University CDP","State":"Mississippi","State_Abbrev":"MS"},
"geometry":{ "type": "Point", "coordinates": [-91.140636,31.879168]}},
{ "type": "Feature", "properties": {"Name":"Algoma town","State":"Mississippi","State_Abbrev":"MS"},
"geometry":{ "type": "Point", "coordinates": [-89.03807,34.179537]}},
{ "type": "Feature", "properties": {"Name":"Alligator town","State":"Mississippi","State_Abbrev":"MS"},
"geometry":{ "type": "Point", "coordinates": [-90.722646,34.089802]}},
{ "type": "Feature", "properties": {"Name":"Amory city","State":"Mississippi","State_Abbrev":"MS"},
"geometry":{ "type": "Point", "coordinates": [-88.482607,33.981846]}},
{ "type": "Feature", "properties": {"Name":"Anguilla town","State":"Mississippi","State_Abbrev":"MS"},
"geometry":{ "type": "Point", "coordinates": [-90.828259,32.971869]}},
{ "type": "Feature", "properties": {"Name":"Arcola town","State":"Mississippi","State_Abbrev":"MS"},
"geometry":{ "type": "Point", "coordinates": [-90.880002,33.27054]}},
{ "type": "Feature", "properties": {"Name":"Arkabutla CDP","State":"Mississippi","State_Abbrev":"MS"},
"geometry":{ "type": "Point", "coordinates": [-90.121565,34.700227]}},
{ "type": "Feature", "properties": {"Name":"Arnold Line CDP","State":"Mississippi","State_Abbrev":"MS"},
"geometry":{ "type": "Point", "coordinates": [-89.37719,31.337175]}},
{ "type": "Feature", "properties": {"Name":"Artesia town","State":"Mississippi","State_Abbrev":"MS"},
"geometry":{ "type": "Point", "coordinates": [-88.642298,33.416711]}},
{ "type": "Feature", "properties": {"Name":"Ashland town","State":"Mississippi","State_Abbrev":"MS"},
"geometry":{ "type": "Point", "coordinates": [-89.177741,34.834119]}},
{ "type": "Feature", "properties": {"Name":"Austin CDP","State":"Mississippi","State_Abbrev":"MS"},
"geometry":{ "type": "Point", "coordinates": [-90.44791,34.642236]}},
{ "type": "Feature", "properties": {"Name":"Baldwyn city","State":"Mississippi","State_Abbrev":"MS"},
"geometry":{ "type": "Point", "coordinates": [-88.642788,34.505494]}},
{ "type": "Feature", "properties": {"Name":"Bassfield town","State":"Mississippi","State_Abbrev":"MS"},
"geometry":{ "type": "Point", "coordinates": [-89.744932,31.495955]}},
{ "type": "Feature", "properties": {"Name":"Batesville city","State":"Mississippi","State_Abbrev":"MS"},
"geometry":{ "type": "Point", "coordinates": [-89.924878,34.320982]}},
{ "type": "Feature", "properties": {"Name":"Baxterville CDP","State":"Mississippi","State_Abbrev":"MS"},
"geometry":{ "type": "Point", "coordinates": [-89.586699,31.09147]}},
{ "type": "Feature", "properties": {"Name":"Bay St. Louis city","State":"Mississippi","State_Abbrev":"MS"},
"geometry":{ "type": "Point", "coordinates": [-89.35879,30.323448]}},
{ "type": "Feature", "properties": {"Name":"Bay Springs city","State":"Mississippi","State_Abbrev":"MS"},
"geometry":{ "type": "Point", "coordinates": [-89.27961,31.978001]}},
{ "type": "Feature", "properties": {"Name":"Beaumont town","State":"Mississippi","State_Abbrev":"MS"},
"geometry":{ "type": "Point", "coordinates": [-88.928356,31.167543]}},
{ "type": "Feature", "properties": {"Name":"Beauregard village","State":"Mississippi","State_Abbrev":"MS"},
"geometry":{ "type": "Point", "coordinates": [-90.388687,31.717793]}},
{ "type": "Feature", "properties": {"Name":"Beechwood CDP","State":"Mississippi","State_Abbrev":"MS"},
"geometry":{ "type": "Point", "coordinates": [-90.808692,32.336723]}},
{ "type": "Feature", "properties": {"Name":"Belmont town","State":"Mississippi","State_Abbrev":"MS"},
"geometry":{ "type": "Point", "coordinates": [-88.208306,34.505035]}},
{ "type": "Feature", "properties": {"Name":"Belzoni city","State":"Mississippi","State_Abbrev":"MS"},
"geometry":{ "type": "Point", "coordinates": [-90.486286,33.180498]}},
{ "type": "Feature", "properties": {"Name":"Benndale CDP","State":"Mississippi","State_Abbrev":"MS"},
"geometry":{ "type": "Point", "coordinates": [-88.805435,30.86869]}},
{ "type": "Feature", "properties": {"Name":"Benoit town","State":"Mississippi","State_Abbrev":"MS"},
"geometry":{ "type": "Point", "coordinates": [-91.008741,33.651595]}},
{ "type": "Feature", "properties": {"Name":"Benton CDP","State":"Mississippi","State_Abbrev":"MS"},
"geometry":{ "type": "Point", "coordinates": [-90.261702,32.821561]}},
{ "type": "Feature", "properties": {"Name":"Bentonia town","State":"Mississippi","State_Abbrev":"MS"},
"geometry":{ "type": "Point", "coordinates": [-90.369193,32.643598]}},
{ "type": "Feature", "properties": {"Name":"Bethlehem CDP","State":"Mississippi","State_Abbrev":"MS"},
"geometry":{ "type": "Point", "coordinates": [-89.328873,34.577318]}},
{ "type": "Feature", "properties": {"Name":"Beulah town","State":"Mississippi","State_Abbrev":"MS"},
"geometry":{ "type": "Point", "coordinates": [-90.980138,33.790471]}},
{ "type": "Feature", "properties": {"Name":"Big Creek village","State":"Mississippi","State_Abbrev":"MS"},
"geometry":{ "type": "Point", "coordinates": [-89.415895,33.846392]}},
{ "type": "Feature", "properties": {"Name":"Biggersville CDP","State":"Mississippi","State_Abbrev":"MS"},
"geometry":{ "type": "Point", "coordinates": [-88.563927,34.836728]}},
{ "type": "Feature", "properties": {"Name":"Big Point CDP","State":"Mississippi","State_Abbrev":"MS"},
"geometry":{ "type": "Point", "coordinates": [-88.484562,30.590561]}},
{ "type": "Feature", "properties": {"Name":"Biloxi city","State":"Mississippi","State_Abbrev":"MS"},
"geometry":{ "type": "Point", "coordinates": [-88.935762,30.426663]}},
{ "type": "Feature", "properties": {"Name":"Blue Mountain town","State":"Mississippi","State_Abbrev":"MS"},
"geometry":{ "type": "Point", "coordinates": [-89.026184,34.673885]}},
{ "type": "Feature", "properties": {"Name":"Blue Springs village","State":"Mississippi","State_Abbrev":"MS"},
"geometry":{ "type": "Point", "coordinates": [-88.883267,34.392778]}},
{ "type": "Feature", "properties": {"Name":"Bobo CDP","State":"Mississippi","State_Abbrev":"MS"},
"geometry":{ "type": "Point", "coordinates": [-90.677553,34.133613]}},
{ "type": "Feature", "properties": {"Name":"Bogue Chitto CDP","State":"Mississippi","State_Abbrev":"MS"},
"geometry":{ "type": "Point", "coordinates": [-90.461885,31.429417]}},
{ "type": "Feature", "properties": {"Name":"Bogue Chitto CDP","State":"Mississippi","State_Abbrev":"MS"},
"geometry":{ "type": "Point", "coordinates": [-88.918434,32.832345]}},
{ "type": "Feature", "properties": {"Name":"Bolivar CDP","State":"Mississippi","State_Abbrev":"MS"},
"geometry":{ "type": "Point", "coordinates": [-91.051835,33.660681]}},
{ "type": "Feature", "properties": {"Name":"Bolton town","State":"Mississippi","State_Abbrev":"MS"},
"geometry":{ "type": "Point", "coordinates": [-90.458584,32.354611]}},
{ "type": "Feature", "properties": {"Name":"Bond CDP","State":"Mississippi","State_Abbrev":"MS"},
"geometry":{ "type": "Point", "coordinates": [-89.165651,30.901964]}},
{ "type": "Feature", "properties": {"Name":"Booneville city","State":"Mississippi","State_Abbrev":"MS"},
"geometry":{ "type": "Point", "coordinates": [-88.567991,34.664418]}},
{ "type": "Feature", "properties": {"Name":"Bovina CDP","State":"Mississippi","State_Abbrev":"MS"},
"geometry":{ "type": "Point", "coordinates": [-90.737931,32.349965]}},
{ "type": "Feature", "properties": {"Name":"Boyle town","State":"Mississippi","State_Abbrev":"MS"},
"geometry":{ "type": "Point", "coordinates": [-90.724872,33.706475]}},
{ "type": "Feature", "properties": {"Name":"Brandon city","State":"Mississippi","State_Abbrev":"MS"},
"geometry":{ "type": "Point", "coordinates": [-89.990686,32.278093]}},
{ "type": "Feature", "properties": {"Name":"Braxton village","State":"Mississippi","State_Abbrev":"MS"},
"geometry":{ "type": "Point", "coordinates": [-89.97153,32.026391]}},
{ "type": "Feature", "properties": {"Name":"Bridgetown CDP","State":"Mississippi","State_Abbrev":"MS"},
"geometry":{ "type": "Point", "coordinates": [-89.904816,34.889727]}},
{ "type": "Feature", "properties": {"Name":"Brookhaven city","State":"Mississippi","State_Abbrev":"MS"},
"geometry":{ "type": "Point", "coordinates": [-90.443386,31.580567]}},
{ "type": "Feature", "properties": {"Name":"Brooksville town","State":"Mississippi","State_Abbrev":"MS"},
"geometry":{ "type": "Point", "coordinates": [-88.578141,33.236701]}},
{ "type": "Feature", "properties": {"Name":"Bruce town","State":"Mississippi","State_Abbrev":"MS"},
"geometry":{ "type": "Point", "coordinates": [-89.345464,33.990906]}},
{ "type": "Feature", "properties": {"Name":"Buckatunna CDP","State":"Mississippi","State_Abbrev":"MS"},
"geometry":{ "type": "Point", "coordinates": [-88.534283,31.553199]}},
{ "type": "Feature", "properties": {"Name":"Bude town","State":"Mississippi","State_Abbrev":"MS"},
"geometry":{ "type": "Point", "coordinates": [-90.85228,31.462447]}},
{ "type": "Feature", "properties": {"Name":"Burnsville town","State":"Mississippi","State_Abbrev":"MS"},
"geometry":{ "type": "Point", "coordinates": [-88.318699,34.832032]}},
{ "type": "Feature", "properties": {"Name":"Byhalia town","State":"Mississippi","State_Abbrev":"MS"},
"geometry":{ "type": "Point", "coordinates": [-89.689993,34.869188]}},
{ "type": "Feature", "properties": {"Name":"Byram city","State":"Mississippi","State_Abbrev":"MS"},
"geometry":{ "type": "Point", "coordinates": [-90.286965,32.192137]}},
{ "type": "Feature", "properties": {"Name":"Caledonia town","State":"Mississippi","State_Abbrev":"MS"},
"geometry":{ "type": "Point", "coordinates": [-88.326024,33.683607]}},
{ "type": "Feature", "properties": {"Name":"Calhoun City town","State":"Mississippi","State_Abbrev":"MS"},
"geometry":{ "type": "Point", "coordinates": [-89.314623,33.859347]}},
{ "type": "Feature", "properties": {"Name":"Canton city","State":"Mississippi","State_Abbrev":"MS"},
"geometry":{ "type": "Point", "coordinates": [-90.032191,32.598419]}},
{ "type": "Feature", "properties": {"Name":"Carrollton town","State":"Mississippi","State_Abbrev":"MS"},
"geometry":{ "type": "Point", "coordinates": [-89.921812,33.505647]}},
{ "type": "Feature", "properties": {"Name":"Carthage city","State":"Mississippi","State_Abbrev":"MS"},
"geometry":{ "type": "Point", "coordinates": [-89.533452,32.744227]}},
{ "type": "Feature", "properties": {"Name":"Cary town","State":"Mississippi","State_Abbrev":"MS"},
"geometry":{ "type": "Point", "coordinates": [-90.924612,32.805642]}},
{ "type": "Feature", "properties": {"Name":"Centreville town","State":"Mississippi","State_Abbrev":"MS"},
"geometry":{ "type": "Point", "coordinates": [-91.06544,31.087019]}},
{ "type": "Feature", "properties": {"Name":"Chalybeate CDP","State":"Mississippi","State_Abbrev":"MS"},
"geometry":{ "type": "Point", "coordinates": [-88.870548,34.932683]}},
{ "type": "Feature", "properties": {"Name":"Charleston city","State":"Mississippi","State_Abbrev":"MS"},
"geometry":{ "type": "Point", "coordinates": [-90.055166,34.007653]}},
{ "type": "Feature", "properties": {"Name":"Chunky town","State":"Mississippi","State_Abbrev":"MS"},
"geometry":{ "type": "Point", "coordinates": [-88.930172,32.327488]}},
{ "type": "Feature", "properties": {"Name":"Clara CDP","State":"Mississippi","State_Abbrev":"MS"},
"geometry":{ "type": "Point", "coordinates": [-88.69161,31.58313]}},
{ "type": "Feature", "properties": {"Name":"Clarksdale city","State":"Mississippi","State_Abbrev":"MS"},
"geometry":{ "type": "Point", "coordinates": [-90.568598,34.193796]}},
{ "type": "Feature", "properties": {"Name":"Cleary CDP","State":"Mississippi","State_Abbrev":"MS"},
"geometry":{ "type": "Point", "coordinates": [-90.196452,32.157656]}},
{ "type": "Feature", "properties": {"Name":"Cleveland city","State":"Mississippi","State_Abbrev":"MS"},
"geometry":{ "type": "Point", "coordinates": [-90.728476,33.744008]}},
{ "type": "Feature", "properties": {"Name":"Clinton city","State":"Mississippi","State_Abbrev":"MS"},
"geometry":{ "type": "Point", "coordinates": [-90.341893,32.354443]}},
{ "type": "Feature", "properties": {"Name":"Cloverdale CDP","State":"Mississippi","State_Abbrev":"MS"},
"geometry":{ "type": "Point", "coordinates": [-91.415192,31.495926]}},
{ "type": "Feature", "properties": {"Name":"Coahoma town","State":"Mississippi","State_Abbrev":"MS"},
"geometry":{ "type": "Point", "coordinates": [-90.522019,34.366293]}},
{ "type": "Feature", "properties": {"Name":"Coffeeville town","State":"Mississippi","State_Abbrev":"MS"},
"geometry":{ "type": "Point", "coordinates": [-89.684482,33.976494]}},
{ "type": "Feature", "properties": {"Name":"Coldwater town","State":"Mississippi","State_Abbrev":"MS"},
"geometry":{ "type": "Point", "coordinates": [-89.975517,34.690376]}},
{ "type": "Feature", "properties": {"Name":"Collins city","State":"Mississippi","State_Abbrev":"MS"},
"geometry":{ "type": "Point", "coordinates": [-89.567581,31.648272]}},
{ "type": "Feature", "properties": {"Name":"Collinsville CDP","State":"Mississippi","State_Abbrev":"MS"},
"geometry":{ "type": "Point", "coordinates": [-88.844307,32.487323]}},
{ "type": "Feature", "properties": {"Name":"Columbia city","State":"Mississippi","State_Abbrev":"MS"},
"geometry":{ "type": "Point", "coordinates": [-89.825443,31.256909]}},
{ "type": "Feature", "properties": {"Name":"Columbus city","State":"Mississippi","State_Abbrev":"MS"},
"geometry":{ "type": "Point", "coordinates": [-88.407128,33.508208]}},
{ "type": "Feature", "properties": {"Name":"Columbus AFB CDP","State":"Mississippi","State_Abbrev":"MS"},
"geometry":{ "type": "Point", "coordinates": [-88.445435,33.627598]}},
{ "type": "Feature", "properties": {"Name":"Como town","State":"Mississippi","State_Abbrev":"MS"},
"geometry":{ "type": "Point", "coordinates": [-89.939947,34.513561]}},
{ "type": "Feature", "properties": {"Name":"Conehatta CDP","State":"Mississippi","State_Abbrev":"MS"},
"geometry":{ "type": "Point", "coordinates": [-89.266934,32.466607]}},
{ "type": "Feature", "properties": {"Name":"Corinth city","State":"Mississippi","State_Abbrev":"MS"},
"geometry":{ "type": "Point", "coordinates": [-88.513618,34.948353]}},
{ "type": "Feature", "properties": {"Name":"Courtland town","State":"Mississippi","State_Abbrev":"MS"},
"geometry":{ "type": "Point", "coordinates": [-89.943282,34.24108]}},
{ "type": "Feature", "properties": {"Name":"Crawford town","State":"Mississippi","State_Abbrev":"MS"},
"geometry":{ "type": "Point", "coordinates": [-88.625268,33.30232]}},
{ "type": "Feature", "properties": {"Name":"Crenshaw town","State":"Mississippi","State_Abbrev":"MS"},
"geometry":{ "type": "Point", "coordinates": [-90.194637,34.504661]}},
{ "type": "Feature", "properties": {"Name":"Crosby town","State":"Mississippi","State_Abbrev":"MS"},
"geometry":{ "type": "Point", "coordinates": [-91.061513,31.274362]}},
{ "type": "Feature", "properties": {"Name":"Crowder town","State":"Mississippi","State_Abbrev":"MS"},
"geometry":{ "type": "Point", "coordinates": [-90.137688,34.172909]}},
{ "type": "Feature", "properties": {"Name":"Cruger town","State":"Mississippi","State_Abbrev":"MS"},
"geometry":{ "type": "Point", "coordinates": [-90.235522,33.322998]}},
{ "type": "Feature", "properties": {"Name":"Crystal Springs city","State":"Mississippi","State_Abbrev":"MS"},
"geometry":{ "type": "Point", "coordinates": [-90.355332,31.98995]}},
{ "type": "Feature", "properties": {"Name":"Darling CDP","State":"Mississippi","State_Abbrev":"MS"},
"geometry":{ "type": "Point", "coordinates": [-90.275408,34.359137]}},
{ "type": "Feature", "properties": {"Name":"Decatur town","State":"Mississippi","State_Abbrev":"MS"},
"geometry":{ "type": "Point", "coordinates": [-89.111233,32.433965]}},
{ "type": "Feature", "properties": {"Name":"De Kalb town","State":"Mississippi","State_Abbrev":"MS"},
"geometry":{ "type": "Point", "coordinates": [-88.656096,32.773104]}},
{ "type": "Feature", "properties": {"Name":"DeLisle CDP","State":"Mississippi","State_Abbrev":"MS"},
"geometry":{ "type": "Point", "coordinates": [-89.275687,30.382359]}},
{ "type": "Feature", "properties": {"Name":"Delta City CDP","State":"Mississippi","State_Abbrev":"MS"},
"geometry":{ "type": "Point", "coordinates": [-90.792531,33.073864]}},
{ "type": "Feature", "properties": {"Name":"Dennis CDP","State":"Mississippi","State_Abbrev":"MS"},
"geometry":{ "type": "Point", "coordinates": [-88.230306,34.558945]}},
{ "type": "Feature", "properties": {"Name":"Derma town","State":"Mississippi","State_Abbrev":"MS"},
"geometry":{ "type": "Point", "coordinates": [-89.28776,33.858875]}},
{ "type": "Feature", "properties": {"Name":"De Soto CDP","State":"Mississippi","State_Abbrev":"MS"},
"geometry":{ "type": "Point", "coordinates": [-88.723936,31.966848]}},
{ "type": "Feature", "properties": {"Name":"Diamondhead city","State":"Mississippi","State_Abbrev":"MS"},
"geometry":{ "type": "Point", "coordinates": [-89.35022,30.382065]}},
{ "type": "Feature", "properties": {"Name":"D'Iberville city","State":"Mississippi","State_Abbrev":"MS"},
"geometry":{ "type": "Point", "coordinates": [-88.895358,30.443519]}},
{ "type": "Feature", "properties": {"Name":"D'Lo town","State":"Mississippi","State_Abbrev":"MS"},
"geometry":{ "type": "Point", "coordinates": [-89.901131,31.986952]}},
{ "type": "Feature", "properties": {"Name":"Doddsville town","State":"Mississippi","State_Abbrev":"MS"},
"geometry":{ "type": "Point", "coordinates": [-90.521439,33.659864]}},
{ "type": "Feature", "properties": {"Name":"Drew city","State":"Mississippi","State_Abbrev":"MS"},
"geometry":{ "type": "Point", "coordinates": [-90.530384,33.810092]}},
{ "type": "Feature", "properties": {"Name":"Dublin CDP","State":"Mississippi","State_Abbrev":"MS"},
"geometry":{ "type": "Point", "coordinates": [-90.489162,34.072591]}},
{ "type": "Feature", "properties": {"Name":"Duck Hill town","State":"Mississippi","State_Abbrev":"MS"},
"geometry":{ "type": "Point", "coordinates": [-89.715396,33.631649]}},
{ "type": "Feature", "properties": {"Name":"Dumas town","State":"Mississippi","State_Abbrev":"MS"},
"geometry":{ "type": "Point", "coordinates": [-88.843092,34.638016]}},
{ "type": "Feature", "properties": {"Name":"Duncan town","State":"Mississippi","State_Abbrev":"MS"},
"geometry":{ "type": "Point", "coordinates": [-90.745896,34.04181]}},
{ "type": "Feature", "properties": {"Name":"Dundee CDP","State":"Mississippi","State_Abbrev":"MS"},
"geometry":{ "type": "Point", "coordinates": [-90.448387,34.532138]}},
{ "type": "Feature", "properties": {"Name":"Durant city","State":"Mississippi","State_Abbrev":"MS"},
"geometry":{ "type": "Point", "coordinates": [-89.857335,33.081948]}},
{ "type": "Feature", "properties": {"Name":"Eagle Bend CDP","State":"Mississippi","State_Abbrev":"MS"},
"geometry":{ "type": "Point", "coordinates": [-91.024663,32.527508]}},
{ "type": "Feature", "properties": {"Name":"Eastabuchie CDP","State":"Mississippi","State_Abbrev":"MS"},
"geometry":{ "type": "Point", "coordinates": [-89.289825,31.429381]}},
{ "type": "Feature", "properties": {"Name":"Ecru town","State":"Mississippi","State_Abbrev":"MS"},
"geometry":{ "type": "Point", "coordinates": [-89.023135,34.354297]}},
{ "type": "Feature", "properties": {"Name":"Eden village","State":"Mississippi","State_Abbrev":"MS"},
"geometry":{ "type": "Point", "coordinates": [-90.323957,32.98371]}},
{ "type": "Feature", "properties": {"Name":"Edwards town","State":"Mississippi","State_Abbrev":"MS"},
"geometry":{ "type": "Point", "coordinates": [-90.60556,32.332612]}},
{ "type": "Feature", "properties": {"Name":"Elizabeth CDP","State":"Mississippi","State_Abbrev":"MS"},
"geometry":{ "type": "Point", "coordinates": [-90.880717,33.427103]}},
{ "type": "Feature", "properties": {"Name":"Elliott CDP","State":"Mississippi","State_Abbrev":"MS"},
"geometry":{ "type": "Point", "coordinates": [-89.752453,33.691254]}},
{ "type": "Feature", "properties": {"Name":"Ellisville city","State":"Mississippi","State_Abbrev":"MS"},
"geometry":{ "type": "Point", "coordinates": [-89.210269,31.597277]}},
{ "type": "Feature", "properties": {"Name":"Enterprise town","State":"Mississippi","State_Abbrev":"MS"},
"geometry":{ "type": "Point", "coordinates": [-88.815818,32.172542]}},
{ "type": "Feature", "properties": {"Name":"Escatawpa CDP","State":"Mississippi","State_Abbrev":"MS"},
"geometry":{ "type": "Point", "coordinates": [-88.544067,30.490622]}},
{ "type": "Feature", "properties": {"Name":"Ethel town","State":"Mississippi","State_Abbrev":"MS"},
"geometry":{ "type": "Point", "coordinates": [-89.465023,33.122088]}},
{ "type": "Feature", "properties": {"Name":"Eudora CDP","State":"Mississippi","State_Abbrev":"MS"},
"geometry":{ "type": "Point", "coordinates": [-90.148826,34.831033]}},
{ "type": "Feature", "properties": {"Name":"Eupora city","State":"Mississippi","State_Abbrev":"MS"},
"geometry":{ "type": "Point", "coordinates": [-89.279336,33.542557]}},
{ "type": "Feature", "properties": {"Name":"Falcon town","State":"Mississippi","State_Abbrev":"MS"},
"geometry":{ "type": "Point", "coordinates": [-90.255638,34.391137]}},
{ "type": "Feature", "properties": {"Name":"Falkner town","State":"Mississippi","State_Abbrev":"MS"},
"geometry":{ "type": "Point", "coordinates": [-88.948409,34.839349]}},
{ "type": "Feature", "properties": {"Name":"Farmington town","State":"Mississippi","State_Abbrev":"MS"},
"geometry":{ "type": "Point", "coordinates": [-88.446131,34.922555]}},
{ "type": "Feature", "properties": {"Name":"Farrell CDP","State":"Mississippi","State_Abbrev":"MS"},
"geometry":{ "type": "Point", "coordinates": [-90.675041,34.261707]}},
{ "type": "Feature", "properties": {"Name":"Fayette city","State":"Mississippi","State_Abbrev":"MS"},
"geometry":{ "type": "Point", "coordinates": [-91.062061,31.712206]}},
{ "type": "Feature", "properties": {"Name":"Fernwood CDP","State":"Mississippi","State_Abbrev":"MS"},
"geometry":{ "type": "Point", "coordinates": [-90.457067,31.186116]}},
{ "type": "Feature", "properties": {"Name":"Flora town","State":"Mississippi","State_Abbrev":"MS"},
"geometry":{ "type": "Point", "coordinates": [-90.313703,32.542729]}},
{ "type": "Feature", "properties": {"Name":"Florence city","State":"Mississippi","State_Abbrev":"MS"},
"geometry":{ "type": "Point", "coordinates": [-90.122454,32.155615]}},
{ "type": "Feature", "properties": {"Name":"Flowood city","State":"Mississippi","State_Abbrev":"MS"},
"geometry":{ "type": "Point", "coordinates": [-90.072874,32.336101]}},
{ "type": "Feature", "properties": {"Name":"Forest city","State":"Mississippi","State_Abbrev":"MS"},
"geometry":{ "type": "Point", "coordinates": [-89.475908,32.359838]}},
{ "type": "Feature", "properties": {"Name":"Foxworth CDP","State":"Mississippi","State_Abbrev":"MS"},
"geometry":{ "type": "Point", "coordinates": [-89.88283,31.238552]}},
{ "type": "Feature", "properties": {"Name":"French Camp town","State":"Mississippi","State_Abbrev":"MS"},
"geometry":{ "type": "Point", "coordinates": [-89.39928,33.292334]}},
{ "type": "Feature", "properties": {"Name":"Friars Point town","State":"Mississippi","State_Abbrev":"MS"},
"geometry":{ "type": "Point", "coordinates": [-90.637047,34.366576]}},
{ "type": "Feature", "properties": {"Name":"Fulton city","State":"Mississippi","State_Abbrev":"MS"},
"geometry":{ "type": "Point", "coordinates": [-88.401928,34.26288]}},
{ "type": "Feature", "properties": {"Name":"Gattman village","State":"Mississippi","State_Abbrev":"MS"},
"geometry":{ "type": "Point", "coordinates": [-88.236574,33.884848]}},
{ "type": "Feature", "properties": {"Name":"Gautier city","State":"Mississippi","State_Abbrev":"MS"},
"geometry":{ "type": "Point", "coordinates": [-88.659341,30.406214]}},
{ "type": "Feature", "properties": {"Name":"Georgetown town","State":"Mississippi","State_Abbrev":"MS"},
"geometry":{ "type": "Point", "coordinates": [-90.16478,31.870057]}},
{ "type": "Feature", "properties": {"Name":"Glen town","State":"Mississippi","State_Abbrev":"MS"},
"geometry":{ "type": "Point", "coordinates": [-88.417566,34.85822]}},
{ "type": "Feature", "properties": {"Name":"Glen Allan CDP","State":"Mississippi","State_Abbrev":"MS"},
"geometry":{ "type": "Point", "coordinates": [-91.013808,33.022143]}},
{ "type": "Feature", "properties": {"Name":"Glendale CDP","State":"Mississippi","State_Abbrev":"MS"},
"geometry":{ "type": "Point", "coordinates": [-89.308628,31.368016]}},
{ "type": "Feature", "properties": {"Name":"Glendora village","State":"Mississippi","State_Abbrev":"MS"},
"geometry":{ "type": "Point", "coordinates": [-90.292696,33.827645]}},
{ "type": "Feature", "properties": {"Name":"Gloster town","State":"Mississippi","State_Abbrev":"MS"},
"geometry":{ "type": "Point", "coordinates": [-91.017679,31.195066]}},
{ "type": "Feature", "properties": {"Name":"Gluckstadt CDP","State":"Mississippi","State_Abbrev":"MS"},
"geometry":{ "type": "Point", "coordinates": [-90.105195,32.537033]}},
{ "type": "Feature", "properties": {"Name":"Golden town","State":"Mississippi","State_Abbrev":"MS"},
"geometry":{ "type": "Point", "coordinates": [-88.186318,34.486643]}},
{ "type": "Feature", "properties": {"Name":"Goodman town","State":"Mississippi","State_Abbrev":"MS"},
"geometry":{ "type": "Point", "coordinates": [-89.912726,32.968207]}},
{ "type": "Feature", "properties": {"Name":"Grace CDP","State":"Mississippi","State_Abbrev":"MS"},
"geometry":{ "type": "Point", "coordinates": [-90.956893,32.991436]}},
{ "type": "Feature", "properties": {"Name":"Greenville city","State":"Mississippi","State_Abbrev":"MS"},
"geometry":{ "type": "Point", "coordinates": [-91.052314,33.383461]}},
{ "type": "Feature", "properties": {"Name":"Greenwood city","State":"Mississippi","State_Abbrev":"MS"},
"geometry":{ "type": "Point", "coordinates": [-90.198963,33.51246]}},
{ "type": "Feature", "properties": {"Name":"Grenada city","State":"Mississippi","State_Abbrev":"MS"},
"geometry":{ "type": "Point", "coordinates": [-89.811547,33.781445]}},
{ "type": "Feature", "properties": {"Name":"Gulf Hills CDP","State":"Mississippi","State_Abbrev":"MS"},
"geometry":{ "type": "Point", "coordinates": [-88.81207,30.428928]}},
{ "type": "Feature", "properties": {"Name":"Gulf Park Estates CDP","State":"Mississippi","State_Abbrev":"MS"},
"geometry":{ "type": "Point", "coordinates": [-88.7579,30.379331]}},
{ "type": "Feature", "properties": {"Name":"Gulfport city","State":"Mississippi","State_Abbrev":"MS"},
"geometry":{ "type": "Point", "coordinates": [-89.069022,30.419487]}},
{ "type": "Feature", "properties": {"Name":"Gunnison town","State":"Mississippi","State_Abbrev":"MS"},
"geometry":{ "type": "Point", "coordinates": [-90.946644,33.943114]}},
{ "type": "Feature", "properties": {"Name":"Guntown town","State":"Mississippi","State_Abbrev":"MS"},
"geometry":{ "type": "Point", "coordinates": [-88.6638,34.445101]}},
{ "type": "Feature", "properties": {"Name":"Hamilton CDP","State":"Mississippi","State_Abbrev":"MS"},
"geometry":{ "type": "Point", "coordinates": [-88.407578,33.746576]}},
{ "type": "Feature", "properties": {"Name":"Harperville CDP","State":"Mississippi","State_Abbrev":"MS"},
"geometry":{ "type": "Point", "coordinates": [-89.487866,32.492804]}},
{ "type": "Feature", "properties": {"Name":"Hatley town","State":"Mississippi","State_Abbrev":"MS"},
"geometry":{ "type": "Point", "coordinates": [-88.418392,33.977321]}},
{ "type": "Feature", "properties": {"Name":"Hattiesburg city","State":"Mississippi","State_Abbrev":"MS"},
"geometry":{ "type": "Point", "coordinates": [-89.317434,31.307305]}},
{ "type": "Feature", "properties": {"Name":"Hazlehurst city","State":"Mississippi","State_Abbrev":"MS"},
"geometry":{ "type": "Point", "coordinates": [-90.392793,31.863858]}},
{ "type": "Feature", "properties": {"Name":"Heidelberg town","State":"Mississippi","State_Abbrev":"MS"},
"geometry":{ "type": "Point", "coordinates": [-88.990218,31.890513]}},
{ "type": "Feature", "properties": {"Name":"Helena CDP","State":"Mississippi","State_Abbrev":"MS"},
"geometry":{ "type": "Point", "coordinates": [-88.505567,30.488076]}},
{ "type": "Feature", "properties": {"Name":"Henderson Point CDP","State":"Mississippi","State_Abbrev":"MS"},
"geometry":{ "type": "Point", "coordinates": [-89.286165,30.313959]}},
{ "type": "Feature", "properties": {"Name":"Hermanville CDP","State":"Mississippi","State_Abbrev":"MS"},
"geometry":{ "type": "Point", "coordinates": [-90.84036,31.957836]}},
{ "type": "Feature", "properties": {"Name":"Hernando city","State":"Mississippi","State_Abbrev":"MS"},
"geometry":{ "type": "Point", "coordinates": [-89.992401,34.849588]}},
{ "type": "Feature", "properties": {"Name":"Hickory town","State":"Mississippi","State_Abbrev":"MS"},
"geometry":{ "type": "Point", "coordinates": [-89.021735,32.316704]}},
{ "type": "Feature", "properties": {"Name":"Hickory Flat town","State":"Mississippi","State_Abbrev":"MS"},
"geometry":{ "type": "Point", "coordinates": [-89.191388,34.615926]}},
{ "type": "Feature", "properties": {"Name":"Hide-A-Way Lake CDP","State":"Mississippi","State_Abbrev":"MS"},
"geometry":{ "type": "Point", "coordinates": [-89.638574,30.578646]}},
{ "type": "Feature", "properties": {"Name":"Hillsboro CDP","State":"Mississippi","State_Abbrev":"MS"},
"geometry":{ "type": "Point", "coordinates": [-89.486469,32.450697]}},
{ "type": "Feature", "properties": {"Name":"Holcomb CDP","State":"Mississippi","State_Abbrev":"MS"},
"geometry":{ "type": "Point", "coordinates": [-89.973181,33.764211]}},
{ "type": "Feature", "properties": {"Name":"Hollandale city","State":"Mississippi","State_Abbrev":"MS"},
"geometry":{ "type": "Point", "coordinates": [-90.852898,33.176105]}},
{ "type": "Feature", "properties": {"Name":"Holly Springs city","State":"Mississippi","State_Abbrev":"MS"},
"geometry":{ "type": "Point", "coordinates": [-89.445819,34.778017]}},
{ "type": "Feature", "properties": {"Name":"Horn Lake city","State":"Mississippi","State_Abbrev":"MS"},
"geometry":{ "type": "Point", "coordinates": [-90.049209,34.952081]}},
{ "type": "Feature", "properties": {"Name":"Houston city","State":"Mississippi","State_Abbrev":"MS"},
"geometry":{ "type": "Point", "coordinates": [-89.00349,33.896187]}},
{ "type": "Feature", "properties": {"Name":"Hurley CDP","State":"Mississippi","State_Abbrev":"MS"},
"geometry":{ "type": "Point", "coordinates": [-88.498689,30.662715]}},
{ "type": "Feature", "properties": {"Name":"Independence CDP","State":"Mississippi","State_Abbrev":"MS"},
"geometry":{ "type": "Point", "coordinates": [-89.807518,34.707776]}},
{ "type": "Feature", "properties": {"Name":"Indianola city","State":"Mississippi","State_Abbrev":"MS"},
"geometry":{ "type": "Point", "coordinates": [-90.643789,33.448963]}},
{ "type": "Feature", "properties": {"Name":"Inverness town","State":"Mississippi","State_Abbrev":"MS"},
"geometry":{ "type": "Point", "coordinates": [-90.591192,33.354229]}},
{ "type": "Feature", "properties": {"Name":"Isola town","State":"Mississippi","State_Abbrev":"MS"},
"geometry":{ "type": "Point", "coordinates": [-90.592342,33.263404]}},
{ "type": "Feature", "properties": {"Name":"Itta Bena city","State":"Mississippi","State_Abbrev":"MS"},
"geometry":{ "type": "Point", "coordinates": [-90.324288,33.500868]}},
{ "type": "Feature", "properties": {"Name":"Iuka city","State":"Mississippi","State_Abbrev":"MS"},
"geometry":{ "type": "Point", "coordinates": [-88.19692,34.807384]}},
{ "type": "Feature", "properties": {"Name":"Jacinto CDP","State":"Mississippi","State_Abbrev":"MS"},
"geometry":{ "type": "Point", "coordinates": [-88.427561,34.762209]}},
{ "type": "Feature", "properties": {"Name":"Jackson city","State":"Mississippi","State_Abbrev":"MS"},
"geometry":{ "type": "Point", "coordinates": [-90.21285,32.315834]}},
{ "type": "Feature", "properties": {"Name":"Jonestown town","State":"Mississippi","State_Abbrev":"MS"},
"geometry":{ "type": "Point", "coordinates": [-90.454274,34.322154]}},
{ "type": "Feature", "properties": {"Name":"Jumpertown town","State":"Mississippi","State_Abbrev":"MS"},
"geometry":{ "type": "Point", "coordinates": [-88.667551,34.706142]}},
{ "type": "Feature", "properties": {"Name":"Kearney Park CDP","State":"Mississippi","State_Abbrev":"MS"},
"geometry":{ "type": "Point", "coordinates": [-90.3164,32.590044]}},
{ "type": "Feature", "properties": {"Name":"Kilmichael town","State":"Mississippi","State_Abbrev":"MS"},
"geometry":{ "type": "Point", "coordinates": [-89.560303,33.440472]}},
{ "type": "Feature", "properties": {"Name":"Kiln CDP","State":"Mississippi","State_Abbrev":"MS"},
"geometry":{ "type": "Point", "coordinates": [-89.429785,30.418436]}},
{ "type": "Feature", "properties": {"Name":"Kirkville CDP","State":"Mississippi","State_Abbrev":"MS"},
"geometry":{ "type": "Point", "coordinates": [-88.485463,34.44201]}},
{ "type": "Feature", "properties": {"Name":"Kokomo CDP","State":"Mississippi","State_Abbrev":"MS"},
"geometry":{ "type": "Point", "coordinates": [-89.997131,31.203044]}},
{ "type": "Feature", "properties": {"Name":"Kosciusko city","State":"Mississippi","State_Abbrev":"MS"},
"geometry":{ "type": "Point", "coordinates": [-89.589364,33.058169]}},
{ "type": "Feature", "properties": {"Name":"Kossuth village","State":"Mississippi","State_Abbrev":"MS"},
"geometry":{ "type": "Point", "coordinates": [-88.643257,34.869369]}},
{ "type": "Feature", "properties": {"Name":"Lake town","State":"Mississippi","State_Abbrev":"MS"},
"geometry":{ "type": "Point", "coordinates": [-89.31435,32.329992]}},
{ "type": "Feature", "properties": {"Name":"Lakeview CDP","State":"Mississippi","State_Abbrev":"MS"},
"geometry":{ "type": "Point", "coordinates": [-90.136506,34.987982]}},
{ "type": "Feature", "properties": {"Name":"Lamar CDP","State":"Mississippi","State_Abbrev":"MS"},
"geometry":{ "type": "Point", "coordinates": [-89.315092,34.912208]}},
{ "type": "Feature", "properties": {"Name":"Lambert town","State":"Mississippi","State_Abbrev":"MS"},
"geometry":{ "type": "Point", "coordinates": [-90.284527,34.200596]}},
{ "type": "Feature", "properties": {"Name":"Latimer CDP","State":"Mississippi","State_Abbrev":"MS"},
"geometry":{ "type": "Point", "coordinates": [-88.848531,30.487291]}},
{ "type": "Feature", "properties": {"Name":"Lauderdale CDP","State":"Mississippi","State_Abbrev":"MS"},
"geometry":{ "type": "Point", "coordinates": [-88.526366,32.510394]}},
{ "type": "Feature", "properties": {"Name":"Laurel city","State":"Mississippi","State_Abbrev":"MS"},
"geometry":{ "type": "Point", "coordinates": [-89.144955,31.695077]}},
{ "type": "Feature", "properties": {"Name":"Leaf CDP","State":"Mississippi","State_Abbrev":"MS"},
"geometry":{ "type": "Point", "coordinates": [-88.797998,31.027546]}},
{ "type": "Feature", "properties": {"Name":"Leakesville town","State":"Mississippi","State_Abbrev":"MS"},
"geometry":{ "type": "Point", "coordinates": [-88.555853,31.149202]}},
{ "type": "Feature", "properties": {"Name":"Learned town","State":"Mississippi","State_Abbrev":"MS"},
"geometry":{ "type": "Point", "coordinates": [-90.548009,32.197122]}},
{ "type": "Feature", "properties": {"Name":"Leland city","State":"Mississippi","State_Abbrev":"MS"},
"geometry":{ "type": "Point", "coordinates": [-90.890925,33.404834]}},
{ "type": "Feature", "properties": {"Name":"Lena town","State":"Mississippi","State_Abbrev":"MS"},
"geometry":{ "type": "Point", "coordinates": [-89.594813,32.593972]}},
{ "type": "Feature", "properties": {"Name":"Lexington city","State":"Mississippi","State_Abbrev":"MS"},
"geometry":{ "type": "Point", "coordinates": [-90.049619,33.11709]}},
{ "type": "Feature", "properties": {"Name":"Liberty town","State":"Mississippi","State_Abbrev":"MS"},
"geometry":{ "type": "Point", "coordinates": [-90.798332,31.161899]}},
{ "type": "Feature", "properties": {"Name":"Long Beach city","State":"Mississippi","State_Abbrev":"MS"},
"geometry":{ "type": "Point", "coordinates": [-89.162678,30.354468]}},
{ "type": "Feature", "properties": {"Name":"Longview CDP","State":"Mississippi","State_Abbrev":"MS"},
"geometry":{ "type": "Point", "coordinates": [-88.934019,33.401125]}},
{ "type": "Feature", "properties": {"Name":"Louin town","State":"Mississippi","State_Abbrev":"MS"},
"geometry":{ "type": "Point", "coordinates": [-89.273183,32.075202]}},
{ "type": "Feature", "properties": {"Name":"Louise town","State":"Mississippi","State_Abbrev":"MS"},
"geometry":{ "type": "Point", "coordinates": [-90.590427,32.981425]}},
{ "type": "Feature", "properties": {"Name":"Louisville city","State":"Mississippi","State_Abbrev":"MS"},
"geometry":{ "type": "Point", "coordinates": [-89.054879,33.122934]}},
{ "type": "Feature", "properties": {"Name":"Lucedale city","State":"Mississippi","State_Abbrev":"MS"},
"geometry":{ "type": "Point", "coordinates": [-88.595896,30.931213]}},
{ "type": "Feature", "properties": {"Name":"Lula town","State":"Mississippi","State_Abbrev":"MS"},
"geometry":{ "type": "Point", "coordinates": [-90.477882,34.45451]}},
{ "type": "Feature", "properties": {"Name":"Lumberton city","State":"Mississippi","State_Abbrev":"MS"},
"geometry":{ "type": "Point", "coordinates": [-89.459013,31.005866]}},
{ "type": "Feature", "properties": {"Name":"Lyman CDP","State":"Mississippi","State_Abbrev":"MS"},
"geometry":{ "type": "Point", "coordinates": [-89.130463,30.507887]}},
{ "type": "Feature", "properties": {"Name":"Lynchburg CDP","State":"Mississippi","State_Abbrev":"MS"},
"geometry":{ "type": "Point", "coordinates": [-90.107084,34.961972]}},
{ "type": "Feature", "properties": {"Name":"Lyon town","State":"Mississippi","State_Abbrev":"MS"},
"geometry":{ "type": "Point", "coordinates": [-90.543195,34.216925]}},
{ "type": "Feature", "properties": {"Name":"Maben town","State":"Mississippi","State_Abbrev":"MS"},
"geometry":{ "type": "Point", "coordinates": [-89.081042,33.554173]}},
{ "type": "Feature", "properties": {"Name":"McComb city","State":"Mississippi","State_Abbrev":"MS"},
"geometry":{ "type": "Point", "coordinates": [-90.471593,31.244474]}},
{ "type": "Feature", "properties": {"Name":"McCool town","State":"Mississippi","State_Abbrev":"MS"},
"geometry":{ "type": "Point", "coordinates": [-89.340651,33.198855]}},
{ "type": "Feature", "properties": {"Name":"McLain town","State":"Mississippi","State_Abbrev":"MS"},
"geometry":{ "type": "Point", "coordinates": [-88.82415,31.103838]}},
{ "type": "Feature", "properties": {"Name":"Macon city","State":"Mississippi","State_Abbrev":"MS"},
"geometry":{ "type": "Point", "coordinates": [-88.556713,33.122065]}},
{ "type": "Feature", "properties": {"Name":"Madison city","State":"Mississippi","State_Abbrev":"MS"},
"geometry":{ "type": "Point", "coordinates": [-90.130865,32.473884]}},
{ "type": "Feature", "properties": {"Name":"Magee city","State":"Mississippi","State_Abbrev":"MS"},
"geometry":{ "type": "Point", "coordinates": [-89.734001,31.873006]}},
{ "type": "Feature", "properties": {"Name":"Magnolia city","State":"Mississippi","State_Abbrev":"MS"},
"geometry":{ "type": "Point", "coordinates": [-90.469529,31.161161]}},
{ "type": "Feature", "properties": {"Name":"Mantachie town","State":"Mississippi","State_Abbrev":"MS"},
"geometry":{ "type": "Point", "coordinates": [-88.502565,34.321343]}},
{ "type": "Feature", "properties": {"Name":"Mantee village","State":"Mississippi","State_Abbrev":"MS"},
"geometry":{ "type": "Point", "coordinates": [-89.058695,33.720904]}},
{ "type": "Feature", "properties": {"Name":"Marietta town","State":"Mississippi","State_Abbrev":"MS"},
"geometry":{ "type": "Point", "coordinates": [-88.472578,34.499971]}},
{ "type": "Feature", "properties": {"Name":"Marion town","State":"Mississippi","State_Abbrev":"MS"},
"geometry":{ "type": "Point", "coordinates": [-88.651807,32.430234]}},
{ "type": "Feature", "properties": {"Name":"Marks city","State":"Mississippi","State_Abbrev":"MS"},
"geometry":{ "type": "Point", "coordinates": [-90.272218,34.253521]}},
{ "type": "Feature", "properties": {"Name":"Mathiston town","State":"Mississippi","State_Abbrev":"MS"},
"geometry":{ "type": "Point", "coordinates": [-89.12589,33.538877]}},
{ "type": "Feature", "properties": {"Name":"Mayersville town","State":"Mississippi","State_Abbrev":"MS"},
"geometry":{ "type": "Point", "coordinates": [-91.046676,32.896409]}},
{ "type": "Feature", "properties": {"Name":"Meadville town","State":"Mississippi","State_Abbrev":"MS"},
"geometry":{ "type": "Point", "coordinates": [-90.893088,31.472012]}},
{ "type": "Feature", "properties": {"Name":"Mendenhall city","State":"Mississippi","State_Abbrev":"MS"},
"geometry":{ "type": "Point", "coordinates": [-89.869483,31.9607]}},
{ "type": "Feature", "properties": {"Name":"Meridian city","State":"Mississippi","State_Abbrev":"MS"},
"geometry":{ "type": "Point", "coordinates": [-88.689448,32.38417]}},
{ "type": "Feature", "properties": {"Name":"Meridian Station CDP","State":"Mississippi","State_Abbrev":"MS"},
"geometry":{ "type": "Point", "coordinates": [-88.607414,32.548645]}},
{ "type": "Feature", "properties": {"Name":"Merigold town","State":"Mississippi","State_Abbrev":"MS"},
"geometry":{ "type": "Point", "coordinates": [-90.726393,33.839143]}},
{ "type": "Feature", "properties": {"Name":"Metcalfe town","State":"Mississippi","State_Abbrev":"MS"},
"geometry":{ "type": "Point", "coordinates": [-91.001831,33.45059]}},
{ "type": "Feature", "properties": {"Name":"Mississippi State CDP","State":"Mississippi","State_Abbrev":"MS"},
"geometry":{ "type": "Point", "coordinates": [-88.790998,33.451614]}},
{ "type": "Feature", "properties": {"Name":"Mississippi Valley State University CDP","State":"Mississippi","State_Abbrev":"MS"},
"geometry":{ "type": "Point", "coordinates": [-90.344437,33.517282]}},
{ "type": "Feature", "properties": {"Name":"Mize town","State":"Mississippi","State_Abbrev":"MS"},
"geometry":{ "type": "Point", "coordinates": [-89.554157,31.866425]}},
{ "type": "Feature", "properties": {"Name":"Monticello town","State":"Mississippi","State_Abbrev":"MS"},
"geometry":{ "type": "Point", "coordinates": [-90.118674,31.553242]}},
{ "type": "Feature", "properties": {"Name":"Montrose town","State":"Mississippi","State_Abbrev":"MS"},
"geometry":{ "type": "Point", "coordinates": [-89.234386,32.125665]}},
{ "type": "Feature", "properties": {"Name":"Mooreville CDP","State":"Mississippi","State_Abbrev":"MS"},
"geometry":{ "type": "Point", "coordinates": [-88.576868,34.264896]}},
{ "type": "Feature", "properties": {"Name":"Moorhead city","State":"Mississippi","State_Abbrev":"MS"},
"geometry":{ "type": "Point", "coordinates": [-90.50627,33.449416]}},
{ "type": "Feature", "properties": {"Name":"Morgan City town","State":"Mississippi","State_Abbrev":"MS"},
"geometry":{ "type": "Point", "coordinates": [-90.346163,33.378651]}},
{ "type": "Feature", "properties": {"Name":"Morgantown CDP","State":"Mississippi","State_Abbrev":"MS"},
"geometry":{ "type": "Point", "coordinates": [-91.352105,31.575019]}},
{ "type": "Feature", "properties": {"Name":"Morton city","State":"Mississippi","State_Abbrev":"MS"},
"geometry":{ "type": "Point", "coordinates": [-89.659145,32.345528]}},
{ "type": "Feature", "properties": {"Name":"Moselle CDP","State":"Mississippi","State_Abbrev":"MS"},
"geometry":{ "type": "Point", "coordinates": [-89.282407,31.508669]}},
{ "type": "Feature", "properties": {"Name":"Moss Point city","State":"Mississippi","State_Abbrev":"MS"},
"geometry":{ "type": "Point", "coordinates": [-88.532733,30.425914]}},
{ "type": "Feature", "properties": {"Name":"Mound Bayou city","State":"Mississippi","State_Abbrev":"MS"},
"geometry":{ "type": "Point", "coordinates": [-90.727868,33.880724]}},
{ "type": "Feature", "properties": {"Name":"Mount Olive town","State":"Mississippi","State_Abbrev":"MS"},
"geometry":{ "type": "Point", "coordinates": [-89.655945,31.753807]}},
{ "type": "Feature", "properties": {"Name":"Mount Pleasant CDP","State":"Mississippi","State_Abbrev":"MS"},
"geometry":{ "type": "Point", "coordinates": [-89.525599,34.953977]}},
{ "type": "Feature", "properties": {"Name":"Myrtle town","State":"Mississippi","State_Abbrev":"MS"},
"geometry":{ "type": "Point", "coordinates": [-89.117865,34.560519]}},
{ "type": "Feature", "properties": {"Name":"Natchez city","State":"Mississippi","State_Abbrev":"MS"},
"geometry":{ "type": "Point", "coordinates": [-91.385649,31.542438]}},
{ "type": "Feature", "properties": {"Name":"Nellieburg CDP","State":"Mississippi","State_Abbrev":"MS"},
"geometry":{ "type": "Point", "coordinates": [-88.780029,32.396965]}},
{ "type": "Feature", "properties": {"Name":"Nettleton city","State":"Mississippi","State_Abbrev":"MS"},
"geometry":{ "type": "Point", "coordinates": [-88.626297,34.08307]}},
{ "type": "Feature", "properties": {"Name":"New Albany city","State":"Mississippi","State_Abbrev":"MS"},
"geometry":{ "type": "Point", "coordinates": [-89.02172,34.492286]}},
{ "type": "Feature", "properties": {"Name":"New Augusta town","State":"Mississippi","State_Abbrev":"MS"},
"geometry":{ "type": "Point", "coordinates": [-89.029338,31.203377]}},
{ "type": "Feature", "properties": {"Name":"New Hamilton CDP","State":"Mississippi","State_Abbrev":"MS"},
"geometry":{ "type": "Point", "coordinates": [-88.442835,33.747149]}},
{ "type": "Feature", "properties": {"Name":"New Hebron town","State":"Mississippi","State_Abbrev":"MS"},
"geometry":{ "type": "Point", "coordinates": [-89.983326,31.733219]}},
{ "type": "Feature", "properties": {"Name":"New Hope CDP","State":"Mississippi","State_Abbrev":"MS"},
"geometry":{ "type": "Point", "coordinates": [-88.34318,33.457264]}},
{ "type": "Feature", "properties": {"Name":"New Houlka town","State":"Mississippi","State_Abbrev":"MS"},
"geometry":{ "type": "Point", "coordinates": [-89.021079,34.03625]}},
{ "type": "Feature", "properties": {"Name":"New Site CDP","State":"Mississippi","State_Abbrev":"MS"},
"geometry":{ "type": "Point", "coordinates": [-88.415315,34.555252]}},
{ "type": "Feature", "properties": {"Name":"Newton city","State":"Mississippi","State_Abbrev":"MS"},
"geometry":{ "type": "Point", "coordinates": [-89.147528,32.330112]}},
{ "type": "Feature", "properties": {"Name":"Nicholson CDP","State":"Mississippi","State_Abbrev":"MS"},
"geometry":{ "type": "Point", "coordinates": [-89.698071,30.487366]}},
{ "type": "Feature", "properties": {"Name":"Nitta Yuma CDP","State":"Mississippi","State_Abbrev":"MS"},
"geometry":{ "type": "Point", "coordinates": [-90.848748,33.023622]}},
{ "type": "Feature", "properties": {"Name":"North Carrollton town","State":"Mississippi","State_Abbrev":"MS"},
"geometry":{ "type": "Point", "coordinates": [-89.9194,33.518634]}},
{ "type": "Feature", "properties": {"Name":"North Tunica CDP","State":"Mississippi","State_Abbrev":"MS"},
"geometry":{ "type": "Point", "coordinates": [-90.379715,34.703061]}},
{ "type": "Feature", "properties": {"Name":"Noxapater town","State":"Mississippi","State_Abbrev":"MS"},
"geometry":{ "type": "Point", "coordinates": [-89.063532,32.993583]}},
{ "type": "Feature", "properties": {"Name":"Oak Grove CDP","State":"Mississippi","State_Abbrev":"MS"},
"geometry":{ "type": "Point", "coordinates": [-89.414491,31.28674]}},
{ "type": "Feature", "properties": {"Name":"Oakland town","State":"Mississippi","State_Abbrev":"MS"},
"geometry":{ "type": "Point", "coordinates": [-89.913225,34.057581]}},
{ "type": "Feature", "properties": {"Name":"Ocean Springs city","State":"Mississippi","State_Abbrev":"MS"},
"geometry":{ "type": "Point", "coordinates": [-88.788647,30.402704]}},
{ "type": "Feature", "properties": {"Name":"Okolona city","State":"Mississippi","State_Abbrev":"MS"},
"geometry":{ "type": "Point", "coordinates": [-88.747692,34.005061]}},
{ "type": "Feature", "properties": {"Name":"Olive Branch city","State":"Mississippi","State_Abbrev":"MS"},
"geometry":{ "type": "Point", "coordinates": [-89.841153,34.955752]}},
{ "type": "Feature", "properties": {"Name":"Osyka town","State":"Mississippi","State_Abbrev":"MS"},
"geometry":{ "type": "Point", "coordinates": [-90.471131,31.007316]}},
{ "type": "Feature", "properties": {"Name":"Ovett CDP","State":"Mississippi","State_Abbrev":"MS"},
"geometry":{ "type": "Point", "coordinates": [-89.025273,31.488577]}},
{ "type": "Feature", "properties": {"Name":"Oxford city","State":"Mississippi","State_Abbrev":"MS"},
"geometry":{ "type": "Point", "coordinates": [-89.536981,34.351262]}},
{ "type": "Feature", "properties": {"Name":"Pace town","State":"Mississippi","State_Abbrev":"MS"},
"geometry":{ "type": "Point", "coordinates": [-90.85914,33.792246]}},
{ "type": "Feature", "properties": {"Name":"Pachuta town","State":"Mississippi","State_Abbrev":"MS"},
"geometry":{ "type": "Point", "coordinates": [-88.884393,32.044108]}},
{ "type": "Feature", "properties": {"Name":"Paden village","State":"Mississippi","State_Abbrev":"MS"},
"geometry":{ "type": "Point", "coordinates": [-88.260508,34.660276]}},
{ "type": "Feature", "properties": {"Name":"Panther Burn CDP","State":"Mississippi","State_Abbrev":"MS"},
"geometry":{ "type": "Point", "coordinates": [-90.872624,33.06585]}},
{ "type": "Feature", "properties": {"Name":"Paris CDP","State":"Mississippi","State_Abbrev":"MS"},
"geometry":{ "type": "Point", "coordinates": [-89.451776,34.174836]}},
{ "type": "Feature", "properties": {"Name":"Pascagoula city","State":"Mississippi","State_Abbrev":"MS"},
"geometry":{ "type": "Point", "coordinates": [-88.556327,30.360067]}},
{ "type": "Feature", "properties": {"Name":"Pass Christian city","State":"Mississippi","State_Abbrev":"MS"},
"geometry":{ "type": "Point", "coordinates": [-89.239082,30.318029]}},
{ "type": "Feature", "properties": {"Name":"Pattison CDP","State":"Mississippi","State_Abbrev":"MS"},
"geometry":{ "type": "Point", "coordinates": [-90.883921,31.890824]}},
{ "type": "Feature", "properties": {"Name":"Pearl city","State":"Mississippi","State_Abbrev":"MS"},
"geometry":{ "type": "Point", "coordinates": [-90.091827,32.272456]}},
{ "type": "Feature", "properties": {"Name":"Pearlington CDP","State":"Mississippi","State_Abbrev":"MS"},
"geometry":{ "type": "Point", "coordinates": [-89.604803,30.250826]}},
{ "type": "Feature", "properties": {"Name":"Pearl River CDP","State":"Mississippi","State_Abbrev":"MS"},
"geometry":{ "type": "Point", "coordinates": [-89.240905,32.796878]}},
{ "type": "Feature", "properties": {"Name":"Pelahatchie town","State":"Mississippi","State_Abbrev":"MS"},
"geometry":{ "type": "Point", "coordinates": [-89.807951,32.320903]}},
{ "type": "Feature", "properties": {"Name":"Petal city","State":"Mississippi","State_Abbrev":"MS"},
"geometry":{ "type": "Point", "coordinates": [-89.235131,31.34817]}},
{ "type": "Feature", "properties": {"Name":"Pheba CDP","State":"Mississippi","State_Abbrev":"MS"},
"geometry":{ "type": "Point", "coordinates": [-88.949397,33.583656]}},
{ "type": "Feature", "properties": {"Name":"Philadelphia city","State":"Mississippi","State_Abbrev":"MS"},
"geometry":{ "type": "Point", "coordinates": [-89.122045,32.775106]}},
{ "type": "Feature", "properties": {"Name":"Picayune city","State":"Mississippi","State_Abbrev":"MS"},
"geometry":{ "type": "Point", "coordinates": [-89.670628,30.53082]}},
{ "type": "Feature", "properties": {"Name":"Pickens town","State":"Mississippi","State_Abbrev":"MS"},
"geometry":{ "type": "Point", "coordinates": [-89.968775,32.89132]}},
{ "type": "Feature", "properties": {"Name":"Pittsboro village","State":"Mississippi","State_Abbrev":"MS"},
"geometry":{ "type": "Point", "coordinates": [-89.337291,33.940002]}},
{ "type": "Feature", "properties": {"Name":"Plantersville town","State":"Mississippi","State_Abbrev":"MS"},
"geometry":{ "type": "Point", "coordinates": [-88.665435,34.208169]}},
{ "type": "Feature", "properties": {"Name":"Polkville town","State":"Mississippi","State_Abbrev":"MS"},
"geometry":{ "type": "Point", "coordinates": [-89.695976,32.190936]}},
{ "type": "Feature", "properties": {"Name":"Pontotoc city","State":"Mississippi","State_Abbrev":"MS"},
"geometry":{ "type": "Point", "coordinates": [-89.008348,34.25088]}},
{ "type": "Feature", "properties": {"Name":"Pope village","State":"Mississippi","State_Abbrev":"MS"},
"geometry":{ "type": "Point", "coordinates": [-89.944792,34.215775]}},
{ "type": "Feature", "properties": {"Name":"Poplarville city","State":"Mississippi","State_Abbrev":"MS"},
"geometry":{ "type": "Point", "coordinates": [-89.530092,30.839699]}},
{ "type": "Feature", "properties": {"Name":"Porterville CDP","State":"Mississippi","State_Abbrev":"MS"},
"geometry":{ "type": "Point", "coordinates": [-88.471271,32.685429]}},
{ "type": "Feature", "properties": {"Name":"Port Gibson city","State":"Mississippi","State_Abbrev":"MS"},
"geometry":{ "type": "Point", "coordinates": [-90.983438,31.955816]}},
{ "type": "Feature", "properties": {"Name":"Potts Camp town","State":"Mississippi","State_Abbrev":"MS"},
"geometry":{ "type": "Point", "coordinates": [-89.306424,34.649188]}},
{ "type": "Feature", "properties": {"Name":"Prentiss town","State":"Mississippi","State_Abbrev":"MS"},
"geometry":{ "type": "Point", "coordinates": [-89.874654,31.599464]}},
{ "type": "Feature", "properties": {"Name":"Puckett village","State":"Mississippi","State_Abbrev":"MS"},
"geometry":{ "type": "Point", "coordinates": [-89.781689,32.086831]}},
{ "type": "Feature", "properties": {"Name":"Purvis city","State":"Mississippi","State_Abbrev":"MS"},
"geometry":{ "type": "Point", "coordinates": [-89.406281,31.146366]}},
{ "type": "Feature", "properties": {"Name":"Quitman city","State":"Mississippi","State_Abbrev":"MS"},
"geometry":{ "type": "Point", "coordinates": [-88.720518,32.04152]}},
{ "type": "Feature", "properties": {"Name":"Raleigh town","State":"Mississippi","State_Abbrev":"MS"},
"geometry":{ "type": "Point", "coordinates": [-89.525703,32.034662]}},
{ "type": "Feature", "properties": {"Name":"Randolph CDP","State":"Mississippi","State_Abbrev":"MS"},
"geometry":{ "type": "Point", "coordinates": [-89.161628,34.181328]}},
{ "type": "Feature", "properties": {"Name":"Rawls Springs CDP","State":"Mississippi","State_Abbrev":"MS"},
"geometry":{ "type": "Point", "coordinates": [-89.386531,31.383398]}},
{ "type": "Feature", "properties": {"Name":"Raymond city","State":"Mississippi","State_Abbrev":"MS"},
"geometry":{ "type": "Point", "coordinates": [-90.409023,32.260966]}},
{ "type": "Feature", "properties": {"Name":"Red Banks CDP","State":"Mississippi","State_Abbrev":"MS"},
"geometry":{ "type": "Point", "coordinates": [-89.563407,34.834689]}},
{ "type": "Feature", "properties": {"Name":"Redwater CDP","State":"Mississippi","State_Abbrev":"MS"},
"geometry":{ "type": "Point", "coordinates": [-89.55336,32.792793]}},
{ "type": "Feature", "properties": {"Name":"Redwood CDP","State":"Mississippi","State_Abbrev":"MS"},
"geometry":{ "type": "Point", "coordinates": [-90.79685,32.473469]}},
{ "type": "Feature", "properties": {"Name":"Rena Lara CDP","State":"Mississippi","State_Abbrev":"MS"},
"geometry":{ "type": "Point", "coordinates": [-90.774874,34.158765]}},
{ "type": "Feature", "properties": {"Name":"Renova town","State":"Mississippi","State_Abbrev":"MS"},
"geometry":{ "type": "Point", "coordinates": [-90.723195,33.780475]}},
{ "type": "Feature", "properties": {"Name":"Richland city","State":"Mississippi","State_Abbrev":"MS"},
"geometry":{ "type": "Point", "coordinates": [-90.159622,32.230413]}},
{ "type": "Feature", "properties": {"Name":"Richton town","State":"Mississippi","State_Abbrev":"MS"},
"geometry":{ "type": "Point", "coordinates": [-88.940739,31.34948]}},
{ "type": "Feature", "properties": {"Name":"Ridgeland city","State":"Mississippi","State_Abbrev":"MS"},
"geometry":{ "type": "Point", "coordinates": [-90.161773,32.423676]}},
{ "type": "Feature", "properties": {"Name":"Rienzi town","State":"Mississippi","State_Abbrev":"MS"},
"geometry":{ "type": "Point", "coordinates": [-88.533973,34.763317]}},
{ "type": "Feature", "properties": {"Name":"Ripley city","State":"Mississippi","State_Abbrev":"MS"},
"geometry":{ "type": "Point", "coordinates": [-88.94353,34.732437]}},
{ "type": "Feature", "properties": {"Name":"Robinhood CDP","State":"Mississippi","State_Abbrev":"MS"},
"geometry":{ "type": "Point", "coordinates": [-89.96733,32.200396]}},
{ "type": "Feature", "properties": {"Name":"Rolling Fork city","State":"Mississippi","State_Abbrev":"MS"},
"geometry":{ "type": "Point", "coordinates": [-90.876907,32.907304]}},
{ "type": "Feature", "properties": {"Name":"Rosedale city","State":"Mississippi","State_Abbrev":"MS"},
"geometry":{ "type": "Point", "coordinates": [-91.043531,33.860221]}},
{ "type": "Feature", "properties": {"Name":"Roxie town","State":"Mississippi","State_Abbrev":"MS"},
"geometry":{ "type": "Point", "coordinates": [-91.071036,31.507676]}},
{ "type": "Feature", "properties": {"Name":"Ruleville city","State":"Mississippi","State_Abbrev":"MS"},
"geometry":{ "type": "Point", "coordinates": [-90.550317,33.72491]}},
{ "type": "Feature", "properties": {"Name":"Runnelstown CDP","State":"Mississippi","State_Abbrev":"MS"},
"geometry":{ "type": "Point", "coordinates": [-89.114268,31.377849]}},
{ "type": "Feature", "properties": {"Name":"St. Martin CDP","State":"Mississippi","State_Abbrev":"MS"},
"geometry":{ "type": "Point", "coordinates": [-88.861742,30.438052]}},
{ "type": "Feature", "properties": {"Name":"Sallis town","State":"Mississippi","State_Abbrev":"MS"},
"geometry":{ "type": "Point", "coordinates": [-89.764736,33.021552]}},
{ "type": "Feature", "properties": {"Name":"Saltillo city","State":"Mississippi","State_Abbrev":"MS"},
"geometry":{ "type": "Point", "coordinates": [-88.693641,34.378461]}},
{ "type": "Feature", "properties": {"Name":"Sandersville town","State":"Mississippi","State_Abbrev":"MS"},
"geometry":{ "type": "Point", "coordinates": [-89.039758,31.784016]}},
{ "type": "Feature", "properties": {"Name":"Sardis town","State":"Mississippi","State_Abbrev":"MS"},
"geometry":{ "type": "Point", "coordinates": [-89.911362,34.435505]}},
{ "type": "Feature", "properties": {"Name":"Satartia village","State":"Mississippi","State_Abbrev":"MS"},
"geometry":{ "type": "Point", "coordinates": [-90.544522,32.671959]}},
{ "type": "Feature", "properties": {"Name":"Saucier CDP","State":"Mississippi","State_Abbrev":"MS"},
"geometry":{ "type": "Point", "coordinates": [-89.142271,30.620874]}},
{ "type": "Feature", "properties": {"Name":"Schlater town","State":"Mississippi","State_Abbrev":"MS"},
"geometry":{ "type": "Point", "coordinates": [-90.349361,33.639707]}},
{ "type": "Feature", "properties": {"Name":"Scooba town","State":"Mississippi","State_Abbrev":"MS"},
"geometry":{ "type": "Point", "coordinates": [-88.477118,32.830179]}},
{ "type": "Feature", "properties": {"Name":"Scott CDP","State":"Mississippi","State_Abbrev":"MS"},
"geometry":{ "type": "Point", "coordinates": [-91.076023,33.594467]}},
{ "type": "Feature", "properties": {"Name":"Sebastopol town","State":"Mississippi","State_Abbrev":"MS"},
"geometry":{ "type": "Point", "coordinates": [-89.333992,32.567925]}},
{ "type": "Feature", "properties": {"Name":"Seminary town","State":"Mississippi","State_Abbrev":"MS"},
"geometry":{ "type": "Point", "coordinates": [-89.49931,31.557705]}},
{ "type": "Feature", "properties": {"Name":"Senatobia city","State":"Mississippi","State_Abbrev":"MS"},
"geometry":{ "type": "Point", "coordinates": [-89.980994,34.60865]}},
{ "type": "Feature", "properties": {"Name":"Shannon town","State":"Mississippi","State_Abbrev":"MS"},
"geometry":{ "type": "Point", "coordinates": [-88.693131,34.114416]}},
{ "type": "Feature", "properties": {"Name":"Sharon CDP","State":"Mississippi","State_Abbrev":"MS"},
"geometry":{ "type": "Point", "coordinates": [-89.092938,31.795475]}},
{ "type": "Feature", "properties": {"Name":"Shaw city","State":"Mississippi","State_Abbrev":"MS"},
"geometry":{ "type": "Point", "coordinates": [-90.771987,33.601492]}},
{ "type": "Feature", "properties": {"Name":"Shelby city","State":"Mississippi","State_Abbrev":"MS"},
"geometry":{ "type": "Point", "coordinates": [-90.765091,33.950528]}},
{ "type": "Feature", "properties": {"Name":"Sherman town","State":"Mississippi","State_Abbrev":"MS"},
"geometry":{ "type": "Point", "coordinates": [-88.838744,34.36117]}},
{ "type": "Feature", "properties": {"Name":"Shubuta town","State":"Mississippi","State_Abbrev":"MS"},
"geometry":{ "type": "Point", "coordinates": [-88.702051,31.862036]}},
{ "type": "Feature", "properties": {"Name":"Shuqualak town","State":"Mississippi","State_Abbrev":"MS"},
"geometry":{ "type": "Point", "coordinates": [-88.569299,32.979281]}},
{ "type": "Feature", "properties": {"Name":"Sidon town","State":"Mississippi","State_Abbrev":"MS"},
"geometry":{ "type": "Point", "coordinates": [-90.208077,33.407931]}},
{ "type": "Feature", "properties": {"Name":"Silver City town","State":"Mississippi","State_Abbrev":"MS"},
"geometry":{ "type": "Point", "coordinates": [-90.499024,33.093691]}},
{ "type": "Feature", "properties": {"Name":"Silver Creek town","State":"Mississippi","State_Abbrev":"MS"},
"geometry":{ "type": "Point", "coordinates": [-90.002316,31.604792]}},
{ "type": "Feature", "properties": {"Name":"Skene CDP","State":"Mississippi","State_Abbrev":"MS"},
"geometry":{ "type": "Point", "coordinates": [-90.797405,33.703989]}},
{ "type": "Feature", "properties": {"Name":"Slate Springs village","State":"Mississippi","State_Abbrev":"MS"},
"geometry":{ "type": "Point", "coordinates": [-89.375167,33.741713]}},
{ "type": "Feature", "properties": {"Name":"Sledge town","State":"Mississippi","State_Abbrev":"MS"},
"geometry":{ "type": "Point", "coordinates": [-90.221177,34.432632]}},
{ "type": "Feature", "properties": {"Name":"Smithville town","State":"Mississippi","State_Abbrev":"MS"},
"geometry":{ "type": "Point", "coordinates": [-88.398154,34.067963]}},
{ "type": "Feature", "properties": {"Name":"Snow Lake Shores town","State":"Mississippi","State_Abbrev":"MS"},
"geometry":{ "type": "Point", "coordinates": [-89.23813,34.821253]}},
{ "type": "Feature", "properties": {"Name":"Soso town","State":"Mississippi","State_Abbrev":"MS"},
"geometry":{ "type": "Point", "coordinates": [-89.276873,31.75028]}},
{ "type": "Feature", "properties": {"Name":"Southaven city","State":"Mississippi","State_Abbrev":"MS"},
"geometry":{ "type": "Point", "coordinates": [-89.977669,34.951005]}},
{ "type": "Feature", "properties": {"Name":"Standing Pine CDP","State":"Mississippi","State_Abbrev":"MS"},
"geometry":{ "type": "Point", "coordinates": [-89.452088,32.671027]}},
{ "type": "Feature", "properties": {"Name":"Starkville city","State":"Mississippi","State_Abbrev":"MS"},
"geometry":{ "type": "Point", "coordinates": [-88.832691,33.458808]}},
{ "type": "Feature", "properties": {"Name":"State Line town","State":"Mississippi","State_Abbrev":"MS"},
"geometry":{ "type": "Point", "coordinates": [-88.473477,31.436095]}},
{ "type": "Feature", "properties": {"Name":"Stewart CDP","State":"Mississippi","State_Abbrev":"MS"},
"geometry":{ "type": "Point", "coordinates": [-89.437548,33.451888]}},
{ "type": "Feature", "properties": {"Name":"Stoneville CDP","State":"Mississippi","State_Abbrev":"MS"},
"geometry":{ "type": "Point", "coordinates": [-90.921629,33.423804]}},
{ "type": "Feature", "properties": {"Name":"Stonewall town","State":"Mississippi","State_Abbrev":"MS"},
"geometry":{ "type": "Point", "coordinates": [-88.797408,32.134983]}},
{ "type": "Feature", "properties": {"Name":"Strayhorn CDP","State":"Mississippi","State_Abbrev":"MS"},
"geometry":{ "type": "Point", "coordinates": [-90.152566,34.615896]}},
{ "type": "Feature", "properties": {"Name":"Sturgis town","State":"Mississippi","State_Abbrev":"MS"},
"geometry":{ "type": "Point", "coordinates": [-89.045774,33.345164]}},
{ "type": "Feature", "properties": {"Name":"Summit town","State":"Mississippi","State_Abbrev":"MS"},
"geometry":{ "type": "Point", "coordinates": [-90.466977,31.280815]}},
{ "type": "Feature", "properties": {"Name":"Sumner town","State":"Mississippi","State_Abbrev":"MS"},
"geometry":{ "type": "Point", "coordinates": [-90.369275,33.969317]}},
{ "type": "Feature", "properties": {"Name":"Sumrall town","State":"Mississippi","State_Abbrev":"MS"},
"geometry":{ "type": "Point", "coordinates": [-89.541777,31.417028]}},
{ "type": "Feature", "properties": {"Name":"Sunflower town","State":"Mississippi","State_Abbrev":"MS"},
"geometry":{ "type": "Point", "coordinates": [-90.537289,33.544296]}},
{ "type": "Feature", "properties": {"Name":"Sylvarena village","State":"Mississippi","State_Abbrev":"MS"},
"geometry":{ "type": "Point", "coordinates": [-89.381796,32.014376]}},
{ "type": "Feature", "properties": {"Name":"Symonds CDP","State":"Mississippi","State_Abbrev":"MS"},
"geometry":{ "type": "Point", "coordinates": [-90.889524,33.833929]}},
{ "type": "Feature", "properties": {"Name":"Taylor village","State":"Mississippi","State_Abbrev":"MS"},
"geometry":{ "type": "Point", "coordinates": [-89.583686,34.269742]}},
{ "type": "Feature", "properties": {"Name":"Taylorsville town","State":"Mississippi","State_Abbrev":"MS"},
"geometry":{ "type": "Point", "coordinates": [-89.433973,31.832174]}},
{ "type": "Feature", "properties": {"Name":"Tchula town","State":"Mississippi","State_Abbrev":"MS"},
"geometry":{ "type": "Point", "coordinates": [-90.222848,33.183181]}},
{ "type": "Feature", "properties": {"Name":"Terry town","State":"Mississippi","State_Abbrev":"MS"},
"geometry":{ "type": "Point", "coordinates": [-90.292595,32.106057]}},
{ "type": "Feature", "properties": {"Name":"Thaxton town","State":"Mississippi","State_Abbrev":"MS"},
"geometry":{ "type": "Point", "coordinates": [-89.171737,34.302905]}},
{ "type": "Feature", "properties": {"Name":"Tillatoba town","State":"Mississippi","State_Abbrev":"MS"},
"geometry":{ "type": "Point", "coordinates": [-89.89606,33.985086]}},
{ "type": "Feature", "properties": {"Name":"Tishomingo town","State":"Mississippi","State_Abbrev":"MS"},
"geometry":{ "type": "Point", "coordinates": [-88.229144,34.638284]}},
{ "type": "Feature", "properties": {"Name":"Toccopola town","State":"Mississippi","State_Abbrev":"MS"},
"geometry":{ "type": "Point", "coordinates": [-89.221314,34.255254]}},
{ "type": "Feature", "properties": {"Name":"Toomsuba CDP","State":"Mississippi","State_Abbrev":"MS"},
"geometry":{ "type": "Point", "coordinates": [-88.507088,32.430282]}},
{ "type": "Feature", "properties": {"Name":"Tremont town","State":"Mississippi","State_Abbrev":"MS"},
"geometry":{ "type": "Point", "coordinates": [-88.248936,34.233728]}},
{ "type": "Feature", "properties": {"Name":"Tucker CDP","State":"Mississippi","State_Abbrev":"MS"},
"geometry":{ "type": "Point", "coordinates": [-89.049074,32.707777]}},
{ "type": "Feature", "properties": {"Name":"Tula CDP","State":"Mississippi","State_Abbrev":"MS"},
"geometry":{ "type": "Point", "coordinates": [-89.368423,34.237174]}},
{ "type": "Feature", "properties": {"Name":"Tunica town","State":"Mississippi","State_Abbrev":"MS"},
"geometry":{ "type": "Point", "coordinates": [-90.380937,34.688137]}},
{ "type": "Feature", "properties": {"Name":"Tunica Resorts CDP","State":"Mississippi","State_Abbrev":"MS"},
"geometry":{ "type": "Point", "coordinates": [-90.321189,34.824186]}},
{ "type": "Feature", "properties": {"Name":"Tupelo city","State":"Mississippi","State_Abbrev":"MS"},
"geometry":{ "type": "Point", "coordinates": [-88.732455,34.270604]}},
{ "type": "Feature", "properties": {"Name":"Tutwiler town","State":"Mississippi","State_Abbrev":"MS"},
"geometry":{ "type": "Point", "coordinates": [-90.433339,34.01718]}},
{ "type": "Feature", "properties": {"Name":"Tylertown town","State":"Mississippi","State_Abbrev":"MS"},
"geometry":{ "type": "Point", "coordinates": [-90.144851,31.1172]}},
{ "type": "Feature", "properties": {"Name":"Union town","State":"Mississippi","State_Abbrev":"MS"},
"geometry":{ "type": "Point", "coordinates": [-89.115203,32.571128]}},
{ "type": "Feature", "properties": {"Name":"University CDP","State":"Mississippi","State_Abbrev":"MS"},
"geometry":{ "type": "Point", "coordinates": [-89.537871,34.365529]}},
{ "type": "Feature", "properties": {"Name":"Utica town","State":"Mississippi","State_Abbrev":"MS"},
"geometry":{ "type": "Point", "coordinates": [-90.622234,32.107254]}},
{ "type": "Feature", "properties": {"Name":"Vaiden town","State":"Mississippi","State_Abbrev":"MS"},
"geometry":{ "type": "Point", "coordinates": [-89.752603,33.332523]}},
{ "type": "Feature", "properties": {"Name":"Valley Park CDP","State":"Mississippi","State_Abbrev":"MS"},
"geometry":{ "type": "Point", "coordinates": [-90.850666,32.631363]}},
{ "type": "Feature", "properties": {"Name":"Vancleave CDP","State":"Mississippi","State_Abbrev":"MS"},
"geometry":{ "type": "Point", "coordinates": [-88.673409,30.545918]}},
{ "type": "Feature", "properties": {"Name":"Van Vleet CDP","State":"Mississippi","State_Abbrev":"MS"},
"geometry":{ "type": "Point", "coordinates": [-88.89717,33.983217]}},
{ "type": "Feature", "properties": {"Name":"Vardaman town","State":"Mississippi","State_Abbrev":"MS"},
"geometry":{ "type": "Point", "coordinates": [-89.177796,33.882195]}},
{ "type": "Feature", "properties": {"Name":"Verona city","State":"Mississippi","State_Abbrev":"MS"},
"geometry":{ "type": "Point", "coordinates": [-88.720503,34.18969]}},
{ "type": "Feature", "properties": {"Name":"Vicksburg city","State":"Mississippi","State_Abbrev":"MS"},
"geometry":{ "type": "Point", "coordinates": [-90.881557,32.322004]}},
{ "type": "Feature", "properties": {"Name":"Victoria CDP","State":"Mississippi","State_Abbrev":"MS"},
"geometry":{ "type": "Point", "coordinates": [-89.61542,34.838995]}},
{ "type": "Feature", "properties": {"Name":"Wade CDP","State":"Mississippi","State_Abbrev":"MS"},
"geometry":{ "type": "Point", "coordinates": [-88.555842,30.629681]}},
{ "type": "Feature", "properties": {"Name":"Walls town","State":"Mississippi","State_Abbrev":"MS"},
"geometry":{ "type": "Point", "coordinates": [-90.167744,34.925861]}},
{ "type": "Feature", "properties": {"Name":"Walnut town","State":"Mississippi","State_Abbrev":"MS"},
"geometry":{ "type": "Point", "coordinates": [-88.924455,34.949671]}},
{ "type": "Feature", "properties": {"Name":"Walnut Grove town","State":"Mississippi","State_Abbrev":"MS"},
"geometry":{ "type": "Point", "coordinates": [-89.457826,32.593169]}},
{ "type": "Feature", "properties": {"Name":"Walthall village","State":"Mississippi","State_Abbrev":"MS"},
"geometry":{ "type": "Point", "coordinates": [-89.279109,33.606669]}},
{ "type": "Feature", "properties": {"Name":"Waterford CDP","State":"Mississippi","State_Abbrev":"MS"},
"geometry":{ "type": "Point", "coordinates": [-89.457547,34.649436]}},
{ "type": "Feature", "properties": {"Name":"Water Valley city","State":"Mississippi","State_Abbrev":"MS"},
"geometry":{ "type": "Point", "coordinates": [-89.63012,34.16199]}},
{ "type": "Feature", "properties": {"Name":"Waveland city","State":"Mississippi","State_Abbrev":"MS"},
"geometry":{ "type": "Point", "coordinates": [-89.393703,30.295414]}},
{ "type": "Feature", "properties": {"Name":"Waynesboro city","State":"Mississippi","State_Abbrev":"MS"},
"geometry":{ "type": "Point", "coordinates": [-88.63384,31.677557]}},
{ "type": "Feature", "properties": {"Name":"Webb town","State":"Mississippi","State_Abbrev":"MS"},
"geometry":{ "type": "Point", "coordinates": [-90.346332,33.947746]}},
{ "type": "Feature", "properties": {"Name":"Weir town","State":"Mississippi","State_Abbrev":"MS"},
"geometry":{ "type": "Point", "coordinates": [-89.295333,33.261333]}},
{ "type": "Feature", "properties": {"Name":"Wesson town","State":"Mississippi","State_Abbrev":"MS"},
"geometry":{ "type": "Point", "coordinates": [-90.395042,31.69993]}},
{ "type": "Feature", "properties": {"Name":"West town","State":"Mississippi","State_Abbrev":"MS"},
"geometry":{ "type": "Point", "coordinates": [-89.782106,33.197767]}},
{ "type": "Feature", "properties": {"Name":"West Hattiesburg CDP","State":"Mississippi","State_Abbrev":"MS"},
"geometry":{ "type": "Point", "coordinates": [-89.377151,31.309957]}},
{ "type": "Feature", "properties": {"Name":"West Point city","State":"Mississippi","State_Abbrev":"MS"},
"geometry":{ "type": "Point", "coordinates": [-88.657568,33.606236]}},
{ "type": "Feature", "properties": {"Name":"Wheeler CDP","State":"Mississippi","State_Abbrev":"MS"},
"geometry":{ "type": "Point", "coordinates": [-88.602478,34.583662]}},
{ "type": "Feature", "properties": {"Name":"White Oak CDP","State":"Mississippi","State_Abbrev":"MS"},
"geometry":{ "type": "Point", "coordinates": [-90.349435,34.643868]}},
{ "type": "Feature", "properties": {"Name":"Wiggins city","State":"Mississippi","State_Abbrev":"MS"},
"geometry":{ "type": "Point", "coordinates": [-89.138981,30.856048]}},
{ "type": "Feature", "properties": {"Name":"Winona city","State":"Mississippi","State_Abbrev":"MS"},
"geometry":{ "type": "Point", "coordinates": [-89.729287,33.490256]}},
{ "type": "Feature", "properties": {"Name":"Winstonville town","State":"Mississippi","State_Abbrev":"MS"},
"geometry":{ "type": "Point", "coordinates": [-90.752884,33.912292]}},
{ "type": "Feature", "properties": {"Name":"Winterville CDP","State":"Mississippi","State_Abbrev":"MS"},
"geometry":{ "type": "Point", "coordinates": [-91.060278,33.502352]}},
{ "type": "Feature", "properties": {"Name":"Woodland village","State":"Mississippi","State_Abbrev":"MS"},
"geometry":{ "type": "Point", "coordinates": [-89.05069,33.779675]}},
{ "type": "Feature", "properties": {"Name":"Woodville town","State":"Mississippi","State_Abbrev":"MS"},
"geometry":{ "type": "Point", "coordinates": [-91.299257,31.102891]}},
{ "type": "Feature", "properties": {"Name":"Yazoo City city","State":"Mississippi","State_Abbrev":"MS"},
"geometry":{ "type": "Point", "coordinates": [-90.407996,32.862219]}}]}
