{"type":"FeatureCollection","features":[
{ "type": "Feature", "properties": {"Name":"Adrian city","State":"Missouri","State_Abbrev":"MO"},
"geometry":{ "type": "Point", "coordinates": [-94.342954,38.39633]}},
{ "type": "Feature", "properties": {"Name":"Advance city","State":"Missouri","State_Abbrev":"MO"},
"geometry":{ "type": "Point", "coordinates": [-89.911722,37.103749]}},
{ "type": "Feature", "properties": {"Name":"Affton CDP","State":"Missouri","State_Abbrev":"MO"},
"geometry":{ "type": "Point", "coordinates": [-90.326423,38.549912]}},
{ "type": "Feature", "properties": {"Name":"Agency village","State":"Missouri","State_Abbrev":"MO"},
"geometry":{ "type": "Point", "coordinates": [-94.748333,39.655456]}},
{ "type": "Feature", "properties": {"Name":"Airport Drive village","State":"Missouri","State_Abbrev":"MO"},
"geometry":{ "type": "Point", "coordinates": [-94.516193,37.140544]}},
{ "type": "Feature", "properties": {"Name":"Alba city","State":"Missouri","State_Abbrev":"MO"},
"geometry":{ "type": "Point", "coordinates": [-94.417611,37.237155]}},
{ "type": "Feature", "properties": {"Name":"Albany city","State":"Missouri","State_Abbrev":"MO"},
"geometry":{ "type": "Point", "coordinates": [-94.333455,40.247893]}},
{ "type": "Feature", "properties": {"Name":"Aldrich village","State":"Missouri","State_Abbrev":"MO"},
"geometry":{ "type": "Point", "coordinates": [-93.550522,37.548471]}},
{ "type": "Feature", "properties": {"Name":"Alexandria city","State":"Missouri","State_Abbrev":"MO"},
"geometry":{ "type": "Point", "coordinates": [-91.459398,40.359887]}},
{ "type": "Feature", "properties": {"Name":"Allendale village","State":"Missouri","State_Abbrev":"MO"},
"geometry":{ "type": "Point", "coordinates": [-94.288679,40.48534]}},
{ "type": "Feature", "properties": {"Name":"Allenville village","State":"Missouri","State_Abbrev":"MO"},
"geometry":{ "type": "Point", "coordinates": [-89.755466,37.221831]}},
{ "type": "Feature", "properties": {"Name":"Alma city","State":"Missouri","State_Abbrev":"MO"},
"geometry":{ "type": "Point", "coordinates": [-93.5478,39.096409]}},
{ "type": "Feature", "properties": {"Name":"Altamont village","State":"Missouri","State_Abbrev":"MO"},
"geometry":{ "type": "Point", "coordinates": [-94.087031,39.888033]}},
{ "type": "Feature", "properties": {"Name":"Altenburg city","State":"Missouri","State_Abbrev":"MO"},
"geometry":{ "type": "Point", "coordinates": [-89.585897,37.630441]}},
{ "type": "Feature", "properties": {"Name":"Alton city","State":"Missouri","State_Abbrev":"MO"},
"geometry":{ "type": "Point", "coordinates": [-91.391716,36.690843]}},
{ "type": "Feature", "properties": {"Name":"Amazonia village","State":"Missouri","State_Abbrev":"MO"},
"geometry":{ "type": "Point", "coordinates": [-94.892276,39.889405]}},
{ "type": "Feature", "properties": {"Name":"Amity town","State":"Missouri","State_Abbrev":"MO"},
"geometry":{ "type": "Point", "coordinates": [-94.4347,39.868335]}},
{ "type": "Feature", "properties": {"Name":"Amoret city","State":"Missouri","State_Abbrev":"MO"},
"geometry":{ "type": "Point", "coordinates": [-94.58729,38.254796]}},
{ "type": "Feature", "properties": {"Name":"Amsterdam city","State":"Missouri","State_Abbrev":"MO"},
"geometry":{ "type": "Point", "coordinates": [-94.589065,38.349503]}},
{ "type": "Feature", "properties": {"Name":"Anderson city","State":"Missouri","State_Abbrev":"MO"},
"geometry":{ "type": "Point", "coordinates": [-94.444091,36.653148]}},
{ "type": "Feature", "properties": {"Name":"Annada village","State":"Missouri","State_Abbrev":"MO"},
"geometry":{ "type": "Point", "coordinates": [-90.828726,39.262293]}},
{ "type": "Feature", "properties": {"Name":"Annapolis city","State":"Missouri","State_Abbrev":"MO"},
"geometry":{ "type": "Point", "coordinates": [-90.695774,37.361062]}},
{ "type": "Feature", "properties": {"Name":"Anniston town","State":"Missouri","State_Abbrev":"MO"},
"geometry":{ "type": "Point", "coordinates": [-89.326655,36.824339]}},
{ "type": "Feature", "properties": {"Name":"Appleton City city","State":"Missouri","State_Abbrev":"MO"},
"geometry":{ "type": "Point", "coordinates": [-94.031668,38.191141]}},
{ "type": "Feature", "properties": {"Name":"Arbela town","State":"Missouri","State_Abbrev":"MO"},
"geometry":{ "type": "Point", "coordinates": [-92.015571,40.463135]}},
{ "type": "Feature", "properties": {"Name":"Arbyrd city","State":"Missouri","State_Abbrev":"MO"},
"geometry":{ "type": "Point", "coordinates": [-90.239916,36.053454]}},
{ "type": "Feature", "properties": {"Name":"Arcadia city","State":"Missouri","State_Abbrev":"MO"},
"geometry":{ "type": "Point", "coordinates": [-90.629496,37.585879]}},
{ "type": "Feature", "properties": {"Name":"Archie city","State":"Missouri","State_Abbrev":"MO"},
"geometry":{ "type": "Point", "coordinates": [-94.350614,38.481116]}},
{ "type": "Feature", "properties": {"Name":"Arcola village","State":"Missouri","State_Abbrev":"MO"},
"geometry":{ "type": "Point", "coordinates": [-93.875295,37.549286]}},
{ "type": "Feature", "properties": {"Name":"Argyle town","State":"Missouri","State_Abbrev":"MO"},
"geometry":{ "type": "Point", "coordinates": [-92.025533,38.295386]}},
{ "type": "Feature", "properties": {"Name":"Arkoe town","State":"Missouri","State_Abbrev":"MO"},
"geometry":{ "type": "Point", "coordinates": [-94.827943,40.259376]}},
{ "type": "Feature", "properties": {"Name":"Armstrong city","State":"Missouri","State_Abbrev":"MO"},
"geometry":{ "type": "Point", "coordinates": [-92.704173,39.26918]}},
{ "type": "Feature", "properties": {"Name":"Arnold city","State":"Missouri","State_Abbrev":"MO"},
"geometry":{ "type": "Point", "coordinates": [-90.36931,38.42601]}},
{ "type": "Feature", "properties": {"Name":"Arrow Point village","State":"Missouri","State_Abbrev":"MO"},
"geometry":{ "type": "Point", "coordinates": [-93.622374,36.544076]}},
{ "type": "Feature", "properties": {"Name":"Arrow Rock town","State":"Missouri","State_Abbrev":"MO"},
"geometry":{ "type": "Point", "coordinates": [-92.947247,39.07]}},
{ "type": "Feature", "properties": {"Name":"Asbury city","State":"Missouri","State_Abbrev":"MO"},
"geometry":{ "type": "Point", "coordinates": [-94.605154,37.272941]}},
{ "type": "Feature", "properties": {"Name":"Ashburn town","State":"Missouri","State_Abbrev":"MO"},
"geometry":{ "type": "Point", "coordinates": [-91.171962,39.545774]}},
{ "type": "Feature", "properties": {"Name":"Ash Grove city","State":"Missouri","State_Abbrev":"MO"},
"geometry":{ "type": "Point", "coordinates": [-93.579956,37.318511]}},
{ "type": "Feature", "properties": {"Name":"Ashland city","State":"Missouri","State_Abbrev":"MO"},
"geometry":{ "type": "Point", "coordinates": [-92.239531,38.812464]}},
{ "type": "Feature", "properties": {"Name":"Ashley CDP","State":"Missouri","State_Abbrev":"MO"},
"geometry":{ "type": "Point", "coordinates": [-91.223522,39.253271]}},
{ "type": "Feature", "properties": {"Name":"Atlanta city","State":"Missouri","State_Abbrev":"MO"},
"geometry":{ "type": "Point", "coordinates": [-92.480278,39.898224]}},
{ "type": "Feature", "properties": {"Name":"Augusta town","State":"Missouri","State_Abbrev":"MO"},
"geometry":{ "type": "Point", "coordinates": [-90.881162,38.569404]}},
{ "type": "Feature", "properties": {"Name":"Aullville village","State":"Missouri","State_Abbrev":"MO"},
"geometry":{ "type": "Point", "coordinates": [-93.677882,39.017495]}},
{ "type": "Feature", "properties": {"Name":"Aurora city","State":"Missouri","State_Abbrev":"MO"},
"geometry":{ "type": "Point", "coordinates": [-93.718596,36.967436]}},
{ "type": "Feature", "properties": {"Name":"Aurora Springs CDP","State":"Missouri","State_Abbrev":"MO"},
"geometry":{ "type": "Point", "coordinates": [-92.58236,38.324376]}},
{ "type": "Feature", "properties": {"Name":"Auxvasse city","State":"Missouri","State_Abbrev":"MO"},
"geometry":{ "type": "Point", "coordinates": [-91.895611,39.017487]}},
{ "type": "Feature", "properties": {"Name":"Ava city","State":"Missouri","State_Abbrev":"MO"},
"geometry":{ "type": "Point", "coordinates": [-92.665965,36.956222]}},
{ "type": "Feature", "properties": {"Name":"Avalon CDP","State":"Missouri","State_Abbrev":"MO"},
"geometry":{ "type": "Point", "coordinates": [-93.439342,39.659671]}},
{ "type": "Feature", "properties": {"Name":"Avilla town","State":"Missouri","State_Abbrev":"MO"},
"geometry":{ "type": "Point", "coordinates": [-94.129842,37.19381]}},
{ "type": "Feature", "properties": {"Name":"Avondale city","State":"Missouri","State_Abbrev":"MO"},
"geometry":{ "type": "Point", "coordinates": [-94.545168,39.154528]}},
{ "type": "Feature", "properties": {"Name":"Bagnell town","State":"Missouri","State_Abbrev":"MO"},
"geometry":{ "type": "Point", "coordinates": [-92.604144,38.231393]}},
{ "type": "Feature", "properties": {"Name":"Baker village","State":"Missouri","State_Abbrev":"MO"},
"geometry":{ "type": "Point", "coordinates": [-89.761394,36.773542]}},
{ "type": "Feature", "properties": {"Name":"Bakersfield village","State":"Missouri","State_Abbrev":"MO"},
"geometry":{ "type": "Point", "coordinates": [-92.14805,36.526673]}},
{ "type": "Feature", "properties": {"Name":"Baldwin Park village","State":"Missouri","State_Abbrev":"MO"},
"geometry":{ "type": "Point", "coordinates": [-94.248927,38.792703]}},
{ "type": "Feature", "properties": {"Name":"Ballwin city","State":"Missouri","State_Abbrev":"MO"},
"geometry":{ "type": "Point", "coordinates": [-90.550021,38.59506]}},
{ "type": "Feature", "properties": {"Name":"Baring city","State":"Missouri","State_Abbrev":"MO"},
"geometry":{ "type": "Point", "coordinates": [-92.205882,40.244831]}},
{ "type": "Feature", "properties": {"Name":"Barnard city","State":"Missouri","State_Abbrev":"MO"},
"geometry":{ "type": "Point", "coordinates": [-94.823167,40.1754]}},
{ "type": "Feature", "properties": {"Name":"Barnett city","State":"Missouri","State_Abbrev":"MO"},
"geometry":{ "type": "Point", "coordinates": [-92.674581,38.377408]}},
{ "type": "Feature", "properties": {"Name":"Barnhart CDP","State":"Missouri","State_Abbrev":"MO"},
"geometry":{ "type": "Point", "coordinates": [-90.405555,38.337049]}},
{ "type": "Feature", "properties": {"Name":"Bates City city","State":"Missouri","State_Abbrev":"MO"},
"geometry":{ "type": "Point", "coordinates": [-94.063391,39.003936]}},
{ "type": "Feature", "properties": {"Name":"Battlefield city","State":"Missouri","State_Abbrev":"MO"},
"geometry":{ "type": "Point", "coordinates": [-93.368289,37.119282]}},
{ "type": "Feature", "properties": {"Name":"Bella Villa city","State":"Missouri","State_Abbrev":"MO"},
"geometry":{ "type": "Point", "coordinates": [-90.285432,38.543621]}},
{ "type": "Feature", "properties": {"Name":"Bell City city","State":"Missouri","State_Abbrev":"MO"},
"geometry":{ "type": "Point", "coordinates": [-89.819341,37.024008]}},
{ "type": "Feature", "properties": {"Name":"Belle city","State":"Missouri","State_Abbrev":"MO"},
"geometry":{ "type": "Point", "coordinates": [-91.721466,38.285138]}},
{ "type": "Feature", "properties": {"Name":"Bellefontaine Neighbors city","State":"Missouri","State_Abbrev":"MO"},
"geometry":{ "type": "Point", "coordinates": [-90.227992,38.752849]}},
{ "type": "Feature", "properties": {"Name":"Bellerive Acres city","State":"Missouri","State_Abbrev":"MO"},
"geometry":{ "type": "Point", "coordinates": [-90.312133,38.712226]}},
{ "type": "Feature", "properties": {"Name":"Bellflower city","State":"Missouri","State_Abbrev":"MO"},
"geometry":{ "type": "Point", "coordinates": [-91.351664,39.003917]}},
{ "type": "Feature", "properties": {"Name":"Bel-Nor village","State":"Missouri","State_Abbrev":"MO"},
"geometry":{ "type": "Point", "coordinates": [-90.31779,38.698079]}},
{ "type": "Feature", "properties": {"Name":"Bel-Ridge village","State":"Missouri","State_Abbrev":"MO"},
"geometry":{ "type": "Point", "coordinates": [-90.328524,38.712818]}},
{ "type": "Feature", "properties": {"Name":"Belton city","State":"Missouri","State_Abbrev":"MO"},
"geometry":{ "type": "Point", "coordinates": [-94.529639,38.81873]}},
{ "type": "Feature", "properties": {"Name":"Bennett Springs CDP","State":"Missouri","State_Abbrev":"MO"},
"geometry":{ "type": "Point", "coordinates": [-92.856269,37.733714]}},
{ "type": "Feature", "properties": {"Name":"Benton city","State":"Missouri","State_Abbrev":"MO"},
"geometry":{ "type": "Point", "coordinates": [-89.560521,37.09934]}},
{ "type": "Feature", "properties": {"Name":"Benton City village","State":"Missouri","State_Abbrev":"MO"},
"geometry":{ "type": "Point", "coordinates": [-91.764865,39.134548]}},
{ "type": "Feature", "properties": {"Name":"Bent Tree Harbor CDP","State":"Missouri","State_Abbrev":"MO"},
"geometry":{ "type": "Point", "coordinates": [-93.489899,38.246631]}},
{ "type": "Feature", "properties": {"Name":"Berger city","State":"Missouri","State_Abbrev":"MO"},
"geometry":{ "type": "Point", "coordinates": [-91.341104,38.66701]}},
{ "type": "Feature", "properties": {"Name":"Berkeley city","State":"Missouri","State_Abbrev":"MO"},
"geometry":{ "type": "Point", "coordinates": [-90.336195,38.746287]}},
{ "type": "Feature", "properties": {"Name":"Bernie city","State":"Missouri","State_Abbrev":"MO"},
"geometry":{ "type": "Point", "coordinates": [-89.97069,36.671719]}},
{ "type": "Feature", "properties": {"Name":"Bertrand city","State":"Missouri","State_Abbrev":"MO"},
"geometry":{ "type": "Point", "coordinates": [-89.452649,36.907726]}},
{ "type": "Feature", "properties": {"Name":"Bethany city","State":"Missouri","State_Abbrev":"MO"},
"geometry":{ "type": "Point", "coordinates": [-94.029822,40.268164]}},
{ "type": "Feature", "properties": {"Name":"Bethel village","State":"Missouri","State_Abbrev":"MO"},
"geometry":{ "type": "Point", "coordinates": [-92.022665,39.877772]}},
{ "type": "Feature", "properties": {"Name":"Beverly Hills city","State":"Missouri","State_Abbrev":"MO"},
"geometry":{ "type": "Point", "coordinates": [-90.290116,38.697948]}},
{ "type": "Feature", "properties": {"Name":"Bevier city","State":"Missouri","State_Abbrev":"MO"},
"geometry":{ "type": "Point", "coordinates": [-92.56388,39.751433]}},
{ "type": "Feature", "properties": {"Name":"Biehle CDP","State":"Missouri","State_Abbrev":"MO"},
"geometry":{ "type": "Point", "coordinates": [-89.837694,37.606549]}},
{ "type": "Feature", "properties": {"Name":"Bigelow village","State":"Missouri","State_Abbrev":"MO"},
"geometry":{ "type": "Point", "coordinates": [-95.289403,40.109783]}},
{ "type": "Feature", "properties": {"Name":"Big Lake village","State":"Missouri","State_Abbrev":"MO"},
"geometry":{ "type": "Point", "coordinates": [-95.350447,40.072698]}},
{ "type": "Feature", "properties": {"Name":"Big Spring CDP","State":"Missouri","State_Abbrev":"MO"},
"geometry":{ "type": "Point", "coordinates": [-91.482933,38.794949]}},
{ "type": "Feature", "properties": {"Name":"Billings city","State":"Missouri","State_Abbrev":"MO"},
"geometry":{ "type": "Point", "coordinates": [-93.555594,37.064054]}},
{ "type": "Feature", "properties": {"Name":"Birch Tree city","State":"Missouri","State_Abbrev":"MO"},
"geometry":{ "type": "Point", "coordinates": [-91.49167,36.996681]}},
{ "type": "Feature", "properties": {"Name":"Birmingham village","State":"Missouri","State_Abbrev":"MO"},
"geometry":{ "type": "Point", "coordinates": [-94.45008,39.167575]}},
{ "type": "Feature", "properties": {"Name":"Bismarck city","State":"Missouri","State_Abbrev":"MO"},
"geometry":{ "type": "Point", "coordinates": [-90.622519,37.767328]}},
{ "type": "Feature", "properties": {"Name":"Blackburn city","State":"Missouri","State_Abbrev":"MO"},
"geometry":{ "type": "Point", "coordinates": [-93.486048,39.104767]}},
{ "type": "Feature", "properties": {"Name":"Black Jack city","State":"Missouri","State_Abbrev":"MO"},
"geometry":{ "type": "Point", "coordinates": [-90.263444,38.798982]}},
{ "type": "Feature", "properties": {"Name":"Blackwater city","State":"Missouri","State_Abbrev":"MO"},
"geometry":{ "type": "Point", "coordinates": [-92.991967,38.979195]}},
{ "type": "Feature", "properties": {"Name":"Blairstown city","State":"Missouri","State_Abbrev":"MO"},
"geometry":{ "type": "Point", "coordinates": [-93.957796,38.557925]}},
{ "type": "Feature", "properties": {"Name":"Blanchard CDP","State":"Missouri","State_Abbrev":"MO"},
"geometry":{ "type": "Point", "coordinates": [-95.210979,40.574885]}},
{ "type": "Feature", "properties": {"Name":"Bland city","State":"Missouri","State_Abbrev":"MO"},
"geometry":{ "type": "Point", "coordinates": [-91.633062,38.300447]}},
{ "type": "Feature", "properties": {"Name":"Blodgett village","State":"Missouri","State_Abbrev":"MO"},
"geometry":{ "type": "Point", "coordinates": [-89.526352,37.004746]}},
{ "type": "Feature", "properties": {"Name":"Bloomfield city","State":"Missouri","State_Abbrev":"MO"},
"geometry":{ "type": "Point", "coordinates": [-89.929793,36.887635]}},
{ "type": "Feature", "properties": {"Name":"Bloomsdale city","State":"Missouri","State_Abbrev":"MO"},
"geometry":{ "type": "Point", "coordinates": [-90.220352,38.014442]}},
{ "type": "Feature", "properties": {"Name":"Blue Eye town","State":"Missouri","State_Abbrev":"MO"},
"geometry":{ "type": "Point", "coordinates": [-93.377138,36.519317]}},
{ "type": "Feature", "properties": {"Name":"Blue Springs city","State":"Missouri","State_Abbrev":"MO"},
"geometry":{ "type": "Point", "coordinates": [-94.267612,39.012001]}},
{ "type": "Feature", "properties": {"Name":"Blue Summit CDP","State":"Missouri","State_Abbrev":"MO"},
"geometry":{ "type": "Point", "coordinates": [-94.480742,39.086909]}},
{ "type": "Feature", "properties": {"Name":"Blythedale village","State":"Missouri","State_Abbrev":"MO"},
"geometry":{ "type": "Point", "coordinates": [-93.927495,40.475172]}},
{ "type": "Feature", "properties": {"Name":"Bogard city","State":"Missouri","State_Abbrev":"MO"},
"geometry":{ "type": "Point", "coordinates": [-93.523861,39.457927]}},
{ "type": "Feature", "properties": {"Name":"Bolckow city","State":"Missouri","State_Abbrev":"MO"},
"geometry":{ "type": "Point", "coordinates": [-94.821207,40.115217]}},
{ "type": "Feature", "properties": {"Name":"Bolivar city","State":"Missouri","State_Abbrev":"MO"},
"geometry":{ "type": "Point", "coordinates": [-93.416709,37.606697]}},
{ "type": "Feature", "properties": {"Name":"Bonne Terre city","State":"Missouri","State_Abbrev":"MO"},
"geometry":{ "type": "Point", "coordinates": [-90.54268,37.921102]}},
{ "type": "Feature", "properties": {"Name":"Boonville city","State":"Missouri","State_Abbrev":"MO"},
"geometry":{ "type": "Point", "coordinates": [-92.746203,38.961439]}},
{ "type": "Feature", "properties": {"Name":"Bosworth city","State":"Missouri","State_Abbrev":"MO"},
"geometry":{ "type": "Point", "coordinates": [-93.335558,39.469909]}},
{ "type": "Feature", "properties": {"Name":"Bourbon city","State":"Missouri","State_Abbrev":"MO"},
"geometry":{ "type": "Point", "coordinates": [-91.249276,38.150583]}},
{ "type": "Feature", "properties": {"Name":"Bowling Green city","State":"Missouri","State_Abbrev":"MO"},
"geometry":{ "type": "Point", "coordinates": [-91.202488,39.344774]}},
{ "type": "Feature", "properties": {"Name":"Bragg City town","State":"Missouri","State_Abbrev":"MO"},
"geometry":{ "type": "Point", "coordinates": [-89.911302,36.268134]}},
{ "type": "Feature", "properties": {"Name":"Brandsville city","State":"Missouri","State_Abbrev":"MO"},
"geometry":{ "type": "Point", "coordinates": [-91.696457,36.65074]}},
{ "type": "Feature", "properties": {"Name":"Branson city","State":"Missouri","State_Abbrev":"MO"},
"geometry":{ "type": "Point", "coordinates": [-93.291812,36.612287]}},
{ "type": "Feature", "properties": {"Name":"Branson West city","State":"Missouri","State_Abbrev":"MO"},
"geometry":{ "type": "Point", "coordinates": [-93.39309,36.688622]}},
{ "type": "Feature", "properties": {"Name":"Brashear city","State":"Missouri","State_Abbrev":"MO"},
"geometry":{ "type": "Point", "coordinates": [-92.378842,40.148339]}},
{ "type": "Feature", "properties": {"Name":"Braymer city","State":"Missouri","State_Abbrev":"MO"},
"geometry":{ "type": "Point", "coordinates": [-93.795891,39.590235]}},
{ "type": "Feature", "properties": {"Name":"Breckenridge city","State":"Missouri","State_Abbrev":"MO"},
"geometry":{ "type": "Point", "coordinates": [-93.805152,39.761452]}},
{ "type": "Feature", "properties": {"Name":"Breckenridge Hills city","State":"Missouri","State_Abbrev":"MO"},
"geometry":{ "type": "Point", "coordinates": [-90.368438,38.715769]}},
{ "type": "Feature", "properties": {"Name":"Brentwood city","State":"Missouri","State_Abbrev":"MO"},
"geometry":{ "type": "Point", "coordinates": [-90.347528,38.619423]}},
{ "type": "Feature", "properties": {"Name":"Brewer CDP","State":"Missouri","State_Abbrev":"MO"},
"geometry":{ "type": "Point", "coordinates": [-89.917995,37.783578]}},
{ "type": "Feature", "properties": {"Name":"Briarwood Estates CDP","State":"Missouri","State_Abbrev":"MO"},
"geometry":{ "type": "Point", "coordinates": [-90.586594,38.156103]}},
{ "type": "Feature", "properties": {"Name":"Bridgeton city","State":"Missouri","State_Abbrev":"MO"},
"geometry":{ "type": "Point", "coordinates": [-90.416997,38.773317]}},
{ "type": "Feature", "properties": {"Name":"Brimson village","State":"Missouri","State_Abbrev":"MO"},
"geometry":{ "type": "Point", "coordinates": [-93.738397,40.144945]}},
{ "type": "Feature", "properties": {"Name":"Bronaugh city","State":"Missouri","State_Abbrev":"MO"},
"geometry":{ "type": "Point", "coordinates": [-94.468611,37.693669]}},
{ "type": "Feature", "properties": {"Name":"Brookfield city","State":"Missouri","State_Abbrev":"MO"},
"geometry":{ "type": "Point", "coordinates": [-93.077967,39.785329]}},
{ "type": "Feature", "properties": {"Name":"Brooklyn Heights town","State":"Missouri","State_Abbrev":"MO"},
"geometry":{ "type": "Point", "coordinates": [-94.385535,37.169412]}},
{ "type": "Feature", "properties": {"Name":"Broseley CDP","State":"Missouri","State_Abbrev":"MO"},
"geometry":{ "type": "Point", "coordinates": [-90.24412,36.675396]}},
{ "type": "Feature", "properties": {"Name":"Browning city","State":"Missouri","State_Abbrev":"MO"},
"geometry":{ "type": "Point", "coordinates": [-93.160347,40.034946]}},
{ "type": "Feature", "properties": {"Name":"Brownington town","State":"Missouri","State_Abbrev":"MO"},
"geometry":{ "type": "Point", "coordinates": [-93.722721,38.244418]}},
{ "type": "Feature", "properties": {"Name":"Brumley town","State":"Missouri","State_Abbrev":"MO"},
"geometry":{ "type": "Point", "coordinates": [-92.484508,38.088007]}},
{ "type": "Feature", "properties": {"Name":"Brunswick city","State":"Missouri","State_Abbrev":"MO"},
"geometry":{ "type": "Point", "coordinates": [-93.127184,39.427184]}},
{ "type": "Feature", "properties": {"Name":"Bucklin city","State":"Missouri","State_Abbrev":"MO"},
"geometry":{ "type": "Point", "coordinates": [-92.888132,39.784024]}},
{ "type": "Feature", "properties": {"Name":"Buckner city","State":"Missouri","State_Abbrev":"MO"},
"geometry":{ "type": "Point", "coordinates": [-94.196811,39.132481]}},
{ "type": "Feature", "properties": {"Name":"Buell CDP","State":"Missouri","State_Abbrev":"MO"},
"geometry":{ "type": "Point", "coordinates": [-91.440732,39.03241]}},
{ "type": "Feature", "properties": {"Name":"Buffalo city","State":"Missouri","State_Abbrev":"MO"},
"geometry":{ "type": "Point", "coordinates": [-93.096564,37.64519]}},
{ "type": "Feature", "properties": {"Name":"Bull Creek village","State":"Missouri","State_Abbrev":"MO"},
"geometry":{ "type": "Point", "coordinates": [-93.201927,36.715166]}},
{ "type": "Feature", "properties": {"Name":"Bunceton city","State":"Missouri","State_Abbrev":"MO"},
"geometry":{ "type": "Point", "coordinates": [-92.798688,38.789683]}},
{ "type": "Feature", "properties": {"Name":"Bunker city","State":"Missouri","State_Abbrev":"MO"},
"geometry":{ "type": "Point", "coordinates": [-91.211643,37.457594]}},
{ "type": "Feature", "properties": {"Name":"Burfordville CDP","State":"Missouri","State_Abbrev":"MO"},
"geometry":{ "type": "Point", "coordinates": [-89.809776,37.367711]}},
{ "type": "Feature", "properties": {"Name":"Burgess CDP","State":"Missouri","State_Abbrev":"MO"},
"geometry":{ "type": "Point", "coordinates": [-94.615514,37.556935]}},
{ "type": "Feature", "properties": {"Name":"Burlington Junction city","State":"Missouri","State_Abbrev":"MO"},
"geometry":{ "type": "Point", "coordinates": [-95.066716,40.446557]}},
{ "type": "Feature", "properties": {"Name":"Butler city","State":"Missouri","State_Abbrev":"MO"},
"geometry":{ "type": "Point", "coordinates": [-94.339531,38.259362]}},
{ "type": "Feature", "properties": {"Name":"Butterfield city","State":"Missouri","State_Abbrev":"MO"},
"geometry":{ "type": "Point", "coordinates": [-93.903986,36.745982]}},
{ "type": "Feature", "properties": {"Name":"Byrnes Mill city","State":"Missouri","State_Abbrev":"MO"},
"geometry":{ "type": "Point", "coordinates": [-90.573597,38.439042]}},
{ "type": "Feature", "properties": {"Name":"Cabool city","State":"Missouri","State_Abbrev":"MO"},
"geometry":{ "type": "Point", "coordinates": [-92.103217,37.126482]}},
{ "type": "Feature", "properties": {"Name":"Cainsville city","State":"Missouri","State_Abbrev":"MO"},
"geometry":{ "type": "Point", "coordinates": [-93.774675,40.439802]}},
{ "type": "Feature", "properties": {"Name":"Cairo village","State":"Missouri","State_Abbrev":"MO"},
"geometry":{ "type": "Point", "coordinates": [-92.441007,39.511164]}},
{ "type": "Feature", "properties": {"Name":"Caledonia village","State":"Missouri","State_Abbrev":"MO"},
"geometry":{ "type": "Point", "coordinates": [-90.772354,37.764771]}},
{ "type": "Feature", "properties": {"Name":"Calhoun city","State":"Missouri","State_Abbrev":"MO"},
"geometry":{ "type": "Point", "coordinates": [-93.623939,38.468085]}},
{ "type": "Feature", "properties": {"Name":"California city","State":"Missouri","State_Abbrev":"MO"},
"geometry":{ "type": "Point", "coordinates": [-92.567079,38.630306]}},
{ "type": "Feature", "properties": {"Name":"Callao city","State":"Missouri","State_Abbrev":"MO"},
"geometry":{ "type": "Point", "coordinates": [-92.623349,39.762397]}},
{ "type": "Feature", "properties": {"Name":"Calverton Park city","State":"Missouri","State_Abbrev":"MO"},
"geometry":{ "type": "Point", "coordinates": [-90.311575,38.765206]}},
{ "type": "Feature", "properties": {"Name":"Camden city","State":"Missouri","State_Abbrev":"MO"},
"geometry":{ "type": "Point", "coordinates": [-94.023381,39.19906]}},
{ "type": "Feature", "properties": {"Name":"Camden Point city","State":"Missouri","State_Abbrev":"MO"},
"geometry":{ "type": "Point", "coordinates": [-94.75044,39.452753]}},
{ "type": "Feature", "properties": {"Name":"Camdenton city","State":"Missouri","State_Abbrev":"MO"},
"geometry":{ "type": "Point", "coordinates": [-92.751393,38.013237]}},
{ "type": "Feature", "properties": {"Name":"Cameron city","State":"Missouri","State_Abbrev":"MO"},
"geometry":{ "type": "Point", "coordinates": [-94.232324,39.744499]}},
{ "type": "Feature", "properties": {"Name":"Campbell city","State":"Missouri","State_Abbrev":"MO"},
"geometry":{ "type": "Point", "coordinates": [-90.076073,36.493043]}},
{ "type": "Feature", "properties": {"Name":"Canalou city","State":"Missouri","State_Abbrev":"MO"},
"geometry":{ "type": "Point", "coordinates": [-89.686506,36.754019]}},
{ "type": "Feature", "properties": {"Name":"Canton city","State":"Missouri","State_Abbrev":"MO"},
"geometry":{ "type": "Point", "coordinates": [-91.525843,40.129859]}},
{ "type": "Feature", "properties": {"Name":"Cape Girardeau city","State":"Missouri","State_Abbrev":"MO"},
"geometry":{ "type": "Point", "coordinates": [-89.558359,37.309389]}},
{ "type": "Feature", "properties": {"Name":"Cardwell city","State":"Missouri","State_Abbrev":"MO"},
"geometry":{ "type": "Point", "coordinates": [-90.290905,36.04748]}},
{ "type": "Feature", "properties": {"Name":"Carl Junction city","State":"Missouri","State_Abbrev":"MO"},
"geometry":{ "type": "Point", "coordinates": [-94.542653,37.16416]}},
{ "type": "Feature", "properties": {"Name":"Carrollton city","State":"Missouri","State_Abbrev":"MO"},
"geometry":{ "type": "Point", "coordinates": [-93.49506,39.363642]}},
{ "type": "Feature", "properties": {"Name":"Carterville city","State":"Missouri","State_Abbrev":"MO"},
"geometry":{ "type": "Point", "coordinates": [-94.438806,37.146586]}},
{ "type": "Feature", "properties": {"Name":"Carthage city","State":"Missouri","State_Abbrev":"MO"},
"geometry":{ "type": "Point", "coordinates": [-94.327868,37.150605]}},
{ "type": "Feature", "properties": {"Name":"Caruthersville city","State":"Missouri","State_Abbrev":"MO"},
"geometry":{ "type": "Point", "coordinates": [-89.666904,36.18126]}},
{ "type": "Feature", "properties": {"Name":"Carytown city","State":"Missouri","State_Abbrev":"MO"},
"geometry":{ "type": "Point", "coordinates": [-94.33446,37.26155]}},
{ "type": "Feature", "properties": {"Name":"Cassville city","State":"Missouri","State_Abbrev":"MO"},
"geometry":{ "type": "Point", "coordinates": [-93.868105,36.678302]}},
{ "type": "Feature", "properties": {"Name":"Castle Point CDP","State":"Missouri","State_Abbrev":"MO"},
"geometry":{ "type": "Point", "coordinates": [-90.248501,38.756823]}},
{ "type": "Feature", "properties": {"Name":"Catron town","State":"Missouri","State_Abbrev":"MO"},
"geometry":{ "type": "Point", "coordinates": [-89.706033,36.61104]}},
{ "type": "Feature", "properties": {"Name":"Cave town","State":"Missouri","State_Abbrev":"MO"},
"geometry":{ "type": "Point", "coordinates": [-91.041869,39.023555]}},
{ "type": "Feature", "properties": {"Name":"Cedar Hill CDP","State":"Missouri","State_Abbrev":"MO"},
"geometry":{ "type": "Point", "coordinates": [-90.640958,38.357542]}},
{ "type": "Feature", "properties": {"Name":"Cedar Hill Lakes village","State":"Missouri","State_Abbrev":"MO"},
"geometry":{ "type": "Point", "coordinates": [-90.657516,38.330291]}},
{ "type": "Feature", "properties": {"Name":"Center city","State":"Missouri","State_Abbrev":"MO"},
"geometry":{ "type": "Point", "coordinates": [-91.529148,39.509557]}},
{ "type": "Feature", "properties": {"Name":"Centertown town","State":"Missouri","State_Abbrev":"MO"},
"geometry":{ "type": "Point", "coordinates": [-92.408952,38.617995]}},
{ "type": "Feature", "properties": {"Name":"Centerview city","State":"Missouri","State_Abbrev":"MO"},
"geometry":{ "type": "Point", "coordinates": [-93.844275,38.746017]}},
{ "type": "Feature", "properties": {"Name":"Centerville city","State":"Missouri","State_Abbrev":"MO"},
"geometry":{ "type": "Point", "coordinates": [-90.95968,37.436682]}},
{ "type": "Feature", "properties": {"Name":"Centralia city","State":"Missouri","State_Abbrev":"MO"},
"geometry":{ "type": "Point", "coordinates": [-92.134298,39.210718]}},
{ "type": "Feature", "properties": {"Name":"Chaffee city","State":"Missouri","State_Abbrev":"MO"},
"geometry":{ "type": "Point", "coordinates": [-89.661242,37.181218]}},
{ "type": "Feature", "properties": {"Name":"Chain of Rocks village","State":"Missouri","State_Abbrev":"MO"},
"geometry":{ "type": "Point", "coordinates": [-90.802289,38.915006]}},
{ "type": "Feature", "properties": {"Name":"Chain-O-Lakes village","State":"Missouri","State_Abbrev":"MO"},
"geometry":{ "type": "Point", "coordinates": [-93.724179,36.534197]}},
{ "type": "Feature", "properties": {"Name":"Chamois city","State":"Missouri","State_Abbrev":"MO"},
"geometry":{ "type": "Point", "coordinates": [-91.772998,38.673759]}},
{ "type": "Feature", "properties": {"Name":"Champ village","State":"Missouri","State_Abbrev":"MO"},
"geometry":{ "type": "Point", "coordinates": [-90.453524,38.744994]}},
{ "type": "Feature", "properties": {"Name":"Charlack city","State":"Missouri","State_Abbrev":"MO"},
"geometry":{ "type": "Point", "coordinates": [-90.342677,38.702908]}},
{ "type": "Feature", "properties": {"Name":"Charleston city","State":"Missouri","State_Abbrev":"MO"},
"geometry":{ "type": "Point", "coordinates": [-89.333912,36.916934]}},
{ "type": "Feature", "properties": {"Name":"Charmwood town","State":"Missouri","State_Abbrev":"MO"},
"geometry":{ "type": "Point", "coordinates": [-91.096767,38.281033]}},
{ "type": "Feature", "properties": {"Name":"Cherokee Pass CDP","State":"Missouri","State_Abbrev":"MO"},
"geometry":{ "type": "Point", "coordinates": [-90.294951,37.48753]}},
{ "type": "Feature", "properties": {"Name":"Chesapeake CDP","State":"Missouri","State_Abbrev":"MO"},
"geometry":{ "type": "Point", "coordinates": [-93.678794,37.114809]}},
{ "type": "Feature", "properties": {"Name":"Chesterfield city","State":"Missouri","State_Abbrev":"MO"},
"geometry":{ "type": "Point", "coordinates": [-90.57595,38.658126]}},
{ "type": "Feature", "properties": {"Name":"Chilhowee town","State":"Missouri","State_Abbrev":"MO"},
"geometry":{ "type": "Point", "coordinates": [-93.856195,38.588586]}},
{ "type": "Feature", "properties": {"Name":"Chillicothe city","State":"Missouri","State_Abbrev":"MO"},
"geometry":{ "type": "Point", "coordinates": [-93.549957,39.796079]}},
{ "type": "Feature", "properties": {"Name":"Chula city","State":"Missouri","State_Abbrev":"MO"},
"geometry":{ "type": "Point", "coordinates": [-93.47757,39.921944]}},
{ "type": "Feature", "properties": {"Name":"Clarence city","State":"Missouri","State_Abbrev":"MO"},
"geometry":{ "type": "Point", "coordinates": [-92.260136,39.743181]}},
{ "type": "Feature", "properties": {"Name":"Clark city","State":"Missouri","State_Abbrev":"MO"},
"geometry":{ "type": "Point", "coordinates": [-92.359534,39.279675]}},
{ "type": "Feature", "properties": {"Name":"Clarksburg city","State":"Missouri","State_Abbrev":"MO"},
"geometry":{ "type": "Point", "coordinates": [-92.666496,38.66132]}},
{ "type": "Feature", "properties": {"Name":"Clarksdale city","State":"Missouri","State_Abbrev":"MO"},
"geometry":{ "type": "Point", "coordinates": [-94.550768,39.813849]}},
{ "type": "Feature", "properties": {"Name":"Clarkson Valley city","State":"Missouri","State_Abbrev":"MO"},
"geometry":{ "type": "Point", "coordinates": [-90.592981,38.625344]}},
{ "type": "Feature", "properties": {"Name":"Clarksville city","State":"Missouri","State_Abbrev":"MO"},
"geometry":{ "type": "Point", "coordinates": [-90.904896,39.369502]}},
{ "type": "Feature", "properties": {"Name":"Clarkton city","State":"Missouri","State_Abbrev":"MO"},
"geometry":{ "type": "Point", "coordinates": [-89.968088,36.452045]}},
{ "type": "Feature", "properties": {"Name":"Claycomo village","State":"Missouri","State_Abbrev":"MO"},
"geometry":{ "type": "Point", "coordinates": [-94.478833,39.198621]}},
{ "type": "Feature", "properties": {"Name":"Clayton city","State":"Missouri","State_Abbrev":"MO"},
"geometry":{ "type": "Point", "coordinates": [-90.330229,38.644409]}},
{ "type": "Feature", "properties": {"Name":"Clearmont city","State":"Missouri","State_Abbrev":"MO"},
"geometry":{ "type": "Point", "coordinates": [-95.03258,40.507996]}},
{ "type": "Feature", "properties": {"Name":"Cleveland city","State":"Missouri","State_Abbrev":"MO"},
"geometry":{ "type": "Point", "coordinates": [-94.600002,38.677801]}},
{ "type": "Feature", "properties": {"Name":"Clever city","State":"Missouri","State_Abbrev":"MO"},
"geometry":{ "type": "Point", "coordinates": [-93.470811,37.033109]}},
{ "type": "Feature", "properties": {"Name":"Cliff Village village","State":"Missouri","State_Abbrev":"MO"},
"geometry":{ "type": "Point", "coordinates": [-94.517195,37.025142]}},
{ "type": "Feature", "properties": {"Name":"Clifton Hill city","State":"Missouri","State_Abbrev":"MO"},
"geometry":{ "type": "Point", "coordinates": [-92.663681,39.438619]}},
{ "type": "Feature", "properties": {"Name":"Climax Springs CDP","State":"Missouri","State_Abbrev":"MO"},
"geometry":{ "type": "Point", "coordinates": [-93.052807,38.100402]}},
{ "type": "Feature", "properties": {"Name":"Clinton city","State":"Missouri","State_Abbrev":"MO"},
"geometry":{ "type": "Point", "coordinates": [-93.768142,38.371172]}},
{ "type": "Feature", "properties": {"Name":"Clyde village","State":"Missouri","State_Abbrev":"MO"},
"geometry":{ "type": "Point", "coordinates": [-94.669604,40.266204]}},
{ "type": "Feature", "properties": {"Name":"Cobalt village","State":"Missouri","State_Abbrev":"MO"},
"geometry":{ "type": "Point", "coordinates": [-90.286929,37.545119]}},
{ "type": "Feature", "properties": {"Name":"Coffey city","State":"Missouri","State_Abbrev":"MO"},
"geometry":{ "type": "Point", "coordinates": [-94.006538,40.105548]}},
{ "type": "Feature", "properties": {"Name":"Cole Camp city","State":"Missouri","State_Abbrev":"MO"},
"geometry":{ "type": "Point", "coordinates": [-93.202099,38.459643]}},
{ "type": "Feature", "properties": {"Name":"Collins village","State":"Missouri","State_Abbrev":"MO"},
"geometry":{ "type": "Point", "coordinates": [-93.621824,37.889607]}},
{ "type": "Feature", "properties": {"Name":"Columbia city","State":"Missouri","State_Abbrev":"MO"},
"geometry":{ "type": "Point", "coordinates": [-92.326387,38.94729]}},
{ "type": "Feature", "properties": {"Name":"Commerce village","State":"Missouri","State_Abbrev":"MO"},
"geometry":{ "type": "Point", "coordinates": [-89.446952,37.160012]}},
{ "type": "Feature", "properties": {"Name":"Conception CDP","State":"Missouri","State_Abbrev":"MO"},
"geometry":{ "type": "Point", "coordinates": [-94.680901,40.238844]}},
{ "type": "Feature", "properties": {"Name":"Conception Junction town","State":"Missouri","State_Abbrev":"MO"},
"geometry":{ "type": "Point", "coordinates": [-94.69136,40.268351]}},
{ "type": "Feature", "properties": {"Name":"Concord CDP","State":"Missouri","State_Abbrev":"MO"},
"geometry":{ "type": "Point", "coordinates": [-90.350891,38.511705]}},
{ "type": "Feature", "properties": {"Name":"Concordia city","State":"Missouri","State_Abbrev":"MO"},
"geometry":{ "type": "Point", "coordinates": [-93.569227,38.987513]}},
{ "type": "Feature", "properties": {"Name":"Coney Island village","State":"Missouri","State_Abbrev":"MO"},
"geometry":{ "type": "Point", "coordinates": [-93.397142,36.59321]}},
{ "type": "Feature", "properties": {"Name":"Connelsville CDP","State":"Missouri","State_Abbrev":"MO"},
"geometry":{ "type": "Point", "coordinates": [-92.701778,40.277831]}},
{ "type": "Feature", "properties": {"Name":"Conway city","State":"Missouri","State_Abbrev":"MO"},
"geometry":{ "type": "Point", "coordinates": [-92.831003,37.506792]}},
{ "type": "Feature", "properties": {"Name":"Cool Valley city","State":"Missouri","State_Abbrev":"MO"},
"geometry":{ "type": "Point", "coordinates": [-90.305826,38.72503]}},
{ "type": "Feature", "properties": {"Name":"Cooter city","State":"Missouri","State_Abbrev":"MO"},
"geometry":{ "type": "Point", "coordinates": [-89.80917,36.046694]}},
{ "type": "Feature", "properties": {"Name":"Corder city","State":"Missouri","State_Abbrev":"MO"},
"geometry":{ "type": "Point", "coordinates": [-93.638931,39.099195]}},
{ "type": "Feature", "properties": {"Name":"Corning town","State":"Missouri","State_Abbrev":"MO"},
"geometry":{ "type": "Point", "coordinates": [-95.454498,40.248604]}},
{ "type": "Feature", "properties": {"Name":"Cosby village","State":"Missouri","State_Abbrev":"MO"},
"geometry":{ "type": "Point", "coordinates": [-94.679819,39.863839]}},
{ "type": "Feature", "properties": {"Name":"Cottleville city","State":"Missouri","State_Abbrev":"MO"},
"geometry":{ "type": "Point", "coordinates": [-90.657789,38.751604]}},
{ "type": "Feature", "properties": {"Name":"Country Club village","State":"Missouri","State_Abbrev":"MO"},
"geometry":{ "type": "Point", "coordinates": [-94.823879,39.846744]}},
{ "type": "Feature", "properties": {"Name":"Country Club Hills city","State":"Missouri","State_Abbrev":"MO"},
"geometry":{ "type": "Point", "coordinates": [-90.275071,38.720869]}},
{ "type": "Feature", "properties": {"Name":"Country Life Acres village","State":"Missouri","State_Abbrev":"MO"},
"geometry":{ "type": "Point", "coordinates": [-90.455384,38.622244]}},
{ "type": "Feature", "properties": {"Name":"Cowgill city","State":"Missouri","State_Abbrev":"MO"},
"geometry":{ "type": "Point", "coordinates": [-93.926245,39.560787]}},
{ "type": "Feature", "properties": {"Name":"Craig city","State":"Missouri","State_Abbrev":"MO"},
"geometry":{ "type": "Point", "coordinates": [-95.374257,40.192383]}},
{ "type": "Feature", "properties": {"Name":"Crane city","State":"Missouri","State_Abbrev":"MO"},
"geometry":{ "type": "Point", "coordinates": [-93.568082,36.901267]}},
{ "type": "Feature", "properties": {"Name":"Creighton city","State":"Missouri","State_Abbrev":"MO"},
"geometry":{ "type": "Point", "coordinates": [-94.072089,38.496557]}},
{ "type": "Feature", "properties": {"Name":"Crestwood city","State":"Missouri","State_Abbrev":"MO"},
"geometry":{ "type": "Point", "coordinates": [-90.378228,38.55688]}},
{ "type": "Feature", "properties": {"Name":"Creve Coeur city","State":"Missouri","State_Abbrev":"MO"},
"geometry":{ "type": "Point", "coordinates": [-90.443048,38.662023]}},
{ "type": "Feature", "properties": {"Name":"Crocker city","State":"Missouri","State_Abbrev":"MO"},
"geometry":{ "type": "Point", "coordinates": [-92.267918,37.946872]}},
{ "type": "Feature", "properties": {"Name":"Cross Timbers city","State":"Missouri","State_Abbrev":"MO"},
"geometry":{ "type": "Point", "coordinates": [-93.229358,38.024273]}},
{ "type": "Feature", "properties": {"Name":"Crystal City city","State":"Missouri","State_Abbrev":"MO"},
"geometry":{ "type": "Point", "coordinates": [-90.381502,38.22276]}},
{ "type": "Feature", "properties": {"Name":"Crystal Lake Park city","State":"Missouri","State_Abbrev":"MO"},
"geometry":{ "type": "Point", "coordinates": [-90.432053,38.621241]}},
{ "type": "Feature", "properties": {"Name":"Crystal Lakes city","State":"Missouri","State_Abbrev":"MO"},
"geometry":{ "type": "Point", "coordinates": [-94.186691,39.358335]}},
{ "type": "Feature", "properties": {"Name":"Cuba city","State":"Missouri","State_Abbrev":"MO"},
"geometry":{ "type": "Point", "coordinates": [-91.405733,38.067096]}},
{ "type": "Feature", "properties": {"Name":"Curryville city","State":"Missouri","State_Abbrev":"MO"},
"geometry":{ "type": "Point", "coordinates": [-91.341513,39.345743]}},
{ "type": "Feature", "properties": {"Name":"Dadeville village","State":"Missouri","State_Abbrev":"MO"},
"geometry":{ "type": "Point", "coordinates": [-93.673684,37.479698]}},
{ "type": "Feature", "properties": {"Name":"Dalton town","State":"Missouri","State_Abbrev":"MO"},
"geometry":{ "type": "Point", "coordinates": [-92.992063,39.397606]}},
{ "type": "Feature", "properties": {"Name":"Danville CDP","State":"Missouri","State_Abbrev":"MO"},
"geometry":{ "type": "Point", "coordinates": [-91.529786,38.912205]}},
{ "type": "Feature", "properties": {"Name":"Dardenne Prairie city","State":"Missouri","State_Abbrev":"MO"},
"geometry":{ "type": "Point", "coordinates": [-90.715362,38.741116]}},
{ "type": "Feature", "properties": {"Name":"Darlington village","State":"Missouri","State_Abbrev":"MO"},
"geometry":{ "type": "Point", "coordinates": [-94.399682,40.198004]}},
{ "type": "Feature", "properties": {"Name":"Dawn CDP","State":"Missouri","State_Abbrev":"MO"},
"geometry":{ "type": "Point", "coordinates": [-93.634117,39.671302]}},
{ "type": "Feature", "properties": {"Name":"Dearborn city","State":"Missouri","State_Abbrev":"MO"},
"geometry":{ "type": "Point", "coordinates": [-94.771972,39.525142]}},
{ "type": "Feature", "properties": {"Name":"Deepwater city","State":"Missouri","State_Abbrev":"MO"},
"geometry":{ "type": "Point", "coordinates": [-93.775135,38.259188]}},
{ "type": "Feature", "properties": {"Name":"Deerfield village","State":"Missouri","State_Abbrev":"MO"},
"geometry":{ "type": "Point", "coordinates": [-94.507702,37.838652]}},
{ "type": "Feature", "properties": {"Name":"Deering CDP","State":"Missouri","State_Abbrev":"MO"},
"geometry":{ "type": "Point", "coordinates": [-89.884209,36.191637]}},
{ "type": "Feature", "properties": {"Name":"Defiance CDP","State":"Missouri","State_Abbrev":"MO"},
"geometry":{ "type": "Point", "coordinates": [-90.784621,38.632751]}},
{ "type": "Feature", "properties": {"Name":"De Kalb town","State":"Missouri","State_Abbrev":"MO"},
"geometry":{ "type": "Point", "coordinates": [-94.923582,39.588255]}},
{ "type": "Feature", "properties": {"Name":"Dellwood city","State":"Missouri","State_Abbrev":"MO"},
"geometry":{ "type": "Point", "coordinates": [-90.276633,38.756329]}},
{ "type": "Feature", "properties": {"Name":"Delta city","State":"Missouri","State_Abbrev":"MO"},
"geometry":{ "type": "Point", "coordinates": [-89.73916,37.197458]}},
{ "type": "Feature", "properties": {"Name":"Dennis Acres village","State":"Missouri","State_Abbrev":"MO"},
"geometry":{ "type": "Point", "coordinates": [-94.50442,37.046471]}},
{ "type": "Feature", "properties": {"Name":"Denton CDP","State":"Missouri","State_Abbrev":"MO"},
"geometry":{ "type": "Point", "coordinates": [-89.891485,36.090523]}},
{ "type": "Feature", "properties": {"Name":"Denver village","State":"Missouri","State_Abbrev":"MO"},
"geometry":{ "type": "Point", "coordinates": [-94.323297,40.398948]}},
{ "type": "Feature", "properties": {"Name":"Des Arc village","State":"Missouri","State_Abbrev":"MO"},
"geometry":{ "type": "Point", "coordinates": [-90.636068,37.283155]}},
{ "type": "Feature", "properties": {"Name":"Desloge city","State":"Missouri","State_Abbrev":"MO"},
"geometry":{ "type": "Point", "coordinates": [-90.519133,37.875128]}},
{ "type": "Feature", "properties": {"Name":"De Soto city","State":"Missouri","State_Abbrev":"MO"},
"geometry":{ "type": "Point", "coordinates": [-90.560836,38.141064]}},
{ "type": "Feature", "properties": {"Name":"Des Peres city","State":"Missouri","State_Abbrev":"MO"},
"geometry":{ "type": "Point", "coordinates": [-90.445274,38.598414]}},
{ "type": "Feature", "properties": {"Name":"De Witt city","State":"Missouri","State_Abbrev":"MO"},
"geometry":{ "type": "Point", "coordinates": [-93.219913,39.38488]}},
{ "type": "Feature", "properties": {"Name":"Dexter city","State":"Missouri","State_Abbrev":"MO"},
"geometry":{ "type": "Point", "coordinates": [-89.962969,36.792821]}},
{ "type": "Feature", "properties": {"Name":"Diamond town","State":"Missouri","State_Abbrev":"MO"},
"geometry":{ "type": "Point", "coordinates": [-94.315376,36.997069]}},
{ "type": "Feature", "properties": {"Name":"Diehlstadt village","State":"Missouri","State_Abbrev":"MO"},
"geometry":{ "type": "Point", "coordinates": [-89.432344,36.959302]}},
{ "type": "Feature", "properties": {"Name":"Diggins village","State":"Missouri","State_Abbrev":"MO"},
"geometry":{ "type": "Point", "coordinates": [-92.851478,37.173697]}},
{ "type": "Feature", "properties": {"Name":"Dixon city","State":"Missouri","State_Abbrev":"MO"},
"geometry":{ "type": "Point", "coordinates": [-92.095877,37.995277]}},
{ "type": "Feature", "properties": {"Name":"Doe Run CDP","State":"Missouri","State_Abbrev":"MO"},
"geometry":{ "type": "Point", "coordinates": [-90.49992,37.745524]}},
{ "type": "Feature", "properties": {"Name":"Doniphan city","State":"Missouri","State_Abbrev":"MO"},
"geometry":{ "type": "Point", "coordinates": [-90.82186,36.623355]}},
{ "type": "Feature", "properties": {"Name":"Doolittle city","State":"Missouri","State_Abbrev":"MO"},
"geometry":{ "type": "Point", "coordinates": [-91.89103,37.941681]}},
{ "type": "Feature", "properties": {"Name":"Dover town","State":"Missouri","State_Abbrev":"MO"},
"geometry":{ "type": "Point", "coordinates": [-93.689524,39.194106]}},
{ "type": "Feature", "properties": {"Name":"Downing city","State":"Missouri","State_Abbrev":"MO"},
"geometry":{ "type": "Point", "coordinates": [-92.368616,40.486772]}},
{ "type": "Feature", "properties": {"Name":"Drexel city","State":"Missouri","State_Abbrev":"MO"},
"geometry":{ "type": "Point", "coordinates": [-94.60383,38.500912]}},
{ "type": "Feature", "properties": {"Name":"Dudley city","State":"Missouri","State_Abbrev":"MO"},
"geometry":{ "type": "Point", "coordinates": [-90.091603,36.789745]}},
{ "type": "Feature", "properties": {"Name":"Duenweg city","State":"Missouri","State_Abbrev":"MO"},
"geometry":{ "type": "Point", "coordinates": [-94.409252,37.089191]}},
{ "type": "Feature", "properties": {"Name":"Duquesne village","State":"Missouri","State_Abbrev":"MO"},
"geometry":{ "type": "Point", "coordinates": [-94.456793,37.070881]}},
{ "type": "Feature", "properties": {"Name":"Dutchtown CDP","State":"Missouri","State_Abbrev":"MO"},
"geometry":{ "type": "Point", "coordinates": [-89.64651,37.259804]}},
{ "type": "Feature", "properties": {"Name":"Eagle Rock CDP","State":"Missouri","State_Abbrev":"MO"},
"geometry":{ "type": "Point", "coordinates": [-93.743642,36.554058]}},
{ "type": "Feature", "properties": {"Name":"Eagleville town","State":"Missouri","State_Abbrev":"MO"},
"geometry":{ "type": "Point", "coordinates": [-93.985963,40.468725]}},
{ "type": "Feature", "properties": {"Name":"East Lynne city","State":"Missouri","State_Abbrev":"MO"},
"geometry":{ "type": "Point", "coordinates": [-94.230695,38.668209]}},
{ "type": "Feature", "properties": {"Name":"Easton city","State":"Missouri","State_Abbrev":"MO"},
"geometry":{ "type": "Point", "coordinates": [-94.640643,39.72285]}},
{ "type": "Feature", "properties": {"Name":"East Prairie city","State":"Missouri","State_Abbrev":"MO"},
"geometry":{ "type": "Point", "coordinates": [-89.384081,36.778916]}},
{ "type": "Feature", "properties": {"Name":"Edgar Springs city","State":"Missouri","State_Abbrev":"MO"},
"geometry":{ "type": "Point", "coordinates": [-91.866065,37.702592]}},
{ "type": "Feature", "properties": {"Name":"Edgerton city","State":"Missouri","State_Abbrev":"MO"},
"geometry":{ "type": "Point", "coordinates": [-94.629599,39.502268]}},
{ "type": "Feature", "properties": {"Name":"Edina city","State":"Missouri","State_Abbrev":"MO"},
"geometry":{ "type": "Point", "coordinates": [-92.172993,40.168013]}},
{ "type": "Feature", "properties": {"Name":"Edinburg CDP","State":"Missouri","State_Abbrev":"MO"},
"geometry":{ "type": "Point", "coordinates": [-93.689848,40.081099]}},
{ "type": "Feature", "properties": {"Name":"Edmundson city","State":"Missouri","State_Abbrev":"MO"},
"geometry":{ "type": "Point", "coordinates": [-90.365738,38.735095]}},
{ "type": "Feature", "properties": {"Name":"Eldon city","State":"Missouri","State_Abbrev":"MO"},
"geometry":{ "type": "Point", "coordinates": [-92.576678,38.351151]}},
{ "type": "Feature", "properties": {"Name":"El Dorado Springs city","State":"Missouri","State_Abbrev":"MO"},
"geometry":{ "type": "Point", "coordinates": [-94.019954,37.869698]}},
{ "type": "Feature", "properties": {"Name":"Ellington city","State":"Missouri","State_Abbrev":"MO"},
"geometry":{ "type": "Point", "coordinates": [-90.973744,37.236868]}},
{ "type": "Feature", "properties": {"Name":"Ellisville city","State":"Missouri","State_Abbrev":"MO"},
"geometry":{ "type": "Point", "coordinates": [-90.58839,38.589604]}},
{ "type": "Feature", "properties": {"Name":"Ellsinore city","State":"Missouri","State_Abbrev":"MO"},
"geometry":{ "type": "Point", "coordinates": [-90.747672,36.932839]}},
{ "type": "Feature", "properties": {"Name":"Elmer city","State":"Missouri","State_Abbrev":"MO"},
"geometry":{ "type": "Point", "coordinates": [-92.648804,39.957904]}},
{ "type": "Feature", "properties": {"Name":"Elmira village","State":"Missouri","State_Abbrev":"MO"},
"geometry":{ "type": "Point", "coordinates": [-94.154644,39.508635]}},
{ "type": "Feature", "properties": {"Name":"Elmo city","State":"Missouri","State_Abbrev":"MO"},
"geometry":{ "type": "Point", "coordinates": [-95.117025,40.518741]}},
{ "type": "Feature", "properties": {"Name":"Elsberry city","State":"Missouri","State_Abbrev":"MO"},
"geometry":{ "type": "Point", "coordinates": [-90.788189,39.167624]}},
{ "type": "Feature", "properties": {"Name":"Emerald Beach village","State":"Missouri","State_Abbrev":"MO"},
"geometry":{ "type": "Point", "coordinates": [-93.670794,36.574195]}},
{ "type": "Feature", "properties": {"Name":"Eminence city","State":"Missouri","State_Abbrev":"MO"},
"geometry":{ "type": "Point", "coordinates": [-91.358713,37.150891]}},
{ "type": "Feature", "properties": {"Name":"Emma city","State":"Missouri","State_Abbrev":"MO"},
"geometry":{ "type": "Point", "coordinates": [-93.495039,38.975197]}},
{ "type": "Feature", "properties": {"Name":"Eolia village","State":"Missouri","State_Abbrev":"MO"},
"geometry":{ "type": "Point", "coordinates": [-91.013166,39.23789]}},
{ "type": "Feature", "properties": {"Name":"Essex city","State":"Missouri","State_Abbrev":"MO"},
"geometry":{ "type": "Point", "coordinates": [-89.862628,36.811804]}},
{ "type": "Feature", "properties": {"Name":"Ethel town","State":"Missouri","State_Abbrev":"MO"},
"geometry":{ "type": "Point", "coordinates": [-92.74071,39.893781]}},
{ "type": "Feature", "properties": {"Name":"Eugene CDP","State":"Missouri","State_Abbrev":"MO"},
"geometry":{ "type": "Point", "coordinates": [-92.40195,38.357113]}},
{ "type": "Feature", "properties": {"Name":"Eureka city","State":"Missouri","State_Abbrev":"MO"},
"geometry":{ "type": "Point", "coordinates": [-90.64542,38.498468]}},
{ "type": "Feature", "properties": {"Name":"Evergreen village","State":"Missouri","State_Abbrev":"MO"},
"geometry":{ "type": "Point", "coordinates": [-92.595768,37.550038]}},
{ "type": "Feature", "properties": {"Name":"Everton city","State":"Missouri","State_Abbrev":"MO"},
"geometry":{ "type": "Point", "coordinates": [-93.702709,37.343178]}},
{ "type": "Feature", "properties": {"Name":"Ewing city","State":"Missouri","State_Abbrev":"MO"},
"geometry":{ "type": "Point", "coordinates": [-91.714683,40.008749]}},
{ "type": "Feature", "properties": {"Name":"Excello CDP","State":"Missouri","State_Abbrev":"MO"},
"geometry":{ "type": "Point", "coordinates": [-92.472206,39.631407]}},
{ "type": "Feature", "properties": {"Name":"Excelsior Estates village","State":"Missouri","State_Abbrev":"MO"},
"geometry":{ "type": "Point", "coordinates": [-94.208213,39.389943]}},
{ "type": "Feature", "properties": {"Name":"Excelsior Springs city","State":"Missouri","State_Abbrev":"MO"},
"geometry":{ "type": "Point", "coordinates": [-94.240992,39.339929]}},
{ "type": "Feature", "properties": {"Name":"Exeter city","State":"Missouri","State_Abbrev":"MO"},
"geometry":{ "type": "Point", "coordinates": [-93.939886,36.670711]}},
{ "type": "Feature", "properties": {"Name":"Fairdealing CDP","State":"Missouri","State_Abbrev":"MO"},
"geometry":{ "type": "Point", "coordinates": [-90.604491,36.663114]}},
{ "type": "Feature", "properties": {"Name":"Fairfax city","State":"Missouri","State_Abbrev":"MO"},
"geometry":{ "type": "Point", "coordinates": [-95.392039,40.339503]}},
{ "type": "Feature", "properties": {"Name":"Fair Grove city","State":"Missouri","State_Abbrev":"MO"},
"geometry":{ "type": "Point", "coordinates": [-93.152154,37.383321]}},
{ "type": "Feature", "properties": {"Name":"Fair Play city","State":"Missouri","State_Abbrev":"MO"},
"geometry":{ "type": "Point", "coordinates": [-93.576962,37.632633]}},
{ "type": "Feature", "properties": {"Name":"Fairview town","State":"Missouri","State_Abbrev":"MO"},
"geometry":{ "type": "Point", "coordinates": [-94.086631,36.817285]}},
{ "type": "Feature", "properties": {"Name":"Farber city","State":"Missouri","State_Abbrev":"MO"},
"geometry":{ "type": "Point", "coordinates": [-91.576708,39.274235]}},
{ "type": "Feature", "properties": {"Name":"Farley village","State":"Missouri","State_Abbrev":"MO"},
"geometry":{ "type": "Point", "coordinates": [-94.828522,39.288289]}},
{ "type": "Feature", "properties": {"Name":"Farmington city","State":"Missouri","State_Abbrev":"MO"},
"geometry":{ "type": "Point", "coordinates": [-90.427303,37.782494]}},
{ "type": "Feature", "properties": {"Name":"Faucett CDP","State":"Missouri","State_Abbrev":"MO"},
"geometry":{ "type": "Point", "coordinates": [-94.79747,39.600244]}},
{ "type": "Feature", "properties": {"Name":"Fayette city","State":"Missouri","State_Abbrev":"MO"},
"geometry":{ "type": "Point", "coordinates": [-92.685669,39.147294]}},
{ "type": "Feature", "properties": {"Name":"Fenton city","State":"Missouri","State_Abbrev":"MO"},
"geometry":{ "type": "Point", "coordinates": [-90.450674,38.528547]}},
{ "type": "Feature", "properties": {"Name":"Ferguson city","State":"Missouri","State_Abbrev":"MO"},
"geometry":{ "type": "Point", "coordinates": [-90.295827,38.748829]}},
{ "type": "Feature", "properties": {"Name":"Ferrelview village","State":"Missouri","State_Abbrev":"MO"},
"geometry":{ "type": "Point", "coordinates": [-94.665286,39.31428]}},
{ "type": "Feature", "properties": {"Name":"Festus city","State":"Missouri","State_Abbrev":"MO"},
"geometry":{ "type": "Point", "coordinates": [-90.409724,38.219426]}},
{ "type": "Feature", "properties": {"Name":"Fidelity town","State":"Missouri","State_Abbrev":"MO"},
"geometry":{ "type": "Point", "coordinates": [-94.309564,37.08172]}},
{ "type": "Feature", "properties": {"Name":"Fillmore city","State":"Missouri","State_Abbrev":"MO"},
"geometry":{ "type": "Point", "coordinates": [-94.973146,40.025302]}},
{ "type": "Feature", "properties": {"Name":"Fisk city","State":"Missouri","State_Abbrev":"MO"},
"geometry":{ "type": "Point", "coordinates": [-90.207514,36.782276]}},
{ "type": "Feature", "properties": {"Name":"Fleming city","State":"Missouri","State_Abbrev":"MO"},
"geometry":{ "type": "Point", "coordinates": [-94.052054,39.195519]}},
{ "type": "Feature", "properties": {"Name":"Flemington village","State":"Missouri","State_Abbrev":"MO"},
"geometry":{ "type": "Point", "coordinates": [-93.501444,37.803875]}},
{ "type": "Feature", "properties": {"Name":"Flint Hill city","State":"Missouri","State_Abbrev":"MO"},
"geometry":{ "type": "Point", "coordinates": [-90.869457,38.863315]}},
{ "type": "Feature", "properties": {"Name":"Flordell Hills city","State":"Missouri","State_Abbrev":"MO"},
"geometry":{ "type": "Point", "coordinates": [-90.264834,38.717405]}},
{ "type": "Feature", "properties": {"Name":"Florida village","State":"Missouri","State_Abbrev":"MO"},
"geometry":{ "type": "Point", "coordinates": [-91.790617,39.493023]}},
{ "type": "Feature", "properties": {"Name":"Florissant city","State":"Missouri","State_Abbrev":"MO"},
"geometry":{ "type": "Point", "coordinates": [-90.327076,38.799725]}},
{ "type": "Feature", "properties": {"Name":"Foley city","State":"Missouri","State_Abbrev":"MO"},
"geometry":{ "type": "Point", "coordinates": [-90.740836,39.045447]}},
{ "type": "Feature", "properties": {"Name":"Fordland city","State":"Missouri","State_Abbrev":"MO"},
"geometry":{ "type": "Point", "coordinates": [-92.941935,37.154575]}},
{ "type": "Feature", "properties": {"Name":"Forest City city","State":"Missouri","State_Abbrev":"MO"},
"geometry":{ "type": "Point", "coordinates": [-95.18831,39.98295]}},
{ "type": "Feature", "properties": {"Name":"Foristell city","State":"Missouri","State_Abbrev":"MO"},
"geometry":{ "type": "Point", "coordinates": [-90.958962,38.814393]}},
{ "type": "Feature", "properties": {"Name":"Forsyth city","State":"Missouri","State_Abbrev":"MO"},
"geometry":{ "type": "Point", "coordinates": [-93.102651,36.685278]}},
{ "type": "Feature", "properties": {"Name":"Fortescue town","State":"Missouri","State_Abbrev":"MO"},
"geometry":{ "type": "Point", "coordinates": [-95.317594,40.051861]}},
{ "type": "Feature", "properties": {"Name":"Fort Leonard Wood CDP","State":"Missouri","State_Abbrev":"MO"},
"geometry":{ "type": "Point", "coordinates": [-92.127752,37.756163]}},
{ "type": "Feature", "properties": {"Name":"Fortuna CDP","State":"Missouri","State_Abbrev":"MO"},
"geometry":{ "type": "Point", "coordinates": [-92.797003,38.567651]}},
{ "type": "Feature", "properties": {"Name":"Foster village","State":"Missouri","State_Abbrev":"MO"},
"geometry":{ "type": "Point", "coordinates": [-94.50828,38.166697]}},
{ "type": "Feature", "properties": {"Name":"Fountain N' Lakes village","State":"Missouri","State_Abbrev":"MO"},
"geometry":{ "type": "Point", "coordinates": [-90.849266,38.968994]}},
{ "type": "Feature", "properties": {"Name":"Frankclay CDP","State":"Missouri","State_Abbrev":"MO"},
"geometry":{ "type": "Point", "coordinates": [-90.614429,37.862962]}},
{ "type": "Feature", "properties": {"Name":"Frankford city","State":"Missouri","State_Abbrev":"MO"},
"geometry":{ "type": "Point", "coordinates": [-91.32018,39.492399]}},
{ "type": "Feature", "properties": {"Name":"Franklin city","State":"Missouri","State_Abbrev":"MO"},
"geometry":{ "type": "Point", "coordinates": [-92.754878,39.011315]}},
{ "type": "Feature", "properties": {"Name":"Fredericktown city","State":"Missouri","State_Abbrev":"MO"},
"geometry":{ "type": "Point", "coordinates": [-90.303512,37.562953]}},
{ "type": "Feature", "properties": {"Name":"Freeburg village","State":"Missouri","State_Abbrev":"MO"},
"geometry":{ "type": "Point", "coordinates": [-91.922331,38.316104]}},
{ "type": "Feature", "properties": {"Name":"Freeman city","State":"Missouri","State_Abbrev":"MO"},
"geometry":{ "type": "Point", "coordinates": [-94.507811,38.625289]}},
{ "type": "Feature", "properties": {"Name":"Freistatt village","State":"Missouri","State_Abbrev":"MO"},
"geometry":{ "type": "Point", "coordinates": [-93.897588,37.021347]}},
{ "type": "Feature", "properties": {"Name":"Fremont CDP","State":"Missouri","State_Abbrev":"MO"},
"geometry":{ "type": "Point", "coordinates": [-91.162309,36.95226]}},
{ "type": "Feature", "properties": {"Name":"Fremont Hills city","State":"Missouri","State_Abbrev":"MO"},
"geometry":{ "type": "Point", "coordinates": [-93.253096,37.064684]}},
{ "type": "Feature", "properties": {"Name":"Friedenswald village","State":"Missouri","State_Abbrev":"MO"},
"geometry":{ "type": "Point", "coordinates": [-92.759953,38.072781]}},
{ "type": "Feature", "properties": {"Name":"Frisbee CDP","State":"Missouri","State_Abbrev":"MO"},
"geometry":{ "type": "Point", "coordinates": [-90.029835,36.351572]}},
{ "type": "Feature", "properties": {"Name":"Frohna city","State":"Missouri","State_Abbrev":"MO"},
"geometry":{ "type": "Point", "coordinates": [-89.619791,37.637557]}},
{ "type": "Feature", "properties": {"Name":"Frontenac city","State":"Missouri","State_Abbrev":"MO"},
"geometry":{ "type": "Point", "coordinates": [-90.418973,38.630063]}},
{ "type": "Feature", "properties": {"Name":"Fulton city","State":"Missouri","State_Abbrev":"MO"},
"geometry":{ "type": "Point", "coordinates": [-91.950802,38.855146]}},
{ "type": "Feature", "properties": {"Name":"Gainesville city","State":"Missouri","State_Abbrev":"MO"},
"geometry":{ "type": "Point", "coordinates": [-92.424632,36.60628]}},
{ "type": "Feature", "properties": {"Name":"Galena city","State":"Missouri","State_Abbrev":"MO"},
"geometry":{ "type": "Point", "coordinates": [-93.469508,36.803214]}},
{ "type": "Feature", "properties": {"Name":"Gallatin city","State":"Missouri","State_Abbrev":"MO"},
"geometry":{ "type": "Point", "coordinates": [-93.964011,39.910352]}},
{ "type": "Feature", "properties": {"Name":"Galt city","State":"Missouri","State_Abbrev":"MO"},
"geometry":{ "type": "Point", "coordinates": [-93.387917,40.127258]}},
{ "type": "Feature", "properties": {"Name":"Garden City city","State":"Missouri","State_Abbrev":"MO"},
"geometry":{ "type": "Point", "coordinates": [-94.195167,38.562133]}},
{ "type": "Feature", "properties": {"Name":"Gasconade city","State":"Missouri","State_Abbrev":"MO"},
"geometry":{ "type": "Point", "coordinates": [-91.559935,38.670263]}},
{ "type": "Feature", "properties": {"Name":"Gentry village","State":"Missouri","State_Abbrev":"MO"},
"geometry":{ "type": "Point", "coordinates": [-94.423258,40.332568]}},
{ "type": "Feature", "properties": {"Name":"Gerald city","State":"Missouri","State_Abbrev":"MO"},
"geometry":{ "type": "Point", "coordinates": [-91.330281,38.399352]}},
{ "type": "Feature", "properties": {"Name":"Gerster town","State":"Missouri","State_Abbrev":"MO"},
"geometry":{ "type": "Point", "coordinates": [-93.576778,37.955122]}},
{ "type": "Feature", "properties": {"Name":"Gibbs village","State":"Missouri","State_Abbrev":"MO"},
"geometry":{ "type": "Point", "coordinates": [-92.41662,40.099017]}},
{ "type": "Feature", "properties": {"Name":"Gideon city","State":"Missouri","State_Abbrev":"MO"},
"geometry":{ "type": "Point", "coordinates": [-89.906009,36.444405]}},
{ "type": "Feature", "properties": {"Name":"Gilliam city","State":"Missouri","State_Abbrev":"MO"},
"geometry":{ "type": "Point", "coordinates": [-93.004127,39.232738]}},
{ "type": "Feature", "properties": {"Name":"Gilman City city","State":"Missouri","State_Abbrev":"MO"},
"geometry":{ "type": "Point", "coordinates": [-93.873915,40.131212]}},
{ "type": "Feature", "properties": {"Name":"Ginger Blue village","State":"Missouri","State_Abbrev":"MO"},
"geometry":{ "type": "Point", "coordinates": [-94.459639,36.589913]}},
{ "type": "Feature", "properties": {"Name":"Gladstone city","State":"Missouri","State_Abbrev":"MO"},
"geometry":{ "type": "Point", "coordinates": [-94.558956,39.21298]}},
{ "type": "Feature", "properties": {"Name":"Glasgow city","State":"Missouri","State_Abbrev":"MO"},
"geometry":{ "type": "Point", "coordinates": [-92.837742,39.228504]}},
{ "type": "Feature", "properties": {"Name":"Glasgow Village CDP","State":"Missouri","State_Abbrev":"MO"},
"geometry":{ "type": "Point", "coordinates": [-90.198437,38.757878]}},
{ "type": "Feature", "properties": {"Name":"Glenaire city","State":"Missouri","State_Abbrev":"MO"},
"geometry":{ "type": "Point", "coordinates": [-94.451462,39.219731]}},
{ "type": "Feature", "properties": {"Name":"Glen Allen town","State":"Missouri","State_Abbrev":"MO"},
"geometry":{ "type": "Point", "coordinates": [-90.028118,37.317064]}},
{ "type": "Feature", "properties": {"Name":"Glendale city","State":"Missouri","State_Abbrev":"MO"},
"geometry":{ "type": "Point", "coordinates": [-90.382573,38.593507]}},
{ "type": "Feature", "properties": {"Name":"Glen Echo Park village","State":"Missouri","State_Abbrev":"MO"},
"geometry":{ "type": "Point", "coordinates": [-90.29645,38.700904]}},
{ "type": "Feature", "properties": {"Name":"Glenwood village","State":"Missouri","State_Abbrev":"MO"},
"geometry":{ "type": "Point", "coordinates": [-92.57588,40.523032]}},
{ "type": "Feature", "properties": {"Name":"Golden CDP","State":"Missouri","State_Abbrev":"MO"},
"geometry":{ "type": "Point", "coordinates": [-93.660407,36.53713]}},
{ "type": "Feature", "properties": {"Name":"Golden City city","State":"Missouri","State_Abbrev":"MO"},
"geometry":{ "type": "Point", "coordinates": [-94.09505,37.393583]}},
{ "type": "Feature", "properties": {"Name":"Goodman city","State":"Missouri","State_Abbrev":"MO"},
"geometry":{ "type": "Point", "coordinates": [-94.409167,36.738821]}},
{ "type": "Feature", "properties": {"Name":"Goose Creek Lake CDP","State":"Missouri","State_Abbrev":"MO"},
"geometry":{ "type": "Point", "coordinates": [-90.331743,37.980251]}},
{ "type": "Feature", "properties": {"Name":"Gordonville village","State":"Missouri","State_Abbrev":"MO"},
"geometry":{ "type": "Point", "coordinates": [-89.67391,37.308574]}},
{ "type": "Feature", "properties": {"Name":"Goss town","State":"Missouri","State_Abbrev":"MO"},
"geometry":{ "type": "Point", "coordinates": [-91.944747,39.514635]}},
{ "type": "Feature", "properties": {"Name":"Gower city","State":"Missouri","State_Abbrev":"MO"},
"geometry":{ "type": "Point", "coordinates": [-94.59478,39.613166]}},
{ "type": "Feature", "properties": {"Name":"Graham town","State":"Missouri","State_Abbrev":"MO"},
"geometry":{ "type": "Point", "coordinates": [-95.040391,40.201255]}},
{ "type": "Feature", "properties": {"Name":"Grain Valley city","State":"Missouri","State_Abbrev":"MO"},
"geometry":{ "type": "Point", "coordinates": [-94.216371,39.014988]}},
{ "type": "Feature", "properties": {"Name":"Granby city","State":"Missouri","State_Abbrev":"MO"},
"geometry":{ "type": "Point", "coordinates": [-94.262938,36.919613]}},
{ "type": "Feature", "properties": {"Name":"Grand Falls Plaza town","State":"Missouri","State_Abbrev":"MO"},
"geometry":{ "type": "Point", "coordinates": [-94.539253,37.036161]}},
{ "type": "Feature", "properties": {"Name":"Grandin city","State":"Missouri","State_Abbrev":"MO"},
"geometry":{ "type": "Point", "coordinates": [-90.82132,36.830862]}},
{ "type": "Feature", "properties": {"Name":"Grand Pass village","State":"Missouri","State_Abbrev":"MO"},
"geometry":{ "type": "Point", "coordinates": [-93.442639,39.204942]}},
{ "type": "Feature", "properties": {"Name":"Grandview city","State":"Missouri","State_Abbrev":"MO"},
"geometry":{ "type": "Point", "coordinates": [-94.522744,38.881359]}},
{ "type": "Feature", "properties": {"Name":"Granger village","State":"Missouri","State_Abbrev":"MO"},
"geometry":{ "type": "Point", "coordinates": [-91.973506,40.466959]}},
{ "type": "Feature", "properties": {"Name":"Grant City town","State":"Missouri","State_Abbrev":"MO"},
"geometry":{ "type": "Point", "coordinates": [-94.413458,40.485778]}},
{ "type": "Feature", "properties": {"Name":"Grantwood Village town","State":"Missouri","State_Abbrev":"MO"},
"geometry":{ "type": "Point", "coordinates": [-90.354031,38.551115]}},
{ "type": "Feature", "properties": {"Name":"Gravois Mills town","State":"Missouri","State_Abbrev":"MO"},
"geometry":{ "type": "Point", "coordinates": [-92.824996,38.299525]}},
{ "type": "Feature", "properties": {"Name":"Grayhawk CDP","State":"Missouri","State_Abbrev":"MO"},
"geometry":{ "type": "Point", "coordinates": [-90.241985,37.926897]}},
{ "type": "Feature", "properties": {"Name":"Grayridge CDP","State":"Missouri","State_Abbrev":"MO"},
"geometry":{ "type": "Point", "coordinates": [-89.781927,36.824711]}},
{ "type": "Feature", "properties": {"Name":"Grayson CDP","State":"Missouri","State_Abbrev":"MO"},
"geometry":{ "type": "Point", "coordinates": [-94.561777,39.534305]}},
{ "type": "Feature", "properties": {"Name":"Gray Summit CDP","State":"Missouri","State_Abbrev":"MO"},
"geometry":{ "type": "Point", "coordinates": [-90.815354,38.494861]}},
{ "type": "Feature", "properties": {"Name":"Greencastle city","State":"Missouri","State_Abbrev":"MO"},
"geometry":{ "type": "Point", "coordinates": [-92.875864,40.258618]}},
{ "type": "Feature", "properties": {"Name":"Green City city","State":"Missouri","State_Abbrev":"MO"},
"geometry":{ "type": "Point", "coordinates": [-92.961534,40.264833]}},
{ "type": "Feature", "properties": {"Name":"Greendale city","State":"Missouri","State_Abbrev":"MO"},
"geometry":{ "type": "Point", "coordinates": [-90.312512,38.693835]}},
{ "type": "Feature", "properties": {"Name":"Greenfield city","State":"Missouri","State_Abbrev":"MO"},
"geometry":{ "type": "Point", "coordinates": [-93.842883,37.416084]}},
{ "type": "Feature", "properties": {"Name":"Green Park city","State":"Missouri","State_Abbrev":"MO"},
"geometry":{ "type": "Point", "coordinates": [-90.337759,38.523238]}},
{ "type": "Feature", "properties": {"Name":"Green Ridge city","State":"Missouri","State_Abbrev":"MO"},
"geometry":{ "type": "Point", "coordinates": [-93.409858,38.62125]}},
{ "type": "Feature", "properties": {"Name":"Greentop city","State":"Missouri","State_Abbrev":"MO"},
"geometry":{ "type": "Point", "coordinates": [-92.566118,40.350615]}},
{ "type": "Feature", "properties": {"Name":"Greenville city","State":"Missouri","State_Abbrev":"MO"},
"geometry":{ "type": "Point", "coordinates": [-90.447878,37.127933]}},
{ "type": "Feature", "properties": {"Name":"Greenwood city","State":"Missouri","State_Abbrev":"MO"},
"geometry":{ "type": "Point", "coordinates": [-94.333545,38.84206]}},
{ "type": "Feature", "properties": {"Name":"Grovespring CDP","State":"Missouri","State_Abbrev":"MO"},
"geometry":{ "type": "Point", "coordinates": [-92.606814,37.40393]}},
{ "type": "Feature", "properties": {"Name":"Guilford town","State":"Missouri","State_Abbrev":"MO"},
"geometry":{ "type": "Point", "coordinates": [-94.735998,40.168578]}},
{ "type": "Feature", "properties": {"Name":"Gunn City village","State":"Missouri","State_Abbrev":"MO"},
"geometry":{ "type": "Point", "coordinates": [-94.163994,38.665983]}},
{ "type": "Feature", "properties": {"Name":"Hale city","State":"Missouri","State_Abbrev":"MO"},
"geometry":{ "type": "Point", "coordinates": [-93.343305,39.605085]}},
{ "type": "Feature", "properties": {"Name":"Halfway village","State":"Missouri","State_Abbrev":"MO"},
"geometry":{ "type": "Point", "coordinates": [-93.240519,37.618802]}},
{ "type": "Feature", "properties": {"Name":"Hallsville city","State":"Missouri","State_Abbrev":"MO"},
"geometry":{ "type": "Point", "coordinates": [-92.226783,39.119427]}},
{ "type": "Feature", "properties": {"Name":"Halltown village","State":"Missouri","State_Abbrev":"MO"},
"geometry":{ "type": "Point", "coordinates": [-93.629094,37.19451]}},
{ "type": "Feature", "properties": {"Name":"Hamilton city","State":"Missouri","State_Abbrev":"MO"},
"geometry":{ "type": "Point", "coordinates": [-94.0024,39.743535]}},
{ "type": "Feature", "properties": {"Name":"Hanley Hills village","State":"Missouri","State_Abbrev":"MO"},
"geometry":{ "type": "Point", "coordinates": [-90.32483,38.685532]}},
{ "type": "Feature", "properties": {"Name":"Hannibal city","State":"Missouri","State_Abbrev":"MO"},
"geometry":{ "type": "Point", "coordinates": [-91.394044,39.710208]}},
{ "type": "Feature", "properties": {"Name":"Hardin city","State":"Missouri","State_Abbrev":"MO"},
"geometry":{ "type": "Point", "coordinates": [-93.831336,39.267584]}},
{ "type": "Feature", "properties": {"Name":"Harris town","State":"Missouri","State_Abbrev":"MO"},
"geometry":{ "type": "Point", "coordinates": [-93.350379,40.306148]}},
{ "type": "Feature", "properties": {"Name":"Harrisburg town","State":"Missouri","State_Abbrev":"MO"},
"geometry":{ "type": "Point", "coordinates": [-92.459559,39.140237]}},
{ "type": "Feature", "properties": {"Name":"Harrisonville city","State":"Missouri","State_Abbrev":"MO"},
"geometry":{ "type": "Point", "coordinates": [-94.346999,38.652493]}},
{ "type": "Feature", "properties": {"Name":"Hartsburg town","State":"Missouri","State_Abbrev":"MO"},
"geometry":{ "type": "Point", "coordinates": [-92.306962,38.697211]}},
{ "type": "Feature", "properties": {"Name":"Hartville city","State":"Missouri","State_Abbrev":"MO"},
"geometry":{ "type": "Point", "coordinates": [-92.513336,37.250321]}},
{ "type": "Feature", "properties": {"Name":"Hartwell CDP","State":"Missouri","State_Abbrev":"MO"},
"geometry":{ "type": "Point", "coordinates": [-93.933918,38.431481]}},
{ "type": "Feature", "properties": {"Name":"Harviell CDP","State":"Missouri","State_Abbrev":"MO"},
"geometry":{ "type": "Point", "coordinates": [-90.478938,36.656408]}},
{ "type": "Feature", "properties": {"Name":"Harwood village","State":"Missouri","State_Abbrev":"MO"},
"geometry":{ "type": "Point", "coordinates": [-94.153934,37.956683]}},
{ "type": "Feature", "properties": {"Name":"Hawk Point city","State":"Missouri","State_Abbrev":"MO"},
"geometry":{ "type": "Point", "coordinates": [-91.130561,38.971296]}},
{ "type": "Feature", "properties": {"Name":"Hayti city","State":"Missouri","State_Abbrev":"MO"},
"geometry":{ "type": "Point", "coordinates": [-89.747362,36.232528]}},
{ "type": "Feature", "properties": {"Name":"Hayti Heights city","State":"Missouri","State_Abbrev":"MO"},
"geometry":{ "type": "Point", "coordinates": [-89.768199,36.231165]}},
{ "type": "Feature", "properties": {"Name":"Hayward CDP","State":"Missouri","State_Abbrev":"MO"},
"geometry":{ "type": "Point", "coordinates": [-89.666796,36.395974]}},
{ "type": "Feature", "properties": {"Name":"Haywood City village","State":"Missouri","State_Abbrev":"MO"},
"geometry":{ "type": "Point", "coordinates": [-89.600283,37.011679]}},
{ "type": "Feature", "properties": {"Name":"Hazelwood city","State":"Missouri","State_Abbrev":"MO"},
"geometry":{ "type": "Point", "coordinates": [-90.396002,38.794706]}},
{ "type": "Feature", "properties": {"Name":"Henrietta city","State":"Missouri","State_Abbrev":"MO"},
"geometry":{ "type": "Point", "coordinates": [-93.938395,39.23703]}},
{ "type": "Feature", "properties": {"Name":"Herculaneum city","State":"Missouri","State_Abbrev":"MO"},
"geometry":{ "type": "Point", "coordinates": [-90.39313,38.257558]}},
{ "type": "Feature", "properties": {"Name":"Hermann city","State":"Missouri","State_Abbrev":"MO"},
"geometry":{ "type": "Point", "coordinates": [-91.434865,38.697652]}},
{ "type": "Feature", "properties": {"Name":"Hermitage city","State":"Missouri","State_Abbrev":"MO"},
"geometry":{ "type": "Point", "coordinates": [-93.328956,37.945134]}},
{ "type": "Feature", "properties": {"Name":"Higbee city","State":"Missouri","State_Abbrev":"MO"},
"geometry":{ "type": "Point", "coordinates": [-92.513176,39.306337]}},
{ "type": "Feature", "properties": {"Name":"Higginsville city","State":"Missouri","State_Abbrev":"MO"},
"geometry":{ "type": "Point", "coordinates": [-93.726814,39.065719]}},
{ "type": "Feature", "properties": {"Name":"High Hill city","State":"Missouri","State_Abbrev":"MO"},
"geometry":{ "type": "Point", "coordinates": [-91.380665,38.876309]}},
{ "type": "Feature", "properties": {"Name":"Highlandville city","State":"Missouri","State_Abbrev":"MO"},
"geometry":{ "type": "Point", "coordinates": [-93.282567,36.93948]}},
{ "type": "Feature", "properties": {"Name":"High Ridge CDP","State":"Missouri","State_Abbrev":"MO"},
"geometry":{ "type": "Point", "coordinates": [-90.533842,38.460842]}},
{ "type": "Feature", "properties": {"Name":"Hillsboro city","State":"Missouri","State_Abbrev":"MO"},
"geometry":{ "type": "Point", "coordinates": [-90.567196,38.232951]}},
{ "type": "Feature", "properties": {"Name":"Hillsdale village","State":"Missouri","State_Abbrev":"MO"},
"geometry":{ "type": "Point", "coordinates": [-90.286919,38.685777]}},
{ "type": "Feature", "properties": {"Name":"Hoberg village","State":"Missouri","State_Abbrev":"MO"},
"geometry":{ "type": "Point", "coordinates": [-93.849257,37.068197]}},
{ "type": "Feature", "properties": {"Name":"Holcomb city","State":"Missouri","State_Abbrev":"MO"},
"geometry":{ "type": "Point", "coordinates": [-90.024838,36.401341]}},
{ "type": "Feature", "properties": {"Name":"Holden city","State":"Missouri","State_Abbrev":"MO"},
"geometry":{ "type": "Point", "coordinates": [-93.989412,38.713456]}},
{ "type": "Feature", "properties": {"Name":"Holland town","State":"Missouri","State_Abbrev":"MO"},
"geometry":{ "type": "Point", "coordinates": [-89.870531,36.057046]}},
{ "type": "Feature", "properties": {"Name":"Holliday village","State":"Missouri","State_Abbrev":"MO"},
"geometry":{ "type": "Point", "coordinates": [-92.134341,39.491927]}},
{ "type": "Feature", "properties": {"Name":"Hollister city","State":"Missouri","State_Abbrev":"MO"},
"geometry":{ "type": "Point", "coordinates": [-93.232005,36.607215]}},
{ "type": "Feature", "properties": {"Name":"Hollywood CDP","State":"Missouri","State_Abbrev":"MO"},
"geometry":{ "type": "Point", "coordinates": [-90.186036,36.051483]}},
{ "type": "Feature", "properties": {"Name":"Holt city","State":"Missouri","State_Abbrev":"MO"},
"geometry":{ "type": "Point", "coordinates": [-94.338511,39.454209]}},
{ "type": "Feature", "properties": {"Name":"Holts Summit city","State":"Missouri","State_Abbrev":"MO"},
"geometry":{ "type": "Point", "coordinates": [-92.113009,38.647266]}},
{ "type": "Feature", "properties": {"Name":"Homestead village","State":"Missouri","State_Abbrev":"MO"},
"geometry":{ "type": "Point", "coordinates": [-94.200536,39.363223]}},
{ "type": "Feature", "properties": {"Name":"Homestown city","State":"Missouri","State_Abbrev":"MO"},
"geometry":{ "type": "Point", "coordinates": [-89.824233,36.331823]}},
{ "type": "Feature", "properties": {"Name":"Hopkins city","State":"Missouri","State_Abbrev":"MO"},
"geometry":{ "type": "Point", "coordinates": [-94.816993,40.551081]}},
{ "type": "Feature", "properties": {"Name":"Horine CDP","State":"Missouri","State_Abbrev":"MO"},
"geometry":{ "type": "Point", "coordinates": [-90.432101,38.268821]}},
{ "type": "Feature", "properties": {"Name":"Hornersville city","State":"Missouri","State_Abbrev":"MO"},
"geometry":{ "type": "Point", "coordinates": [-90.116377,36.040224]}},
{ "type": "Feature", "properties": {"Name":"Houston city","State":"Missouri","State_Abbrev":"MO"},
"geometry":{ "type": "Point", "coordinates": [-91.961155,37.320948]}},
{ "type": "Feature", "properties": {"Name":"Houstonia city","State":"Missouri","State_Abbrev":"MO"},
"geometry":{ "type": "Point", "coordinates": [-93.359417,38.899357]}},
{ "type": "Feature", "properties": {"Name":"Houston Lake city","State":"Missouri","State_Abbrev":"MO"},
"geometry":{ "type": "Point", "coordinates": [-94.620165,39.190127]}},
{ "type": "Feature", "properties": {"Name":"Howardville city","State":"Missouri","State_Abbrev":"MO"},
"geometry":{ "type": "Point", "coordinates": [-89.597123,36.56845]}},
{ "type": "Feature", "properties": {"Name":"Hughesville village","State":"Missouri","State_Abbrev":"MO"},
"geometry":{ "type": "Point", "coordinates": [-93.29517,38.83689]}},
{ "type": "Feature", "properties": {"Name":"Humansville city","State":"Missouri","State_Abbrev":"MO"},
"geometry":{ "type": "Point", "coordinates": [-93.577034,37.795122]}},
{ "type": "Feature", "properties": {"Name":"Hume town","State":"Missouri","State_Abbrev":"MO"},
"geometry":{ "type": "Point", "coordinates": [-94.583214,38.090412]}},
{ "type": "Feature", "properties": {"Name":"Humphreys village","State":"Missouri","State_Abbrev":"MO"},
"geometry":{ "type": "Point", "coordinates": [-93.321709,40.123309]}},
{ "type": "Feature", "properties": {"Name":"Hunnewell city","State":"Missouri","State_Abbrev":"MO"},
"geometry":{ "type": "Point", "coordinates": [-91.858884,39.667961]}},
{ "type": "Feature", "properties": {"Name":"Hunter CDP","State":"Missouri","State_Abbrev":"MO"},
"geometry":{ "type": "Point", "coordinates": [-90.847862,36.881939]}},
{ "type": "Feature", "properties": {"Name":"Huntleigh city","State":"Missouri","State_Abbrev":"MO"},
"geometry":{ "type": "Point", "coordinates": [-90.409074,38.613081]}},
{ "type": "Feature", "properties": {"Name":"Huntsdale town","State":"Missouri","State_Abbrev":"MO"},
"geometry":{ "type": "Point", "coordinates": [-92.478607,38.911978]}},
{ "type": "Feature", "properties": {"Name":"Huntsville city","State":"Missouri","State_Abbrev":"MO"},
"geometry":{ "type": "Point", "coordinates": [-92.543825,39.436427]}},
{ "type": "Feature", "properties": {"Name":"Hurdland city","State":"Missouri","State_Abbrev":"MO"},
"geometry":{ "type": "Point", "coordinates": [-92.302632,40.148386]}},
{ "type": "Feature", "properties": {"Name":"Hurley city","State":"Missouri","State_Abbrev":"MO"},
"geometry":{ "type": "Point", "coordinates": [-93.499156,36.930598]}},
{ "type": "Feature", "properties": {"Name":"Iantha CDP","State":"Missouri","State_Abbrev":"MO"},
"geometry":{ "type": "Point", "coordinates": [-94.399373,37.514932]}},
{ "type": "Feature", "properties": {"Name":"Iatan village","State":"Missouri","State_Abbrev":"MO"},
"geometry":{ "type": "Point", "coordinates": [-94.984734,39.479049]}},
{ "type": "Feature", "properties": {"Name":"Iberia city","State":"Missouri","State_Abbrev":"MO"},
"geometry":{ "type": "Point", "coordinates": [-92.296182,38.088684]}},
{ "type": "Feature", "properties": {"Name":"Imperial CDP","State":"Missouri","State_Abbrev":"MO"},
"geometry":{ "type": "Point", "coordinates": [-90.382273,38.35246]}},
{ "type": "Feature", "properties": {"Name":"Independence city","State":"Missouri","State_Abbrev":"MO"},
"geometry":{ "type": "Point", "coordinates": [-94.352082,39.085469]}},
{ "type": "Feature", "properties": {"Name":"Indian Lake CDP","State":"Missouri","State_Abbrev":"MO"},
"geometry":{ "type": "Point", "coordinates": [-91.453418,38.102648]}},
{ "type": "Feature", "properties": {"Name":"Indian Point village","State":"Missouri","State_Abbrev":"MO"},
"geometry":{ "type": "Point", "coordinates": [-93.346075,36.646635]}},
{ "type": "Feature", "properties": {"Name":"Innsbrook village","State":"Missouri","State_Abbrev":"MO"},
"geometry":{ "type": "Point", "coordinates": [-91.054388,38.761578]}},
{ "type": "Feature", "properties": {"Name":"Ionia town","State":"Missouri","State_Abbrev":"MO"},
"geometry":{ "type": "Point", "coordinates": [-93.323534,38.503722]}},
{ "type": "Feature", "properties": {"Name":"Irena village","State":"Missouri","State_Abbrev":"MO"},
"geometry":{ "type": "Point", "coordinates": [-94.389875,40.540255]}},
{ "type": "Feature", "properties": {"Name":"Irondale city","State":"Missouri","State_Abbrev":"MO"},
"geometry":{ "type": "Point", "coordinates": [-90.670146,37.837352]}},
{ "type": "Feature", "properties": {"Name":"Iron Mountain Lake city","State":"Missouri","State_Abbrev":"MO"},
"geometry":{ "type": "Point", "coordinates": [-90.621708,37.690865]}},
{ "type": "Feature", "properties": {"Name":"Ironton city","State":"Missouri","State_Abbrev":"MO"},
"geometry":{ "type": "Point", "coordinates": [-90.629752,37.595839]}},
{ "type": "Feature", "properties": {"Name":"Irwin CDP","State":"Missouri","State_Abbrev":"MO"},
"geometry":{ "type": "Point", "coordinates": [-94.286559,37.588674]}},
{ "type": "Feature", "properties": {"Name":"Jackson city","State":"Missouri","State_Abbrev":"MO"},
"geometry":{ "type": "Point", "coordinates": [-89.654073,37.379922]}},
{ "type": "Feature", "properties": {"Name":"Jacksonville village","State":"Missouri","State_Abbrev":"MO"},
"geometry":{ "type": "Point", "coordinates": [-92.472852,39.587791]}},
{ "type": "Feature", "properties": {"Name":"Jameson town","State":"Missouri","State_Abbrev":"MO"},
"geometry":{ "type": "Point", "coordinates": [-93.987789,40.005852]}},
{ "type": "Feature", "properties": {"Name":"Jamesport city","State":"Missouri","State_Abbrev":"MO"},
"geometry":{ "type": "Point", "coordinates": [-93.802585,39.974637]}},
{ "type": "Feature", "properties": {"Name":"Jamestown town","State":"Missouri","State_Abbrev":"MO"},
"geometry":{ "type": "Point", "coordinates": [-92.483904,38.769237]}},
{ "type": "Feature", "properties": {"Name":"Jane town","State":"Missouri","State_Abbrev":"MO"},
"geometry":{ "type": "Point", "coordinates": [-94.307774,36.540313]}},
{ "type": "Feature", "properties": {"Name":"Jasper city","State":"Missouri","State_Abbrev":"MO"},
"geometry":{ "type": "Point", "coordinates": [-94.302795,37.335665]}},
{ "type": "Feature", "properties": {"Name":"Jefferson City city","State":"Missouri","State_Abbrev":"MO"},
"geometry":{ "type": "Point", "coordinates": [-92.175254,38.567461]}},
{ "type": "Feature", "properties": {"Name":"Jennings city","State":"Missouri","State_Abbrev":"MO"},
"geometry":{ "type": "Point", "coordinates": [-90.264373,38.723078]}},
{ "type": "Feature", "properties": {"Name":"Jerico Springs village","State":"Missouri","State_Abbrev":"MO"},
"geometry":{ "type": "Point", "coordinates": [-94.015167,37.61903]}},
{ "type": "Feature", "properties": {"Name":"Jonesburg city","State":"Missouri","State_Abbrev":"MO"},
"geometry":{ "type": "Point", "coordinates": [-91.302659,38.855629]}},
{ "type": "Feature", "properties": {"Name":"Joplin city","State":"Missouri","State_Abbrev":"MO"},
"geometry":{ "type": "Point", "coordinates": [-94.501259,37.075218]}},
{ "type": "Feature", "properties": {"Name":"Josephville village","State":"Missouri","State_Abbrev":"MO"},
"geometry":{ "type": "Point", "coordinates": [-90.788289,38.830526]}},
{ "type": "Feature", "properties": {"Name":"Junction City village","State":"Missouri","State_Abbrev":"MO"},
"geometry":{ "type": "Point", "coordinates": [-90.293249,37.573962]}},
{ "type": "Feature", "properties": {"Name":"Kahoka city","State":"Missouri","State_Abbrev":"MO"},
"geometry":{ "type": "Point", "coordinates": [-91.718706,40.42362]}},
{ "type": "Feature", "properties": {"Name":"Kansas City city","State":"Missouri","State_Abbrev":"MO"},
"geometry":{ "type": "Point", "coordinates": [-94.555117,39.122361]}},
{ "type": "Feature", "properties": {"Name":"Kearney city","State":"Missouri","State_Abbrev":"MO"},
"geometry":{ "type": "Point", "coordinates": [-94.35858,39.355111]}},
{ "type": "Feature", "properties": {"Name":"Kelso village","State":"Missouri","State_Abbrev":"MO"},
"geometry":{ "type": "Point", "coordinates": [-89.5504,37.192215]}},
{ "type": "Feature", "properties": {"Name":"Kennett city","State":"Missouri","State_Abbrev":"MO"},
"geometry":{ "type": "Point", "coordinates": [-90.047221,36.240223]}},
{ "type": "Feature", "properties": {"Name":"Keytesville city","State":"Missouri","State_Abbrev":"MO"},
"geometry":{ "type": "Point", "coordinates": [-92.937835,39.43135]}},
{ "type": "Feature", "properties": {"Name":"Kidder city","State":"Missouri","State_Abbrev":"MO"},
"geometry":{ "type": "Point", "coordinates": [-94.102471,39.781977]}},
{ "type": "Feature", "properties": {"Name":"Kimberling City city","State":"Missouri","State_Abbrev":"MO"},
"geometry":{ "type": "Point", "coordinates": [-93.424196,36.648016]}},
{ "type": "Feature", "properties": {"Name":"Kimmswick city","State":"Missouri","State_Abbrev":"MO"},
"geometry":{ "type": "Point", "coordinates": [-90.364327,38.365752]}},
{ "type": "Feature", "properties": {"Name":"King City city","State":"Missouri","State_Abbrev":"MO"},
"geometry":{ "type": "Point", "coordinates": [-94.525167,40.050567]}},
{ "type": "Feature", "properties": {"Name":"Kingdom City village","State":"Missouri","State_Abbrev":"MO"},
"geometry":{ "type": "Point", "coordinates": [-91.935419,38.947306]}},
{ "type": "Feature", "properties": {"Name":"Kingston city","State":"Missouri","State_Abbrev":"MO"},
"geometry":{ "type": "Point", "coordinates": [-94.038388,39.642576]}},
{ "type": "Feature", "properties": {"Name":"Kingsville city","State":"Missouri","State_Abbrev":"MO"},
"geometry":{ "type": "Point", "coordinates": [-94.07076,38.74361]}},
{ "type": "Feature", "properties": {"Name":"Kinloch city","State":"Missouri","State_Abbrev":"MO"},
"geometry":{ "type": "Point", "coordinates": [-90.324955,38.738399]}},
{ "type": "Feature", "properties": {"Name":"Kirbyville village","State":"Missouri","State_Abbrev":"MO"},
"geometry":{ "type": "Point", "coordinates": [-93.156778,36.629409]}},
{ "type": "Feature", "properties": {"Name":"Kirksville city","State":"Missouri","State_Abbrev":"MO"},
"geometry":{ "type": "Point", "coordinates": [-92.574562,40.198171]}},
{ "type": "Feature", "properties": {"Name":"Kirkwood city","State":"Missouri","State_Abbrev":"MO"},
"geometry":{ "type": "Point", "coordinates": [-90.420881,38.579356]}},
{ "type": "Feature", "properties": {"Name":"Kissee Mills CDP","State":"Missouri","State_Abbrev":"MO"},
"geometry":{ "type": "Point", "coordinates": [-93.052352,36.667025]}},
{ "type": "Feature", "properties": {"Name":"Knob Lick CDP","State":"Missouri","State_Abbrev":"MO"},
"geometry":{ "type": "Point", "coordinates": [-90.36787,37.678464]}},
{ "type": "Feature", "properties": {"Name":"Knob Noster city","State":"Missouri","State_Abbrev":"MO"},
"geometry":{ "type": "Point", "coordinates": [-93.563643,38.767334]}},
{ "type": "Feature", "properties": {"Name":"Knox City city","State":"Missouri","State_Abbrev":"MO"},
"geometry":{ "type": "Point", "coordinates": [-92.010197,40.14416]}},
{ "type": "Feature", "properties": {"Name":"Koshkonong town","State":"Missouri","State_Abbrev":"MO"},
"geometry":{ "type": "Point", "coordinates": [-91.645953,36.597444]}},
{ "type": "Feature", "properties": {"Name":"LaBarque Creek CDP","State":"Missouri","State_Abbrev":"MO"},
"geometry":{ "type": "Point", "coordinates": [-90.679886,38.417006]}},
{ "type": "Feature", "properties": {"Name":"La Belle city","State":"Missouri","State_Abbrev":"MO"},
"geometry":{ "type": "Point", "coordinates": [-91.91534,40.116186]}},
{ "type": "Feature", "properties": {"Name":"Laclede city","State":"Missouri","State_Abbrev":"MO"},
"geometry":{ "type": "Point", "coordinates": [-93.16972,39.787354]}},
{ "type": "Feature", "properties": {"Name":"Laddonia city","State":"Missouri","State_Abbrev":"MO"},
"geometry":{ "type": "Point", "coordinates": [-91.642566,39.242798]}},
{ "type": "Feature", "properties": {"Name":"La Due village","State":"Missouri","State_Abbrev":"MO"},
"geometry":{ "type": "Point", "coordinates": [-93.877669,38.312523]}},
{ "type": "Feature", "properties": {"Name":"Ladue city","State":"Missouri","State_Abbrev":"MO"},
"geometry":{ "type": "Point", "coordinates": [-90.385114,38.636434]}},
{ "type": "Feature", "properties": {"Name":"La Grange city","State":"Missouri","State_Abbrev":"MO"},
"geometry":{ "type": "Point", "coordinates": [-91.50229,40.046851]}},
{ "type": "Feature", "properties": {"Name":"Lake Annette city","State":"Missouri","State_Abbrev":"MO"},
"geometry":{ "type": "Point", "coordinates": [-94.505837,38.653716]}},
{ "type": "Feature", "properties": {"Name":"Lake Arrowhead CDP","State":"Missouri","State_Abbrev":"MO"},
"geometry":{ "type": "Point", "coordinates": [-94.317205,39.484057]}},
{ "type": "Feature", "properties": {"Name":"Lake Lafayette city","State":"Missouri","State_Abbrev":"MO"},
"geometry":{ "type": "Point", "coordinates": [-93.968073,38.949161]}},
{ "type": "Feature", "properties": {"Name":"Lake Lotawana city","State":"Missouri","State_Abbrev":"MO"},
"geometry":{ "type": "Point", "coordinates": [-94.258369,38.90377]}},
{ "type": "Feature", "properties": {"Name":"Lake Ozark city","State":"Missouri","State_Abbrev":"MO"},
"geometry":{ "type": "Point", "coordinates": [-92.630046,38.200866]}},
{ "type": "Feature", "properties": {"Name":"Lake St. Clair CDP","State":"Missouri","State_Abbrev":"MO"},
"geometry":{ "type": "Point", "coordinates": [-90.999201,38.32295]}},
{ "type": "Feature", "properties": {"Name":"Lake St. Louis city","State":"Missouri","State_Abbrev":"MO"},
"geometry":{ "type": "Point", "coordinates": [-90.785586,38.77989]}},
{ "type": "Feature", "properties": {"Name":"Lakeshire city","State":"Missouri","State_Abbrev":"MO"},
"geometry":{ "type": "Point", "coordinates": [-90.338363,38.539942]}},
{ "type": "Feature", "properties": {"Name":"Lakeside city","State":"Missouri","State_Abbrev":"MO"},
"geometry":{ "type": "Point", "coordinates": [-92.621357,38.204078]}},
{ "type": "Feature", "properties": {"Name":"Lake Tapawingo city","State":"Missouri","State_Abbrev":"MO"},
"geometry":{ "type": "Point", "coordinates": [-94.31389,39.022379]}},
{ "type": "Feature", "properties": {"Name":"Lake Tekakwitha village","State":"Missouri","State_Abbrev":"MO"},
"geometry":{ "type": "Point", "coordinates": [-90.718106,38.441206]}},
{ "type": "Feature", "properties": {"Name":"Lake Timberline CDP","State":"Missouri","State_Abbrev":"MO"},
"geometry":{ "type": "Point", "coordinates": [-90.54985,37.997365]}},
{ "type": "Feature", "properties": {"Name":"Lake Viking CDP","State":"Missouri","State_Abbrev":"MO"},
"geometry":{ "type": "Point", "coordinates": [-94.066677,39.932209]}},
{ "type": "Feature", "properties": {"Name":"Lake Waukomis city","State":"Missouri","State_Abbrev":"MO"},
"geometry":{ "type": "Point", "coordinates": [-94.637818,39.232716]}},
{ "type": "Feature", "properties": {"Name":"Lake Winnebago city","State":"Missouri","State_Abbrev":"MO"},
"geometry":{ "type": "Point", "coordinates": [-94.361447,38.821281]}},
{ "type": "Feature", "properties": {"Name":"Lamar city","State":"Missouri","State_Abbrev":"MO"},
"geometry":{ "type": "Point", "coordinates": [-94.278428,37.493918]}},
{ "type": "Feature", "properties": {"Name":"Lamar Heights city","State":"Missouri","State_Abbrev":"MO"},
"geometry":{ "type": "Point", "coordinates": [-94.293375,37.494409]}},
{ "type": "Feature", "properties": {"Name":"Lambert village","State":"Missouri","State_Abbrev":"MO"},
"geometry":{ "type": "Point", "coordinates": [-89.554791,37.093757]}},
{ "type": "Feature", "properties": {"Name":"La Monte city","State":"Missouri","State_Abbrev":"MO"},
"geometry":{ "type": "Point", "coordinates": [-93.423907,38.771682]}},
{ "type": "Feature", "properties": {"Name":"Lanagan town","State":"Missouri","State_Abbrev":"MO"},
"geometry":{ "type": "Point", "coordinates": [-94.451705,36.606138]}},
{ "type": "Feature", "properties": {"Name":"Lancaster city","State":"Missouri","State_Abbrev":"MO"},
"geometry":{ "type": "Point", "coordinates": [-92.531732,40.526323]}},
{ "type": "Feature", "properties": {"Name":"La Plata city","State":"Missouri","State_Abbrev":"MO"},
"geometry":{ "type": "Point", "coordinates": [-92.490779,40.023952]}},
{ "type": "Feature", "properties": {"Name":"Laredo city","State":"Missouri","State_Abbrev":"MO"},
"geometry":{ "type": "Point", "coordinates": [-93.448005,40.026072]}},
{ "type": "Feature", "properties": {"Name":"La Russell city","State":"Missouri","State_Abbrev":"MO"},
"geometry":{ "type": "Point", "coordinates": [-94.060943,37.140236]}},
{ "type": "Feature", "properties": {"Name":"Latham CDP","State":"Missouri","State_Abbrev":"MO"},
"geometry":{ "type": "Point", "coordinates": [-92.678913,38.559352]}},
{ "type": "Feature", "properties": {"Name":"Lathrop city","State":"Missouri","State_Abbrev":"MO"},
"geometry":{ "type": "Point", "coordinates": [-94.319853,39.561848]}},
{ "type": "Feature", "properties": {"Name":"La Tour CDP","State":"Missouri","State_Abbrev":"MO"},
"geometry":{ "type": "Point", "coordinates": [-94.100549,38.635643]}},
{ "type": "Feature", "properties": {"Name":"Laurie city","State":"Missouri","State_Abbrev":"MO"},
"geometry":{ "type": "Point", "coordinates": [-92.825358,38.207984]}},
{ "type": "Feature", "properties": {"Name":"Lawson city","State":"Missouri","State_Abbrev":"MO"},
"geometry":{ "type": "Point", "coordinates": [-94.220311,39.432965]}},
{ "type": "Feature", "properties": {"Name":"Leadington city","State":"Missouri","State_Abbrev":"MO"},
"geometry":{ "type": "Point", "coordinates": [-90.480686,37.834306]}},
{ "type": "Feature", "properties": {"Name":"Leadwood city","State":"Missouri","State_Abbrev":"MO"},
"geometry":{ "type": "Point", "coordinates": [-90.589155,37.861742]}},
{ "type": "Feature", "properties": {"Name":"Leasburg village","State":"Missouri","State_Abbrev":"MO"},
"geometry":{ "type": "Point", "coordinates": [-91.295322,38.094846]}},
{ "type": "Feature", "properties": {"Name":"Leawood village","State":"Missouri","State_Abbrev":"MO"},
"geometry":{ "type": "Point", "coordinates": [-94.501891,37.031143]}},
{ "type": "Feature", "properties": {"Name":"Lebanon city","State":"Missouri","State_Abbrev":"MO"},
"geometry":{ "type": "Point", "coordinates": [-92.65967,37.672131]}},
{ "type": "Feature", "properties": {"Name":"Lee's Summit city","State":"Missouri","State_Abbrev":"MO"},
"geometry":{ "type": "Point", "coordinates": [-94.384763,38.921601]}},
{ "type": "Feature", "properties": {"Name":"Leeton city","State":"Missouri","State_Abbrev":"MO"},
"geometry":{ "type": "Point", "coordinates": [-93.695305,38.583343]}},
{ "type": "Feature", "properties": {"Name":"Leisure Lake CDP","State":"Missouri","State_Abbrev":"MO"},
"geometry":{ "type": "Point", "coordinates": [-93.723479,40.109834]}},
{ "type": "Feature", "properties": {"Name":"Lemay CDP","State":"Missouri","State_Abbrev":"MO"},
"geometry":{ "type": "Point", "coordinates": [-90.285047,38.533539]}},
{ "type": "Feature", "properties": {"Name":"Leonard village","State":"Missouri","State_Abbrev":"MO"},
"geometry":{ "type": "Point", "coordinates": [-92.181961,39.894409]}},
{ "type": "Feature", "properties": {"Name":"Leslie village","State":"Missouri","State_Abbrev":"MO"},
"geometry":{ "type": "Point", "coordinates": [-91.23095,38.417907]}},
{ "type": "Feature", "properties": {"Name":"Levasy city","State":"Missouri","State_Abbrev":"MO"},
"geometry":{ "type": "Point", "coordinates": [-94.128124,39.135222]}},
{ "type": "Feature", "properties": {"Name":"Lewis and Clark Village town","State":"Missouri","State_Abbrev":"MO"},
"geometry":{ "type": "Point", "coordinates": [-95.051461,39.535932]}},
{ "type": "Feature", "properties": {"Name":"Lewistown town","State":"Missouri","State_Abbrev":"MO"},
"geometry":{ "type": "Point", "coordinates": [-91.81339,40.084811]}},
{ "type": "Feature", "properties": {"Name":"Lexington city","State":"Missouri","State_Abbrev":"MO"},
"geometry":{ "type": "Point", "coordinates": [-93.869051,39.180313]}},
{ "type": "Feature", "properties": {"Name":"Liberal city","State":"Missouri","State_Abbrev":"MO"},
"geometry":{ "type": "Point", "coordinates": [-94.51717,37.559004]}},
{ "type": "Feature", "properties": {"Name":"Liberty city","State":"Missouri","State_Abbrev":"MO"},
"geometry":{ "type": "Point", "coordinates": [-94.418897,39.239947]}},
{ "type": "Feature", "properties": {"Name":"Licking city","State":"Missouri","State_Abbrev":"MO"},
"geometry":{ "type": "Point", "coordinates": [-91.861146,37.500455]}},
{ "type": "Feature", "properties": {"Name":"Lilbourn city","State":"Missouri","State_Abbrev":"MO"},
"geometry":{ "type": "Point", "coordinates": [-89.613064,36.590763]}},
{ "type": "Feature", "properties": {"Name":"Lincoln city","State":"Missouri","State_Abbrev":"MO"},
"geometry":{ "type": "Point", "coordinates": [-93.33073,38.394141]}},
{ "type": "Feature", "properties": {"Name":"Linn city","State":"Missouri","State_Abbrev":"MO"},
"geometry":{ "type": "Point", "coordinates": [-91.844989,38.478798]}},
{ "type": "Feature", "properties": {"Name":"Linn Creek city","State":"Missouri","State_Abbrev":"MO"},
"geometry":{ "type": "Point", "coordinates": [-92.713973,38.042934]}},
{ "type": "Feature", "properties": {"Name":"Linneus city","State":"Missouri","State_Abbrev":"MO"},
"geometry":{ "type": "Point", "coordinates": [-93.186594,39.877495]}},
{ "type": "Feature", "properties": {"Name":"Lithium CDP","State":"Missouri","State_Abbrev":"MO"},
"geometry":{ "type": "Point", "coordinates": [-89.88325,37.831844]}},
{ "type": "Feature", "properties": {"Name":"Livonia village","State":"Missouri","State_Abbrev":"MO"},
"geometry":{ "type": "Point", "coordinates": [-92.700484,40.492034]}},
{ "type": "Feature", "properties": {"Name":"Loch Lloyd village","State":"Missouri","State_Abbrev":"MO"},
"geometry":{ "type": "Point", "coordinates": [-94.597319,38.828234]}},
{ "type": "Feature", "properties": {"Name":"Lock Springs village","State":"Missouri","State_Abbrev":"MO"},
"geometry":{ "type": "Point", "coordinates": [-93.776157,39.848805]}},
{ "type": "Feature", "properties": {"Name":"Lockwood city","State":"Missouri","State_Abbrev":"MO"},
"geometry":{ "type": "Point", "coordinates": [-93.959948,37.386993]}},
{ "type": "Feature", "properties": {"Name":"Lohman city","State":"Missouri","State_Abbrev":"MO"},
"geometry":{ "type": "Point", "coordinates": [-92.364592,38.542898]}},
{ "type": "Feature", "properties": {"Name":"Loma Linda town","State":"Missouri","State_Abbrev":"MO"},
"geometry":{ "type": "Point", "coordinates": [-94.590207,36.98793]}},
{ "type": "Feature", "properties": {"Name":"Lone Jack city","State":"Missouri","State_Abbrev":"MO"},
"geometry":{ "type": "Point", "coordinates": [-94.185586,38.870904]}},
{ "type": "Feature", "properties": {"Name":"Longtown town","State":"Missouri","State_Abbrev":"MO"},
"geometry":{ "type": "Point", "coordinates": [-89.774141,37.670308]}},
{ "type": "Feature", "properties": {"Name":"Louisburg village","State":"Missouri","State_Abbrev":"MO"},
"geometry":{ "type": "Point", "coordinates": [-93.141047,37.756418]}},
{ "type": "Feature", "properties": {"Name":"Louisiana city","State":"Missouri","State_Abbrev":"MO"},
"geometry":{ "type": "Point", "coordinates": [-91.062033,39.441456]}},
{ "type": "Feature", "properties": {"Name":"Lowry City city","State":"Missouri","State_Abbrev":"MO"},
"geometry":{ "type": "Point", "coordinates": [-93.726769,38.140018]}},
{ "type": "Feature", "properties": {"Name":"Lucerne village","State":"Missouri","State_Abbrev":"MO"},
"geometry":{ "type": "Point", "coordinates": [-93.291714,40.463699]}},
{ "type": "Feature", "properties": {"Name":"Ludlow town","State":"Missouri","State_Abbrev":"MO"},
"geometry":{ "type": "Point", "coordinates": [-93.70259,39.65427]}},
{ "type": "Feature", "properties": {"Name":"Lupus town","State":"Missouri","State_Abbrev":"MO"},
"geometry":{ "type": "Point", "coordinates": [-92.454006,38.84597]}},
{ "type": "Feature", "properties": {"Name":"Luray village","State":"Missouri","State_Abbrev":"MO"},
"geometry":{ "type": "Point", "coordinates": [-91.884117,40.45234]}},
{ "type": "Feature", "properties": {"Name":"McBaine town","State":"Missouri","State_Abbrev":"MO"},
"geometry":{ "type": "Point", "coordinates": [-92.456488,38.88285]}},
{ "type": "Feature", "properties": {"Name":"McCord Bend village","State":"Missouri","State_Abbrev":"MO"},
"geometry":{ "type": "Point", "coordinates": [-93.503061,36.787442]}},
{ "type": "Feature", "properties": {"Name":"McFall city","State":"Missouri","State_Abbrev":"MO"},
"geometry":{ "type": "Point", "coordinates": [-94.222302,40.111584]}},
{ "type": "Feature", "properties": {"Name":"McKittrick town","State":"Missouri","State_Abbrev":"MO"},
"geometry":{ "type": "Point", "coordinates": [-91.445207,38.739887]}},
{ "type": "Feature", "properties": {"Name":"Macks Creek CDP","State":"Missouri","State_Abbrev":"MO"},
"geometry":{ "type": "Point", "coordinates": [-92.96691,37.963477]}},
{ "type": "Feature", "properties": {"Name":"Macon city","State":"Missouri","State_Abbrev":"MO"},
"geometry":{ "type": "Point", "coordinates": [-92.470551,39.74223]}},
{ "type": "Feature", "properties": {"Name":"Madison city","State":"Missouri","State_Abbrev":"MO"},
"geometry":{ "type": "Point", "coordinates": [-92.213848,39.475454]}},
{ "type": "Feature", "properties": {"Name":"Maitland city","State":"Missouri","State_Abbrev":"MO"},
"geometry":{ "type": "Point", "coordinates": [-95.077912,40.2021]}},
{ "type": "Feature", "properties": {"Name":"Malden city","State":"Missouri","State_Abbrev":"MO"},
"geometry":{ "type": "Point", "coordinates": [-89.997512,36.601]}},
{ "type": "Feature", "properties": {"Name":"Malta Bend town","State":"Missouri","State_Abbrev":"MO"},
"geometry":{ "type": "Point", "coordinates": [-93.3635,39.193986]}},
{ "type": "Feature", "properties": {"Name":"Manchester city","State":"Missouri","State_Abbrev":"MO"},
"geometry":{ "type": "Point", "coordinates": [-90.506424,38.583024]}},
{ "type": "Feature", "properties": {"Name":"Mansfield city","State":"Missouri","State_Abbrev":"MO"},
"geometry":{ "type": "Point", "coordinates": [-92.580955,37.109843]}},
{ "type": "Feature", "properties": {"Name":"Maplewood city","State":"Missouri","State_Abbrev":"MO"},
"geometry":{ "type": "Point", "coordinates": [-90.323949,38.612139]}},
{ "type": "Feature", "properties": {"Name":"Marble Hill city","State":"Missouri","State_Abbrev":"MO"},
"geometry":{ "type": "Point", "coordinates": [-89.981792,37.302477]}},
{ "type": "Feature", "properties": {"Name":"Marceline city","State":"Missouri","State_Abbrev":"MO"},
"geometry":{ "type": "Point", "coordinates": [-92.947351,39.717518]}},
{ "type": "Feature", "properties": {"Name":"Marionville city","State":"Missouri","State_Abbrev":"MO"},
"geometry":{ "type": "Point", "coordinates": [-93.6356,37.002203]}},
{ "type": "Feature", "properties": {"Name":"Marlborough village","State":"Missouri","State_Abbrev":"MO"},
"geometry":{ "type": "Point", "coordinates": [-90.339241,38.568301]}},
{ "type": "Feature", "properties": {"Name":"Marquand city","State":"Missouri","State_Abbrev":"MO"},
"geometry":{ "type": "Point", "coordinates": [-90.167432,37.428786]}},
{ "type": "Feature", "properties": {"Name":"Marshall city","State":"Missouri","State_Abbrev":"MO"},
"geometry":{ "type": "Point", "coordinates": [-93.202469,39.115093]}},
{ "type": "Feature", "properties": {"Name":"Marshfield city","State":"Missouri","State_Abbrev":"MO"},
"geometry":{ "type": "Point", "coordinates": [-92.911043,37.342202]}},
{ "type": "Feature", "properties": {"Name":"Marston city","State":"Missouri","State_Abbrev":"MO"},
"geometry":{ "type": "Point", "coordinates": [-89.605831,36.517177]}},
{ "type": "Feature", "properties": {"Name":"Marthasville city","State":"Missouri","State_Abbrev":"MO"},
"geometry":{ "type": "Point", "coordinates": [-91.05805,38.630916]}},
{ "type": "Feature", "properties": {"Name":"Martinsburg town","State":"Missouri","State_Abbrev":"MO"},
"geometry":{ "type": "Point", "coordinates": [-91.647272,39.100999]}},
{ "type": "Feature", "properties": {"Name":"Maryland Heights city","State":"Missouri","State_Abbrev":"MO"},
"geometry":{ "type": "Point", "coordinates": [-90.471843,38.716774]}},
{ "type": "Feature", "properties": {"Name":"Maryville city","State":"Missouri","State_Abbrev":"MO"},
"geometry":{ "type": "Point", "coordinates": [-94.870048,40.342515]}},
{ "type": "Feature", "properties": {"Name":"Matthews city","State":"Missouri","State_Abbrev":"MO"},
"geometry":{ "type": "Point", "coordinates": [-89.567477,36.7568]}},
{ "type": "Feature", "properties": {"Name":"Maysville city","State":"Missouri","State_Abbrev":"MO"},
"geometry":{ "type": "Point", "coordinates": [-94.368991,39.885628]}},
{ "type": "Feature", "properties": {"Name":"Mayview city","State":"Missouri","State_Abbrev":"MO"},
"geometry":{ "type": "Point", "coordinates": [-93.833297,39.052766]}},
{ "type": "Feature", "properties": {"Name":"Meadville city","State":"Missouri","State_Abbrev":"MO"},
"geometry":{ "type": "Point", "coordinates": [-93.298072,39.787177]}},
{ "type": "Feature", "properties": {"Name":"Medill CDP","State":"Missouri","State_Abbrev":"MO"},
"geometry":{ "type": "Point", "coordinates": [-91.770386,40.430448]}},
{ "type": "Feature", "properties": {"Name":"Mehlville CDP","State":"Missouri","State_Abbrev":"MO"},
"geometry":{ "type": "Point", "coordinates": [-90.31445,38.502315]}},
{ "type": "Feature", "properties": {"Name":"Memphis city","State":"Missouri","State_Abbrev":"MO"},
"geometry":{ "type": "Point", "coordinates": [-92.169929,40.460798]}},
{ "type": "Feature", "properties": {"Name":"Mendon city","State":"Missouri","State_Abbrev":"MO"},
"geometry":{ "type": "Point", "coordinates": [-93.133926,39.590583]}},
{ "type": "Feature", "properties": {"Name":"Mercer town","State":"Missouri","State_Abbrev":"MO"},
"geometry":{ "type": "Point", "coordinates": [-93.529909,40.510635]}},
{ "type": "Feature", "properties": {"Name":"Merriam Woods city","State":"Missouri","State_Abbrev":"MO"},
"geometry":{ "type": "Point", "coordinates": [-93.172877,36.721515]}},
{ "type": "Feature", "properties": {"Name":"Merwin village","State":"Missouri","State_Abbrev":"MO"},
"geometry":{ "type": "Point", "coordinates": [-94.590797,38.404093]}},
{ "type": "Feature", "properties": {"Name":"Meta city","State":"Missouri","State_Abbrev":"MO"},
"geometry":{ "type": "Point", "coordinates": [-92.165626,38.312259]}},
{ "type": "Feature", "properties": {"Name":"Metz town","State":"Missouri","State_Abbrev":"MO"},
"geometry":{ "type": "Point", "coordinates": [-94.442531,37.99678]}},
{ "type": "Feature", "properties": {"Name":"Mexico city","State":"Missouri","State_Abbrev":"MO"},
"geometry":{ "type": "Point", "coordinates": [-91.87277,39.162169]}},
{ "type": "Feature", "properties": {"Name":"Miami city","State":"Missouri","State_Abbrev":"MO"},
"geometry":{ "type": "Point", "coordinates": [-93.225907,39.322473]}},
{ "type": "Feature", "properties": {"Name":"Middle Grove CDP","State":"Missouri","State_Abbrev":"MO"},
"geometry":{ "type": "Point", "coordinates": [-92.275664,39.397321]}},
{ "type": "Feature", "properties": {"Name":"Middletown town","State":"Missouri","State_Abbrev":"MO"},
"geometry":{ "type": "Point", "coordinates": [-91.413846,39.128655]}},
{ "type": "Feature", "properties": {"Name":"Milan city","State":"Missouri","State_Abbrev":"MO"},
"geometry":{ "type": "Point", "coordinates": [-93.124004,40.203239]}},
{ "type": "Feature", "properties": {"Name":"Milford village","State":"Missouri","State_Abbrev":"MO"},
"geometry":{ "type": "Point", "coordinates": [-94.158167,37.586264]}},
{ "type": "Feature", "properties": {"Name":"Millard village","State":"Missouri","State_Abbrev":"MO"},
"geometry":{ "type": "Point", "coordinates": [-92.545962,40.10749]}},
{ "type": "Feature", "properties": {"Name":"Miller city","State":"Missouri","State_Abbrev":"MO"},
"geometry":{ "type": "Point", "coordinates": [-93.840972,37.215137]}},
{ "type": "Feature", "properties": {"Name":"Millersville CDP","State":"Missouri","State_Abbrev":"MO"},
"geometry":{ "type": "Point", "coordinates": [-89.790699,37.429424]}},
{ "type": "Feature", "properties": {"Name":"Mill Spring village","State":"Missouri","State_Abbrev":"MO"},
"geometry":{ "type": "Point", "coordinates": [-90.677861,37.065084]}},
{ "type": "Feature", "properties": {"Name":"Milo village","State":"Missouri","State_Abbrev":"MO"},
"geometry":{ "type": "Point", "coordinates": [-94.305146,37.755412]}},
{ "type": "Feature", "properties": {"Name":"Mindenmines city","State":"Missouri","State_Abbrev":"MO"},
"geometry":{ "type": "Point", "coordinates": [-94.579043,37.478609]}},
{ "type": "Feature", "properties": {"Name":"Mine La Motte CDP","State":"Missouri","State_Abbrev":"MO"},
"geometry":{ "type": "Point", "coordinates": [-90.296494,37.614161]}},
{ "type": "Feature", "properties": {"Name":"Miner city","State":"Missouri","State_Abbrev":"MO"},
"geometry":{ "type": "Point", "coordinates": [-89.535886,36.906857]}},
{ "type": "Feature", "properties": {"Name":"Mineral Point town","State":"Missouri","State_Abbrev":"MO"},
"geometry":{ "type": "Point", "coordinates": [-90.724632,37.945577]}},
{ "type": "Feature", "properties": {"Name":"Miramiguoa Park village","State":"Missouri","State_Abbrev":"MO"},
"geometry":{ "type": "Point", "coordinates": [-91.068683,38.238969]}},
{ "type": "Feature", "properties": {"Name":"Missouri City city","State":"Missouri","State_Abbrev":"MO"},
"geometry":{ "type": "Point", "coordinates": [-94.302692,39.238254]}},
{ "type": "Feature", "properties": {"Name":"Moberly city","State":"Missouri","State_Abbrev":"MO"},
"geometry":{ "type": "Point", "coordinates": [-92.436544,39.418112]}},
{ "type": "Feature", "properties": {"Name":"Mokane city","State":"Missouri","State_Abbrev":"MO"},
"geometry":{ "type": "Point", "coordinates": [-91.872445,38.67444]}},
{ "type": "Feature", "properties": {"Name":"Moline Acres city","State":"Missouri","State_Abbrev":"MO"},
"geometry":{ "type": "Point", "coordinates": [-90.243,38.745612]}},
{ "type": "Feature", "properties": {"Name":"Monett city","State":"Missouri","State_Abbrev":"MO"},
"geometry":{ "type": "Point", "coordinates": [-93.927108,36.92147]}},
{ "type": "Feature", "properties": {"Name":"Monroe City city","State":"Missouri","State_Abbrev":"MO"},
"geometry":{ "type": "Point", "coordinates": [-91.732494,39.65439]}},
{ "type": "Feature", "properties": {"Name":"Montgomery City city","State":"Missouri","State_Abbrev":"MO"},
"geometry":{ "type": "Point", "coordinates": [-91.502572,38.973892]}},
{ "type": "Feature", "properties": {"Name":"Monticello village","State":"Missouri","State_Abbrev":"MO"},
"geometry":{ "type": "Point", "coordinates": [-91.713054,40.118961]}},
{ "type": "Feature", "properties": {"Name":"Montier CDP","State":"Missouri","State_Abbrev":"MO"},
"geometry":{ "type": "Point", "coordinates": [-91.574954,36.981727]}},
{ "type": "Feature", "properties": {"Name":"Montreal CDP","State":"Missouri","State_Abbrev":"MO"},
"geometry":{ "type": "Point", "coordinates": [-92.589534,37.969698]}},
{ "type": "Feature", "properties": {"Name":"Montrose city","State":"Missouri","State_Abbrev":"MO"},
"geometry":{ "type": "Point", "coordinates": [-93.982434,38.258645]}},
{ "type": "Feature", "properties": {"Name":"Mooresville village","State":"Missouri","State_Abbrev":"MO"},
"geometry":{ "type": "Point", "coordinates": [-93.720906,39.74666]}},
{ "type": "Feature", "properties": {"Name":"Morehouse city","State":"Missouri","State_Abbrev":"MO"},
"geometry":{ "type": "Point", "coordinates": [-89.69095,36.84637]}},
{ "type": "Feature", "properties": {"Name":"Morley city","State":"Missouri","State_Abbrev":"MO"},
"geometry":{ "type": "Point", "coordinates": [-89.612232,37.043325]}},
{ "type": "Feature", "properties": {"Name":"Morrison city","State":"Missouri","State_Abbrev":"MO"},
"geometry":{ "type": "Point", "coordinates": [-91.632484,38.67005]}},
{ "type": "Feature", "properties": {"Name":"Morrisville town","State":"Missouri","State_Abbrev":"MO"},
"geometry":{ "type": "Point", "coordinates": [-93.430425,37.478637]}},
{ "type": "Feature", "properties": {"Name":"Mosby city","State":"Missouri","State_Abbrev":"MO"},
"geometry":{ "type": "Point", "coordinates": [-94.307145,39.31562]}},
{ "type": "Feature", "properties": {"Name":"Moscow Mills city","State":"Missouri","State_Abbrev":"MO"},
"geometry":{ "type": "Point", "coordinates": [-90.924705,38.943519]}},
{ "type": "Feature", "properties": {"Name":"Mound City city","State":"Missouri","State_Abbrev":"MO"},
"geometry":{ "type": "Point", "coordinates": [-95.233739,40.136503]}},
{ "type": "Feature", "properties": {"Name":"Moundville town","State":"Missouri","State_Abbrev":"MO"},
"geometry":{ "type": "Point", "coordinates": [-94.450947,37.764683]}},
{ "type": "Feature", "properties": {"Name":"Mountain Grove city","State":"Missouri","State_Abbrev":"MO"},
"geometry":{ "type": "Point", "coordinates": [-92.266291,37.134222]}},
{ "type": "Feature", "properties": {"Name":"Mountain View city","State":"Missouri","State_Abbrev":"MO"},
"geometry":{ "type": "Point", "coordinates": [-91.701916,36.993608]}},
{ "type": "Feature", "properties": {"Name":"Mount Leonard town","State":"Missouri","State_Abbrev":"MO"},
"geometry":{ "type": "Point", "coordinates": [-93.394515,39.125446]}},
{ "type": "Feature", "properties": {"Name":"Mount Moriah town","State":"Missouri","State_Abbrev":"MO"},
"geometry":{ "type": "Point", "coordinates": [-93.797065,40.329255]}},
{ "type": "Feature", "properties": {"Name":"Mount Vernon city","State":"Missouri","State_Abbrev":"MO"},
"geometry":{ "type": "Point", "coordinates": [-93.818664,37.104825]}},
{ "type": "Feature", "properties": {"Name":"Murphy CDP","State":"Missouri","State_Abbrev":"MO"},
"geometry":{ "type": "Point", "coordinates": [-90.485917,38.492069]}},
{ "type": "Feature", "properties": {"Name":"Napoleon city","State":"Missouri","State_Abbrev":"MO"},
"geometry":{ "type": "Point", "coordinates": [-94.088787,39.128467]}},
{ "type": "Feature", "properties": {"Name":"Naylor city","State":"Missouri","State_Abbrev":"MO"},
"geometry":{ "type": "Point", "coordinates": [-90.605575,36.574469]}},
{ "type": "Feature", "properties": {"Name":"Neck City city","State":"Missouri","State_Abbrev":"MO"},
"geometry":{ "type": "Point", "coordinates": [-94.444881,37.254904]}},
{ "type": "Feature", "properties": {"Name":"Neelyville city","State":"Missouri","State_Abbrev":"MO"},
"geometry":{ "type": "Point", "coordinates": [-90.513676,36.556292]}},
{ "type": "Feature", "properties": {"Name":"Nelson city","State":"Missouri","State_Abbrev":"MO"},
"geometry":{ "type": "Point", "coordinates": [-93.030832,38.994544]}},
{ "type": "Feature", "properties": {"Name":"Neosho city","State":"Missouri","State_Abbrev":"MO"},
"geometry":{ "type": "Point", "coordinates": [-94.397739,36.847508]}},
{ "type": "Feature", "properties": {"Name":"Nevada city","State":"Missouri","State_Abbrev":"MO"},
"geometry":{ "type": "Point", "coordinates": [-94.350321,37.844908]}},
{ "type": "Feature", "properties": {"Name":"Newark village","State":"Missouri","State_Abbrev":"MO"},
"geometry":{ "type": "Point", "coordinates": [-91.973588,39.994402]}},
{ "type": "Feature", "properties": {"Name":"New Bloomfield city","State":"Missouri","State_Abbrev":"MO"},
"geometry":{ "type": "Point", "coordinates": [-92.091658,38.717172]}},
{ "type": "Feature", "properties": {"Name":"Newburg city","State":"Missouri","State_Abbrev":"MO"},
"geometry":{ "type": "Point", "coordinates": [-91.900374,37.915584]}},
{ "type": "Feature", "properties": {"Name":"New Cambria city","State":"Missouri","State_Abbrev":"MO"},
"geometry":{ "type": "Point", "coordinates": [-92.751273,39.776679]}},
{ "type": "Feature", "properties": {"Name":"New Florence city","State":"Missouri","State_Abbrev":"MO"},
"geometry":{ "type": "Point", "coordinates": [-91.454789,38.908466]}},
{ "type": "Feature", "properties": {"Name":"New Franklin city","State":"Missouri","State_Abbrev":"MO"},
"geometry":{ "type": "Point", "coordinates": [-92.744841,39.014819]}},
{ "type": "Feature", "properties": {"Name":"New Hamburg CDP","State":"Missouri","State_Abbrev":"MO"},
"geometry":{ "type": "Point", "coordinates": [-89.598308,37.131975]}},
{ "type": "Feature", "properties": {"Name":"New Hampton city","State":"Missouri","State_Abbrev":"MO"},
"geometry":{ "type": "Point", "coordinates": [-94.195089,40.264766]}},
{ "type": "Feature", "properties": {"Name":"New Haven city","State":"Missouri","State_Abbrev":"MO"},
"geometry":{ "type": "Point", "coordinates": [-91.217775,38.605006]}},
{ "type": "Feature", "properties": {"Name":"New London city","State":"Missouri","State_Abbrev":"MO"},
"geometry":{ "type": "Point", "coordinates": [-91.398899,39.584202]}},
{ "type": "Feature", "properties": {"Name":"New Madrid city","State":"Missouri","State_Abbrev":"MO"},
"geometry":{ "type": "Point", "coordinates": [-89.551222,36.586409]}},
{ "type": "Feature", "properties": {"Name":"New Market CDP","State":"Missouri","State_Abbrev":"MO"},
"geometry":{ "type": "Point", "coordinates": [-94.799424,39.501843]}},
{ "type": "Feature", "properties": {"Name":"New Melle city","State":"Missouri","State_Abbrev":"MO"},
"geometry":{ "type": "Point", "coordinates": [-90.882216,38.718899]}},
{ "type": "Feature", "properties": {"Name":"Newtonia town","State":"Missouri","State_Abbrev":"MO"},
"geometry":{ "type": "Point", "coordinates": [-94.183683,36.879345]}},
{ "type": "Feature", "properties": {"Name":"Newtown town","State":"Missouri","State_Abbrev":"MO"},
"geometry":{ "type": "Point", "coordinates": [-93.332445,40.374636]}},
{ "type": "Feature", "properties": {"Name":"New Wells CDP","State":"Missouri","State_Abbrev":"MO"},
"geometry":{ "type": "Point", "coordinates": [-89.624497,37.553987]}},
{ "type": "Feature", "properties": {"Name":"Niangua city","State":"Missouri","State_Abbrev":"MO"},
"geometry":{ "type": "Point", "coordinates": [-92.830136,37.388909]}},
{ "type": "Feature", "properties": {"Name":"Nixa city","State":"Missouri","State_Abbrev":"MO"},
"geometry":{ "type": "Point", "coordinates": [-93.295914,37.045093]}},
{ "type": "Feature", "properties": {"Name":"Noel city","State":"Missouri","State_Abbrev":"MO"},
"geometry":{ "type": "Point", "coordinates": [-94.489462,36.541176]}},
{ "type": "Feature", "properties": {"Name":"Norborne city","State":"Missouri","State_Abbrev":"MO"},
"geometry":{ "type": "Point", "coordinates": [-93.675967,39.302423]}},
{ "type": "Feature", "properties": {"Name":"Normandy city","State":"Missouri","State_Abbrev":"MO"},
"geometry":{ "type": "Point", "coordinates": [-90.300903,38.707106]}},
{ "type": "Feature", "properties": {"Name":"North Kansas City city","State":"Missouri","State_Abbrev":"MO"},
"geometry":{ "type": "Point", "coordinates": [-94.56475,39.139558]}},
{ "type": "Feature", "properties": {"Name":"North Lilbourn village","State":"Missouri","State_Abbrev":"MO"},
"geometry":{ "type": "Point", "coordinates": [-89.621989,36.601814]}},
{ "type": "Feature", "properties": {"Name":"Northmoor city","State":"Missouri","State_Abbrev":"MO"},
"geometry":{ "type": "Point", "coordinates": [-94.605484,39.184467]}},
{ "type": "Feature", "properties": {"Name":"Northwoods city","State":"Missouri","State_Abbrev":"MO"},
"geometry":{ "type": "Point", "coordinates": [-90.282378,38.703538]}},
{ "type": "Feature", "properties": {"Name":"Norwood city","State":"Missouri","State_Abbrev":"MO"},
"geometry":{ "type": "Point", "coordinates": [-92.418931,37.107192]}},
{ "type": "Feature", "properties": {"Name":"Norwood Court town","State":"Missouri","State_Abbrev":"MO"},
"geometry":{ "type": "Point", "coordinates": [-90.289488,38.714112]}},
{ "type": "Feature", "properties": {"Name":"Novelty village","State":"Missouri","State_Abbrev":"MO"},
"geometry":{ "type": "Point", "coordinates": [-92.20716,40.012462]}},
{ "type": "Feature", "properties": {"Name":"Novinger city","State":"Missouri","State_Abbrev":"MO"},
"geometry":{ "type": "Point", "coordinates": [-92.706968,40.234435]}},
{ "type": "Feature", "properties": {"Name":"Oak Grove city","State":"Missouri","State_Abbrev":"MO"},
"geometry":{ "type": "Point", "coordinates": [-94.128441,39.007033]}},
{ "type": "Feature", "properties": {"Name":"Oak Grove Village village","State":"Missouri","State_Abbrev":"MO"},
"geometry":{ "type": "Point", "coordinates": [-91.149523,38.227724]}},
{ "type": "Feature", "properties": {"Name":"Oakland city","State":"Missouri","State_Abbrev":"MO"},
"geometry":{ "type": "Point", "coordinates": [-90.384921,38.576835]}},
{ "type": "Feature", "properties": {"Name":"Oak Ridge town","State":"Missouri","State_Abbrev":"MO"},
"geometry":{ "type": "Point", "coordinates": [-89.729875,37.498739]}},
{ "type": "Feature", "properties": {"Name":"Oaks village","State":"Missouri","State_Abbrev":"MO"},
"geometry":{ "type": "Point", "coordinates": [-94.571971,39.197007]}},
{ "type": "Feature", "properties": {"Name":"Oakview village","State":"Missouri","State_Abbrev":"MO"},
"geometry":{ "type": "Point", "coordinates": [-94.57041,39.208549]}},
{ "type": "Feature", "properties": {"Name":"Oakville CDP","State":"Missouri","State_Abbrev":"MO"},
"geometry":{ "type": "Point", "coordinates": [-90.318436,38.449754]}},
{ "type": "Feature", "properties": {"Name":"Oakwood village","State":"Missouri","State_Abbrev":"MO"},
"geometry":{ "type": "Point", "coordinates": [-94.570504,39.20049]}},
{ "type": "Feature", "properties": {"Name":"Oakwood Park village","State":"Missouri","State_Abbrev":"MO"},
"geometry":{ "type": "Point", "coordinates": [-94.573835,39.204717]}},
{ "type": "Feature", "properties": {"Name":"Odessa city","State":"Missouri","State_Abbrev":"MO"},
"geometry":{ "type": "Point", "coordinates": [-93.966404,38.999397]}},
{ "type": "Feature", "properties": {"Name":"O'Fallon city","State":"Missouri","State_Abbrev":"MO"},
"geometry":{ "type": "Point", "coordinates": [-90.720738,38.784674]}},
{ "type": "Feature", "properties": {"Name":"Old Appleton town","State":"Missouri","State_Abbrev":"MO"},
"geometry":{ "type": "Point", "coordinates": [-89.710705,37.593907]}},
{ "type": "Feature", "properties": {"Name":"Old Jamestown CDP","State":"Missouri","State_Abbrev":"MO"},
"geometry":{ "type": "Point", "coordinates": [-90.285107,38.834931]}},
{ "type": "Feature", "properties": {"Name":"Old Monroe city","State":"Missouri","State_Abbrev":"MO"},
"geometry":{ "type": "Point", "coordinates": [-90.749088,38.934162]}},
{ "type": "Feature", "properties": {"Name":"Olean town","State":"Missouri","State_Abbrev":"MO"},
"geometry":{ "type": "Point", "coordinates": [-92.530003,38.410357]}},
{ "type": "Feature", "properties": {"Name":"Olivette city","State":"Missouri","State_Abbrev":"MO"},
"geometry":{ "type": "Point", "coordinates": [-90.378582,38.672373]}},
{ "type": "Feature", "properties": {"Name":"Olympian Village city","State":"Missouri","State_Abbrev":"MO"},
"geometry":{ "type": "Point", "coordinates": [-90.458174,38.134778]}},
{ "type": "Feature", "properties": {"Name":"Oran city","State":"Missouri","State_Abbrev":"MO"},
"geometry":{ "type": "Point", "coordinates": [-89.653372,37.085484]}},
{ "type": "Feature", "properties": {"Name":"Oregon city","State":"Missouri","State_Abbrev":"MO"},
"geometry":{ "type": "Point", "coordinates": [-95.143302,39.986092]}},
{ "type": "Feature", "properties": {"Name":"Oronogo city","State":"Missouri","State_Abbrev":"MO"},
"geometry":{ "type": "Point", "coordinates": [-94.463867,37.191743]}},
{ "type": "Feature", "properties": {"Name":"Orrick city","State":"Missouri","State_Abbrev":"MO"},
"geometry":{ "type": "Point", "coordinates": [-94.1254,39.213291]}},
{ "type": "Feature", "properties": {"Name":"Osage Beach city","State":"Missouri","State_Abbrev":"MO"},
"geometry":{ "type": "Point", "coordinates": [-92.64703,38.136219]}},
{ "type": "Feature", "properties": {"Name":"Osborn city","State":"Missouri","State_Abbrev":"MO"},
"geometry":{ "type": "Point", "coordinates": [-94.356902,39.749851]}},
{ "type": "Feature", "properties": {"Name":"Osceola city","State":"Missouri","State_Abbrev":"MO"},
"geometry":{ "type": "Point", "coordinates": [-93.694081,38.045962]}},
{ "type": "Feature", "properties": {"Name":"Osgood village","State":"Missouri","State_Abbrev":"MO"},
"geometry":{ "type": "Point", "coordinates": [-93.350531,40.197328]}},
{ "type": "Feature", "properties": {"Name":"Otterville city","State":"Missouri","State_Abbrev":"MO"},
"geometry":{ "type": "Point", "coordinates": [-93.002769,38.702925]}},
{ "type": "Feature", "properties": {"Name":"Overland city","State":"Missouri","State_Abbrev":"MO"},
"geometry":{ "type": "Point", "coordinates": [-90.368346,38.695945]}},
{ "type": "Feature", "properties": {"Name":"Owensville city","State":"Missouri","State_Abbrev":"MO"},
"geometry":{ "type": "Point", "coordinates": [-91.497361,38.348438]}},
{ "type": "Feature", "properties": {"Name":"Oxly CDP","State":"Missouri","State_Abbrev":"MO"},
"geometry":{ "type": "Point", "coordinates": [-90.678992,36.602532]}},
{ "type": "Feature", "properties": {"Name":"Ozark city","State":"Missouri","State_Abbrev":"MO"},
"geometry":{ "type": "Point", "coordinates": [-93.218044,37.0336]}},
{ "type": "Feature", "properties": {"Name":"Ozora CDP","State":"Missouri","State_Abbrev":"MO"},
"geometry":{ "type": "Point", "coordinates": [-90.050476,37.8627]}},
{ "type": "Feature", "properties": {"Name":"Pacific city","State":"Missouri","State_Abbrev":"MO"},
"geometry":{ "type": "Point", "coordinates": [-90.75069,38.481401]}},
{ "type": "Feature", "properties": {"Name":"Pagedale city","State":"Missouri","State_Abbrev":"MO"},
"geometry":{ "type": "Point", "coordinates": [-90.308095,38.680175]}},
{ "type": "Feature", "properties": {"Name":"Palmyra city","State":"Missouri","State_Abbrev":"MO"},
"geometry":{ "type": "Point", "coordinates": [-91.526515,39.79778]}},
{ "type": "Feature", "properties": {"Name":"Paradise CDP","State":"Missouri","State_Abbrev":"MO"},
"geometry":{ "type": "Point", "coordinates": [-94.512796,39.42886]}},
{ "type": "Feature", "properties": {"Name":"Paris city","State":"Missouri","State_Abbrev":"MO"},
"geometry":{ "type": "Point", "coordinates": [-92.008452,39.473001]}},
{ "type": "Feature", "properties": {"Name":"Parkdale village","State":"Missouri","State_Abbrev":"MO"},
"geometry":{ "type": "Point", "coordinates": [-90.527113,38.480991]}},
{ "type": "Feature", "properties": {"Name":"Park Hills city","State":"Missouri","State_Abbrev":"MO"},
"geometry":{ "type": "Point", "coordinates": [-90.499893,37.816979]}},
{ "type": "Feature", "properties": {"Name":"Parkville city","State":"Missouri","State_Abbrev":"MO"},
"geometry":{ "type": "Point", "coordinates": [-94.70434,39.214445]}},
{ "type": "Feature", "properties": {"Name":"Parkway village","State":"Missouri","State_Abbrev":"MO"},
"geometry":{ "type": "Point", "coordinates": [-90.971131,38.33604]}},
{ "type": "Feature", "properties": {"Name":"Parma city","State":"Missouri","State_Abbrev":"MO"},
"geometry":{ "type": "Point", "coordinates": [-89.818126,36.611053]}},
{ "type": "Feature", "properties": {"Name":"Parnell city","State":"Missouri","State_Abbrev":"MO"},
"geometry":{ "type": "Point", "coordinates": [-94.622271,40.438417]}},
{ "type": "Feature", "properties": {"Name":"Pasadena Hills city","State":"Missouri","State_Abbrev":"MO"},
"geometry":{ "type": "Point", "coordinates": [-90.292139,38.70829]}},
{ "type": "Feature", "properties": {"Name":"Pasadena Park village","State":"Missouri","State_Abbrev":"MO"},
"geometry":{ "type": "Point", "coordinates": [-90.297433,38.710978]}},
{ "type": "Feature", "properties": {"Name":"Pascola village","State":"Missouri","State_Abbrev":"MO"},
"geometry":{ "type": "Point", "coordinates": [-89.825805,36.267263]}},
{ "type": "Feature", "properties": {"Name":"Passaic town","State":"Missouri","State_Abbrev":"MO"},
"geometry":{ "type": "Point", "coordinates": [-94.348985,38.321631]}},
{ "type": "Feature", "properties": {"Name":"Pattonsburg city","State":"Missouri","State_Abbrev":"MO"},
"geometry":{ "type": "Point", "coordinates": [-94.10881,40.068764]}},
{ "type": "Feature", "properties": {"Name":"Paynesville village","State":"Missouri","State_Abbrev":"MO"},
"geometry":{ "type": "Point", "coordinates": [-90.900295,39.262477]}},
{ "type": "Feature", "properties": {"Name":"Peaceful Village village","State":"Missouri","State_Abbrev":"MO"},
"geometry":{ "type": "Point", "coordinates": [-90.542796,38.466959]}},
{ "type": "Feature", "properties": {"Name":"Peculiar city","State":"Missouri","State_Abbrev":"MO"},
"geometry":{ "type": "Point", "coordinates": [-94.468597,38.730826]}},
{ "type": "Feature", "properties": {"Name":"Pendleton village","State":"Missouri","State_Abbrev":"MO"},
"geometry":{ "type": "Point", "coordinates": [-91.229488,38.834894]}},
{ "type": "Feature", "properties": {"Name":"Penermon village","State":"Missouri","State_Abbrev":"MO"},
"geometry":{ "type": "Point", "coordinates": [-89.830082,36.790958]}},
{ "type": "Feature", "properties": {"Name":"Perkins CDP","State":"Missouri","State_Abbrev":"MO"},
"geometry":{ "type": "Point", "coordinates": [-89.774723,37.09425]}},
{ "type": "Feature", "properties": {"Name":"Perry city","State":"Missouri","State_Abbrev":"MO"},
"geometry":{ "type": "Point", "coordinates": [-91.662343,39.433605]}},
{ "type": "Feature", "properties": {"Name":"Perryville city","State":"Missouri","State_Abbrev":"MO"},
"geometry":{ "type": "Point", "coordinates": [-89.876493,37.72633]}},
{ "type": "Feature", "properties": {"Name":"Pevely city","State":"Missouri","State_Abbrev":"MO"},
"geometry":{ "type": "Point", "coordinates": [-90.399088,38.287368]}},
{ "type": "Feature", "properties": {"Name":"Phelps City CDP","State":"Missouri","State_Abbrev":"MO"},
"geometry":{ "type": "Point", "coordinates": [-95.594955,40.400635]}},
{ "type": "Feature", "properties": {"Name":"Philadelphia CDP","State":"Missouri","State_Abbrev":"MO"},
"geometry":{ "type": "Point", "coordinates": [-91.741179,39.835051]}},
{ "type": "Feature", "properties": {"Name":"Phillipsburg village","State":"Missouri","State_Abbrev":"MO"},
"geometry":{ "type": "Point", "coordinates": [-92.789458,37.552588]}},
{ "type": "Feature", "properties": {"Name":"Pickering city","State":"Missouri","State_Abbrev":"MO"},
"geometry":{ "type": "Point", "coordinates": [-94.841933,40.450252]}},
{ "type": "Feature", "properties": {"Name":"Piedmont city","State":"Missouri","State_Abbrev":"MO"},
"geometry":{ "type": "Point", "coordinates": [-90.695747,37.150372]}},
{ "type": "Feature", "properties": {"Name":"Pierce City city","State":"Missouri","State_Abbrev":"MO"},
"geometry":{ "type": "Point", "coordinates": [-94.003511,36.946883]}},
{ "type": "Feature", "properties": {"Name":"Pierpont village","State":"Missouri","State_Abbrev":"MO"},
"geometry":{ "type": "Point", "coordinates": [-92.312991,38.863179]}},
{ "type": "Feature", "properties": {"Name":"Pilot Grove city","State":"Missouri","State_Abbrev":"MO"},
"geometry":{ "type": "Point", "coordinates": [-92.912608,38.873621]}},
{ "type": "Feature", "properties": {"Name":"Pilot Knob city","State":"Missouri","State_Abbrev":"MO"},
"geometry":{ "type": "Point", "coordinates": [-90.644795,37.6229]}},
{ "type": "Feature", "properties": {"Name":"Pine Lawn city","State":"Missouri","State_Abbrev":"MO"},
"geometry":{ "type": "Point", "coordinates": [-90.275629,38.695274]}},
{ "type": "Feature", "properties": {"Name":"Pineville city","State":"Missouri","State_Abbrev":"MO"},
"geometry":{ "type": "Point", "coordinates": [-94.391543,36.575504]}},
{ "type": "Feature", "properties": {"Name":"Pinhook village","State":"Missouri","State_Abbrev":"MO"},
"geometry":{ "type": "Point", "coordinates": [-89.26948,36.73804]}},
{ "type": "Feature", "properties": {"Name":"Plato village","State":"Missouri","State_Abbrev":"MO"},
"geometry":{ "type": "Point", "coordinates": [-92.218398,37.50163]}},
{ "type": "Feature", "properties": {"Name":"Platte City city","State":"Missouri","State_Abbrev":"MO"},
"geometry":{ "type": "Point", "coordinates": [-94.756317,39.359733]}},
{ "type": "Feature", "properties": {"Name":"Platte Woods city","State":"Missouri","State_Abbrev":"MO"},
"geometry":{ "type": "Point", "coordinates": [-94.652121,39.228892]}},
{ "type": "Feature", "properties": {"Name":"Plattsburg city","State":"Missouri","State_Abbrev":"MO"},
"geometry":{ "type": "Point", "coordinates": [-94.463355,39.554166]}},
{ "type": "Feature", "properties": {"Name":"Pleasant Hill city","State":"Missouri","State_Abbrev":"MO"},
"geometry":{ "type": "Point", "coordinates": [-94.272283,38.805966]}},
{ "type": "Feature", "properties": {"Name":"Pleasant Hope city","State":"Missouri","State_Abbrev":"MO"},
"geometry":{ "type": "Point", "coordinates": [-93.275796,37.466086]}},
{ "type": "Feature", "properties": {"Name":"Pleasant Valley city","State":"Missouri","State_Abbrev":"MO"},
"geometry":{ "type": "Point", "coordinates": [-94.48094,39.217175]}},
{ "type": "Feature", "properties": {"Name":"Plevna CDP","State":"Missouri","State_Abbrev":"MO"},
"geometry":{ "type": "Point", "coordinates": [-92.083595,39.980885]}},
{ "type": "Feature", "properties": {"Name":"Pocahontas town","State":"Missouri","State_Abbrev":"MO"},
"geometry":{ "type": "Point", "coordinates": [-89.639849,37.50161]}},
{ "type": "Feature", "properties": {"Name":"Pollock village","State":"Missouri","State_Abbrev":"MO"},
"geometry":{ "type": "Point", "coordinates": [-93.08373,40.358357]}},
{ "type": "Feature", "properties": {"Name":"Polo city","State":"Missouri","State_Abbrev":"MO"},
"geometry":{ "type": "Point", "coordinates": [-94.035984,39.551711]}},
{ "type": "Feature", "properties": {"Name":"Pomona CDP","State":"Missouri","State_Abbrev":"MO"},
"geometry":{ "type": "Point", "coordinates": [-91.913323,36.868269]}},
{ "type": "Feature", "properties": {"Name":"Pontiac CDP","State":"Missouri","State_Abbrev":"MO"},
"geometry":{ "type": "Point", "coordinates": [-92.605131,36.520049]}},
{ "type": "Feature", "properties": {"Name":"Poplar Bluff city","State":"Missouri","State_Abbrev":"MO"},
"geometry":{ "type": "Point", "coordinates": [-90.413953,36.763259]}},
{ "type": "Feature", "properties": {"Name":"Portage Des Sioux city","State":"Missouri","State_Abbrev":"MO"},
"geometry":{ "type": "Point", "coordinates": [-90.34067,38.92997]}},
{ "type": "Feature", "properties": {"Name":"Portageville city","State":"Missouri","State_Abbrev":"MO"},
"geometry":{ "type": "Point", "coordinates": [-89.699336,36.429467]}},
{ "type": "Feature", "properties": {"Name":"Potosi city","State":"Missouri","State_Abbrev":"MO"},
"geometry":{ "type": "Point", "coordinates": [-90.775033,37.933739]}},
{ "type": "Feature", "properties": {"Name":"Powersville village","State":"Missouri","State_Abbrev":"MO"},
"geometry":{ "type": "Point", "coordinates": [-93.299658,40.549811]}},
{ "type": "Feature", "properties": {"Name":"Prairie Hill CDP","State":"Missouri","State_Abbrev":"MO"},
"geometry":{ "type": "Point", "coordinates": [-92.736229,39.520808]}},
{ "type": "Feature", "properties": {"Name":"Prairie Home city","State":"Missouri","State_Abbrev":"MO"},
"geometry":{ "type": "Point", "coordinates": [-92.59061,38.813596]}},
{ "type": "Feature", "properties": {"Name":"Prathersville village","State":"Missouri","State_Abbrev":"MO"},
"geometry":{ "type": "Point", "coordinates": [-94.273806,39.315312]}},
{ "type": "Feature", "properties": {"Name":"Preston village","State":"Missouri","State_Abbrev":"MO"},
"geometry":{ "type": "Point", "coordinates": [-93.212707,37.940963]}},
{ "type": "Feature", "properties": {"Name":"Princeton city","State":"Missouri","State_Abbrev":"MO"},
"geometry":{ "type": "Point", "coordinates": [-93.58877,40.396332]}},
{ "type": "Feature", "properties": {"Name":"Purcell city","State":"Missouri","State_Abbrev":"MO"},
"geometry":{ "type": "Point", "coordinates": [-94.439445,37.243297]}},
{ "type": "Feature", "properties": {"Name":"Purdin city","State":"Missouri","State_Abbrev":"MO"},
"geometry":{ "type": "Point", "coordinates": [-93.164536,39.95018]}},
{ "type": "Feature", "properties": {"Name":"Purdy city","State":"Missouri","State_Abbrev":"MO"},
"geometry":{ "type": "Point", "coordinates": [-93.920574,36.818772]}},
{ "type": "Feature", "properties": {"Name":"Puxico city","State":"Missouri","State_Abbrev":"MO"},
"geometry":{ "type": "Point", "coordinates": [-90.158831,36.950544]}},
{ "type": "Feature", "properties": {"Name":"Queen City city","State":"Missouri","State_Abbrev":"MO"},
"geometry":{ "type": "Point", "coordinates": [-92.566678,40.411775]}},
{ "type": "Feature", "properties": {"Name":"Quitman CDP","State":"Missouri","State_Abbrev":"MO"},
"geometry":{ "type": "Point", "coordinates": [-95.076957,40.373304]}},
{ "type": "Feature", "properties": {"Name":"Qulin city","State":"Missouri","State_Abbrev":"MO"},
"geometry":{ "type": "Point", "coordinates": [-90.246295,36.595255]}},
{ "type": "Feature", "properties": {"Name":"Raintree Plantation CDP","State":"Missouri","State_Abbrev":"MO"},
"geometry":{ "type": "Point", "coordinates": [-90.602567,38.254778]}},
{ "type": "Feature", "properties": {"Name":"Randolph village","State":"Missouri","State_Abbrev":"MO"},
"geometry":{ "type": "Point", "coordinates": [-94.493125,39.156068]}},
{ "type": "Feature", "properties": {"Name":"Ravanna CDP","State":"Missouri","State_Abbrev":"MO"},
"geometry":{ "type": "Point", "coordinates": [-93.45732,40.457777]}},
{ "type": "Feature", "properties": {"Name":"Ravenwood town","State":"Missouri","State_Abbrev":"MO"},
"geometry":{ "type": "Point", "coordinates": [-94.672177,40.352364]}},
{ "type": "Feature", "properties": {"Name":"Raymondville town","State":"Missouri","State_Abbrev":"MO"},
"geometry":{ "type": "Point", "coordinates": [-91.836469,37.339785]}},
{ "type": "Feature", "properties": {"Name":"Raymore city","State":"Missouri","State_Abbrev":"MO"},
"geometry":{ "type": "Point", "coordinates": [-94.45832,38.803303]}},
{ "type": "Feature", "properties": {"Name":"Raytown city","State":"Missouri","State_Abbrev":"MO"},
"geometry":{ "type": "Point", "coordinates": [-94.461511,38.994274]}},
{ "type": "Feature", "properties": {"Name":"Rayville CDP","State":"Missouri","State_Abbrev":"MO"},
"geometry":{ "type": "Point", "coordinates": [-94.064919,39.346328]}},
{ "type": "Feature", "properties": {"Name":"Rea city","State":"Missouri","State_Abbrev":"MO"},
"geometry":{ "type": "Point", "coordinates": [-94.764441,40.060961]}},
{ "type": "Feature", "properties": {"Name":"Redings Mill village","State":"Missouri","State_Abbrev":"MO"},
"geometry":{ "type": "Point", "coordinates": [-94.516546,37.019968]}},
{ "type": "Feature", "properties": {"Name":"Reeds town","State":"Missouri","State_Abbrev":"MO"},
"geometry":{ "type": "Point", "coordinates": [-94.168242,37.11647]}},
{ "type": "Feature", "properties": {"Name":"Reeds Spring city","State":"Missouri","State_Abbrev":"MO"},
"geometry":{ "type": "Point", "coordinates": [-93.380568,36.739264]}},
{ "type": "Feature", "properties": {"Name":"Renick village","State":"Missouri","State_Abbrev":"MO"},
"geometry":{ "type": "Point", "coordinates": [-92.409814,39.343058]}},
{ "type": "Feature", "properties": {"Name":"Rensselaer village","State":"Missouri","State_Abbrev":"MO"},
"geometry":{ "type": "Point", "coordinates": [-91.540363,39.669797]}},
{ "type": "Feature", "properties": {"Name":"Republic city","State":"Missouri","State_Abbrev":"MO"},
"geometry":{ "type": "Point", "coordinates": [-93.413061,37.168552]}},
{ "type": "Feature", "properties": {"Name":"Revere town","State":"Missouri","State_Abbrev":"MO"},
"geometry":{ "type": "Point", "coordinates": [-91.676299,40.49437]}},
{ "type": "Feature", "properties": {"Name":"Rhineland town","State":"Missouri","State_Abbrev":"MO"},
"geometry":{ "type": "Point", "coordinates": [-91.517369,38.72273]}},
{ "type": "Feature", "properties": {"Name":"Richards town","State":"Missouri","State_Abbrev":"MO"},
"geometry":{ "type": "Point", "coordinates": [-94.557493,37.909964]}},
{ "type": "Feature", "properties": {"Name":"Rich Hill city","State":"Missouri","State_Abbrev":"MO"},
"geometry":{ "type": "Point", "coordinates": [-94.363462,38.095871]}},
{ "type": "Feature", "properties": {"Name":"Richland city","State":"Missouri","State_Abbrev":"MO"},
"geometry":{ "type": "Point", "coordinates": [-92.399744,37.861142]}},
{ "type": "Feature", "properties": {"Name":"Richmond city","State":"Missouri","State_Abbrev":"MO"},
"geometry":{ "type": "Point", "coordinates": [-93.972584,39.27545]}},
{ "type": "Feature", "properties": {"Name":"Richmond Heights city","State":"Missouri","State_Abbrev":"MO"},
"geometry":{ "type": "Point", "coordinates": [-90.333203,38.630927]}},
{ "type": "Feature", "properties": {"Name":"Ridgely village","State":"Missouri","State_Abbrev":"MO"},
"geometry":{ "type": "Point", "coordinates": [-94.64034,39.453611]}},
{ "type": "Feature", "properties": {"Name":"Ridgeway city","State":"Missouri","State_Abbrev":"MO"},
"geometry":{ "type": "Point", "coordinates": [-93.937845,40.377823]}},
{ "type": "Feature", "properties": {"Name":"Risco city","State":"Missouri","State_Abbrev":"MO"},
"geometry":{ "type": "Point", "coordinates": [-89.818654,36.551667]}},
{ "type": "Feature", "properties": {"Name":"Ritchey town","State":"Missouri","State_Abbrev":"MO"},
"geometry":{ "type": "Point", "coordinates": [-94.185792,36.944031]}},
{ "type": "Feature", "properties": {"Name":"River Bend village","State":"Missouri","State_Abbrev":"MO"},
"geometry":{ "type": "Point", "coordinates": [-94.388093,39.179102]}},
{ "type": "Feature", "properties": {"Name":"Riverside city","State":"Missouri","State_Abbrev":"MO"},
"geometry":{ "type": "Point", "coordinates": [-94.632499,39.172175]}},
{ "type": "Feature", "properties": {"Name":"Riverview village","State":"Missouri","State_Abbrev":"MO"},
"geometry":{ "type": "Point", "coordinates": [-90.211104,38.744155]}},
{ "type": "Feature", "properties": {"Name":"Riverview Estates village","State":"Missouri","State_Abbrev":"MO"},
"geometry":{ "type": "Point", "coordinates": [-94.524603,38.748856]}},
{ "type": "Feature", "properties": {"Name":"Rives town","State":"Missouri","State_Abbrev":"MO"},
"geometry":{ "type": "Point", "coordinates": [-90.011461,36.094462]}},
{ "type": "Feature", "properties": {"Name":"Rocheport city","State":"Missouri","State_Abbrev":"MO"},
"geometry":{ "type": "Point", "coordinates": [-92.563518,38.978176]}},
{ "type": "Feature", "properties": {"Name":"Rockaway Beach city","State":"Missouri","State_Abbrev":"MO"},
"geometry":{ "type": "Point", "coordinates": [-93.158213,36.702999]}},
{ "type": "Feature", "properties": {"Name":"Rock Hill city","State":"Missouri","State_Abbrev":"MO"},
"geometry":{ "type": "Point", "coordinates": [-90.367299,38.609052]}},
{ "type": "Feature", "properties": {"Name":"Rock Port city","State":"Missouri","State_Abbrev":"MO"},
"geometry":{ "type": "Point", "coordinates": [-95.533087,40.410911]}},
{ "type": "Feature", "properties": {"Name":"Rockville city","State":"Missouri","State_Abbrev":"MO"},
"geometry":{ "type": "Point", "coordinates": [-94.080446,38.072482]}},
{ "type": "Feature", "properties": {"Name":"Rocky Comfort CDP","State":"Missouri","State_Abbrev":"MO"},
"geometry":{ "type": "Point", "coordinates": [-94.090346,36.742366]}},
{ "type": "Feature", "properties": {"Name":"Rogersville city","State":"Missouri","State_Abbrev":"MO"},
"geometry":{ "type": "Point", "coordinates": [-93.074758,37.114833]}},
{ "type": "Feature", "properties": {"Name":"Rolla city","State":"Missouri","State_Abbrev":"MO"},
"geometry":{ "type": "Point", "coordinates": [-91.761202,37.94594]}},
{ "type": "Feature", "properties": {"Name":"Roscoe village","State":"Missouri","State_Abbrev":"MO"},
"geometry":{ "type": "Point", "coordinates": [-93.817473,37.976643]}},
{ "type": "Feature", "properties": {"Name":"Rosebud city","State":"Missouri","State_Abbrev":"MO"},
"geometry":{ "type": "Point", "coordinates": [-91.402961,38.384762]}},
{ "type": "Feature", "properties": {"Name":"Rosendale city","State":"Missouri","State_Abbrev":"MO"},
"geometry":{ "type": "Point", "coordinates": [-94.823239,40.040696]}},
{ "type": "Feature", "properties": {"Name":"Rothville village","State":"Missouri","State_Abbrev":"MO"},
"geometry":{ "type": "Point", "coordinates": [-93.061105,39.654745]}},
{ "type": "Feature", "properties": {"Name":"Rush Hill village","State":"Missouri","State_Abbrev":"MO"},
"geometry":{ "type": "Point", "coordinates": [-91.725162,39.210012]}},
{ "type": "Feature", "properties": {"Name":"Rushville village","State":"Missouri","State_Abbrev":"MO"},
"geometry":{ "type": "Point", "coordinates": [-95.023759,39.587399]}},
{ "type": "Feature", "properties": {"Name":"Russellville city","State":"Missouri","State_Abbrev":"MO"},
"geometry":{ "type": "Point", "coordinates": [-92.438506,38.512762]}},
{ "type": "Feature", "properties": {"Name":"Rutledge town","State":"Missouri","State_Abbrev":"MO"},
"geometry":{ "type": "Point", "coordinates": [-92.087587,40.313983]}},
{ "type": "Feature", "properties": {"Name":"Saddlebrooke village","State":"Missouri","State_Abbrev":"MO"},
"geometry":{ "type": "Point", "coordinates": [-93.203421,36.825602]}},
{ "type": "Feature", "properties": {"Name":"Saginaw village","State":"Missouri","State_Abbrev":"MO"},
"geometry":{ "type": "Point", "coordinates": [-94.475223,37.024373]}},
{ "type": "Feature", "properties": {"Name":"St. Ann city","State":"Missouri","State_Abbrev":"MO"},
"geometry":{ "type": "Point", "coordinates": [-90.387181,38.726613]}},
{ "type": "Feature", "properties": {"Name":"St. Catharine CDP","State":"Missouri","State_Abbrev":"MO"},
"geometry":{ "type": "Point", "coordinates": [-92.99565,39.797769]}},
{ "type": "Feature", "properties": {"Name":"St. Charles city","State":"Missouri","State_Abbrev":"MO"},
"geometry":{ "type": "Point", "coordinates": [-90.515364,38.795702]}},
{ "type": "Feature", "properties": {"Name":"St. Clair city","State":"Missouri","State_Abbrev":"MO"},
"geometry":{ "type": "Point", "coordinates": [-90.993561,38.346595]}},
{ "type": "Feature", "properties": {"Name":"St. Clement CDP","State":"Missouri","State_Abbrev":"MO"},
"geometry":{ "type": "Point", "coordinates": [-91.211843,39.280538]}},
{ "type": "Feature", "properties": {"Name":"St. Cloud village","State":"Missouri","State_Abbrev":"MO"},
"geometry":{ "type": "Point", "coordinates": [-91.212759,38.173189]}},
{ "type": "Feature", "properties": {"Name":"Ste. Genevieve city","State":"Missouri","State_Abbrev":"MO"},
"geometry":{ "type": "Point", "coordinates": [-90.049982,37.975019]}},
{ "type": "Feature", "properties": {"Name":"St. Elizabeth village","State":"Missouri","State_Abbrev":"MO"},
"geometry":{ "type": "Point", "coordinates": [-92.266448,38.256073]}},
{ "type": "Feature", "properties": {"Name":"St. Francisville CDP","State":"Missouri","State_Abbrev":"MO"},
"geometry":{ "type": "Point", "coordinates": [-91.576057,40.442284]}},
{ "type": "Feature", "properties": {"Name":"St. George CDP","State":"Missouri","State_Abbrev":"MO"},
"geometry":{ "type": "Point", "coordinates": [-90.312075,38.537548]}},
{ "type": "Feature", "properties": {"Name":"St. James city","State":"Missouri","State_Abbrev":"MO"},
"geometry":{ "type": "Point", "coordinates": [-91.613372,38.002356]}},
{ "type": "Feature", "properties": {"Name":"St. John city","State":"Missouri","State_Abbrev":"MO"},
"geometry":{ "type": "Point", "coordinates": [-90.346265,38.714758]}},
{ "type": "Feature", "properties": {"Name":"St. Joseph city","State":"Missouri","State_Abbrev":"MO"},
"geometry":{ "type": "Point", "coordinates": [-94.821143,39.75946]}},
{ "type": "Feature", "properties": {"Name":"St. Louis city","State":"Missouri","State_Abbrev":"MO"},
"geometry":{ "type": "Point", "coordinates": [-90.244582,38.635699]}},
{ "type": "Feature", "properties": {"Name":"St. Martins city","State":"Missouri","State_Abbrev":"MO"},
"geometry":{ "type": "Point", "coordinates": [-92.334372,38.598322]}},
{ "type": "Feature", "properties": {"Name":"St. Mary city","State":"Missouri","State_Abbrev":"MO"},
"geometry":{ "type": "Point", "coordinates": [-89.949659,37.873824]}},
{ "type": "Feature", "properties": {"Name":"St. Paul city","State":"Missouri","State_Abbrev":"MO"},
"geometry":{ "type": "Point", "coordinates": [-90.740529,38.848738]}},
{ "type": "Feature", "properties": {"Name":"St. Peters city","State":"Missouri","State_Abbrev":"MO"},
"geometry":{ "type": "Point", "coordinates": [-90.604168,38.781565]}},
{ "type": "Feature", "properties": {"Name":"St. Robert city","State":"Missouri","State_Abbrev":"MO"},
"geometry":{ "type": "Point", "coordinates": [-92.151981,37.825332]}},
{ "type": "Feature", "properties": {"Name":"St. Thomas town","State":"Missouri","State_Abbrev":"MO"},
"geometry":{ "type": "Point", "coordinates": [-92.216002,38.367049]}},
{ "type": "Feature", "properties": {"Name":"Salem city","State":"Missouri","State_Abbrev":"MO"},
"geometry":{ "type": "Point", "coordinates": [-91.53486,37.639568]}},
{ "type": "Feature", "properties": {"Name":"Salisbury city","State":"Missouri","State_Abbrev":"MO"},
"geometry":{ "type": "Point", "coordinates": [-92.802424,39.423327]}},
{ "type": "Feature", "properties": {"Name":"Sappington CDP","State":"Missouri","State_Abbrev":"MO"},
"geometry":{ "type": "Point", "coordinates": [-90.373051,38.526042]}},
{ "type": "Feature", "properties": {"Name":"Sarcoxie city","State":"Missouri","State_Abbrev":"MO"},
"geometry":{ "type": "Point", "coordinates": [-94.125438,37.068541]}},
{ "type": "Feature", "properties": {"Name":"Savannah city","State":"Missouri","State_Abbrev":"MO"},
"geometry":{ "type": "Point", "coordinates": [-94.828049,39.938789]}},
{ "type": "Feature", "properties": {"Name":"Saverton CDP","State":"Missouri","State_Abbrev":"MO"},
"geometry":{ "type": "Point", "coordinates": [-91.269714,39.644221]}},
{ "type": "Feature", "properties": {"Name":"Schell City city","State":"Missouri","State_Abbrev":"MO"},
"geometry":{ "type": "Point", "coordinates": [-94.116772,38.019149]}},
{ "type": "Feature", "properties": {"Name":"Scotsdale town","State":"Missouri","State_Abbrev":"MO"},
"geometry":{ "type": "Point", "coordinates": [-90.589767,38.394601]}},
{ "type": "Feature", "properties": {"Name":"Scott City city","State":"Missouri","State_Abbrev":"MO"},
"geometry":{ "type": "Point", "coordinates": [-89.537647,37.22453]}},
{ "type": "Feature", "properties": {"Name":"Sedalia city","State":"Missouri","State_Abbrev":"MO"},
"geometry":{ "type": "Point", "coordinates": [-93.234498,38.706048]}},
{ "type": "Feature", "properties": {"Name":"Sedgewickville village","State":"Missouri","State_Abbrev":"MO"},
"geometry":{ "type": "Point", "coordinates": [-89.906018,37.514614]}},
{ "type": "Feature", "properties": {"Name":"Seligman city","State":"Missouri","State_Abbrev":"MO"},
"geometry":{ "type": "Point", "coordinates": [-93.938989,36.523399]}},
{ "type": "Feature", "properties": {"Name":"Senath city","State":"Missouri","State_Abbrev":"MO"},
"geometry":{ "type": "Point", "coordinates": [-90.161358,36.134005]}},
{ "type": "Feature", "properties": {"Name":"Seneca city","State":"Missouri","State_Abbrev":"MO"},
"geometry":{ "type": "Point", "coordinates": [-94.609244,36.844515]}},
{ "type": "Feature", "properties": {"Name":"Seymour city","State":"Missouri","State_Abbrev":"MO"},
"geometry":{ "type": "Point", "coordinates": [-92.768837,37.147424]}},
{ "type": "Feature", "properties": {"Name":"Shakertowne CDP","State":"Missouri","State_Abbrev":"MO"},
"geometry":{ "type": "Point", "coordinates": [-89.867372,37.693956]}},
{ "type": "Feature", "properties": {"Name":"Shawneetown CDP","State":"Missouri","State_Abbrev":"MO"},
"geometry":{ "type": "Point", "coordinates": [-89.655517,37.55109]}},
{ "type": "Feature", "properties": {"Name":"Shelbina city","State":"Missouri","State_Abbrev":"MO"},
"geometry":{ "type": "Point", "coordinates": [-92.039652,39.693022]}},
{ "type": "Feature", "properties": {"Name":"Shelbyville city","State":"Missouri","State_Abbrev":"MO"},
"geometry":{ "type": "Point", "coordinates": [-92.039887,39.807328]}},
{ "type": "Feature", "properties": {"Name":"Sheldon city","State":"Missouri","State_Abbrev":"MO"},
"geometry":{ "type": "Point", "coordinates": [-94.295713,37.658356]}},
{ "type": "Feature", "properties": {"Name":"Shell Knob CDP","State":"Missouri","State_Abbrev":"MO"},
"geometry":{ "type": "Point", "coordinates": [-93.596627,36.595763]}},
{ "type": "Feature", "properties": {"Name":"Sheridan town","State":"Missouri","State_Abbrev":"MO"},
"geometry":{ "type": "Point", "coordinates": [-94.614602,40.517175]}},
{ "type": "Feature", "properties": {"Name":"Shoal Creek Drive village","State":"Missouri","State_Abbrev":"MO"},
"geometry":{ "type": "Point", "coordinates": [-94.522751,37.037]}},
{ "type": "Feature", "properties": {"Name":"Shoal Creek Estates village","State":"Missouri","State_Abbrev":"MO"},
"geometry":{ "type": "Point", "coordinates": [-94.493404,37.01734]}},
{ "type": "Feature", "properties": {"Name":"Shrewsbury city","State":"Missouri","State_Abbrev":"MO"},
"geometry":{ "type": "Point", "coordinates": [-90.328164,38.586566]}},
{ "type": "Feature", "properties": {"Name":"Sibley village","State":"Missouri","State_Abbrev":"MO"},
"geometry":{ "type": "Point", "coordinates": [-94.200871,39.17589]}},
{ "type": "Feature", "properties": {"Name":"Sikeston city","State":"Missouri","State_Abbrev":"MO"},
"geometry":{ "type": "Point", "coordinates": [-89.587449,36.884997]}},
{ "type": "Feature", "properties": {"Name":"Silex city","State":"Missouri","State_Abbrev":"MO"},
"geometry":{ "type": "Point", "coordinates": [-91.057873,39.126974]}},
{ "type": "Feature", "properties": {"Name":"Skidmore city","State":"Missouri","State_Abbrev":"MO"},
"geometry":{ "type": "Point", "coordinates": [-95.079486,40.287891]}},
{ "type": "Feature", "properties": {"Name":"Slater city","State":"Missouri","State_Abbrev":"MO"},
"geometry":{ "type": "Point", "coordinates": [-93.065347,39.223279]}},
{ "type": "Feature", "properties": {"Name":"Smithton city","State":"Missouri","State_Abbrev":"MO"},
"geometry":{ "type": "Point", "coordinates": [-93.0924,38.680728]}},
{ "type": "Feature", "properties": {"Name":"Smithville city","State":"Missouri","State_Abbrev":"MO"},
"geometry":{ "type": "Point", "coordinates": [-94.570987,39.396869]}},
{ "type": "Feature", "properties": {"Name":"South Fork CDP","State":"Missouri","State_Abbrev":"MO"},
"geometry":{ "type": "Point", "coordinates": [-91.954841,36.637973]}},
{ "type": "Feature", "properties": {"Name":"South Gifford village","State":"Missouri","State_Abbrev":"MO"},
"geometry":{ "type": "Point", "coordinates": [-92.684951,40.027477]}},
{ "type": "Feature", "properties": {"Name":"South Gorin town","State":"Missouri","State_Abbrev":"MO"},
"geometry":{ "type": "Point", "coordinates": [-92.02543,40.358515]}},
{ "type": "Feature", "properties": {"Name":"South Greenfield village","State":"Missouri","State_Abbrev":"MO"},
"geometry":{ "type": "Point", "coordinates": [-93.840887,37.376053]}},
{ "type": "Feature", "properties": {"Name":"South Lineville town","State":"Missouri","State_Abbrev":"MO"},
"geometry":{ "type": "Point", "coordinates": [-93.524073,40.578578]}},
{ "type": "Feature", "properties": {"Name":"Southwest City town","State":"Missouri","State_Abbrev":"MO"},
"geometry":{ "type": "Point", "coordinates": [-94.607488,36.517289]}},
{ "type": "Feature", "properties": {"Name":"Spanish Lake CDP","State":"Missouri","State_Abbrev":"MO"},
"geometry":{ "type": "Point", "coordinates": [-90.207797,38.788536]}},
{ "type": "Feature", "properties": {"Name":"Sparta city","State":"Missouri","State_Abbrev":"MO"},
"geometry":{ "type": "Point", "coordinates": [-93.084557,37.001797]}},
{ "type": "Feature", "properties": {"Name":"Spickard city","State":"Missouri","State_Abbrev":"MO"},
"geometry":{ "type": "Point", "coordinates": [-93.59224,40.24316]}},
{ "type": "Feature", "properties": {"Name":"Spokane CDP","State":"Missouri","State_Abbrev":"MO"},
"geometry":{ "type": "Point", "coordinates": [-93.287058,36.866877]}},
{ "type": "Feature", "properties": {"Name":"Springfield city","State":"Missouri","State_Abbrev":"MO"},
"geometry":{ "type": "Point", "coordinates": [-93.292642,37.194157]}},
{ "type": "Feature", "properties": {"Name":"Stanberry city","State":"Missouri","State_Abbrev":"MO"},
"geometry":{ "type": "Point", "coordinates": [-94.538093,40.216583]}},
{ "type": "Feature", "properties": {"Name":"Stanton CDP","State":"Missouri","State_Abbrev":"MO"},
"geometry":{ "type": "Point", "coordinates": [-91.105902,38.270243]}},
{ "type": "Feature", "properties": {"Name":"Stark City town","State":"Missouri","State_Abbrev":"MO"},
"geometry":{ "type": "Point", "coordinates": [-94.186342,36.862873]}},
{ "type": "Feature", "properties": {"Name":"Steele city","State":"Missouri","State_Abbrev":"MO"},
"geometry":{ "type": "Point", "coordinates": [-89.862102,36.09479]}},
{ "type": "Feature", "properties": {"Name":"Steelville city","State":"Missouri","State_Abbrev":"MO"},
"geometry":{ "type": "Point", "coordinates": [-91.354581,37.969608]}},
{ "type": "Feature", "properties": {"Name":"Stella town","State":"Missouri","State_Abbrev":"MO"},
"geometry":{ "type": "Point", "coordinates": [-94.191119,36.762585]}},
{ "type": "Feature", "properties": {"Name":"Stewartsville city","State":"Missouri","State_Abbrev":"MO"},
"geometry":{ "type": "Point", "coordinates": [-94.499049,39.756499]}},
{ "type": "Feature", "properties": {"Name":"Stockton city","State":"Missouri","State_Abbrev":"MO"},
"geometry":{ "type": "Point", "coordinates": [-93.795886,37.696889]}},
{ "type": "Feature", "properties": {"Name":"Stotesbury town","State":"Missouri","State_Abbrev":"MO"},
"geometry":{ "type": "Point", "coordinates": [-94.565038,37.975093]}},
{ "type": "Feature", "properties": {"Name":"Stotts City city","State":"Missouri","State_Abbrev":"MO"},
"geometry":{ "type": "Point", "coordinates": [-93.948284,37.10178]}},
{ "type": "Feature", "properties": {"Name":"Stoutland city","State":"Missouri","State_Abbrev":"MO"},
"geometry":{ "type": "Point", "coordinates": [-92.516978,37.813205]}},
{ "type": "Feature", "properties": {"Name":"Stoutsville village","State":"Missouri","State_Abbrev":"MO"},
"geometry":{ "type": "Point", "coordinates": [-91.856804,39.548869]}},
{ "type": "Feature", "properties": {"Name":"Stover city","State":"Missouri","State_Abbrev":"MO"},
"geometry":{ "type": "Point", "coordinates": [-92.990138,38.441813]}},
{ "type": "Feature", "properties": {"Name":"Strafford city","State":"Missouri","State_Abbrev":"MO"},
"geometry":{ "type": "Point", "coordinates": [-93.117968,37.269013]}},
{ "type": "Feature", "properties": {"Name":"Strasburg city","State":"Missouri","State_Abbrev":"MO"},
"geometry":{ "type": "Point", "coordinates": [-94.164837,38.759888]}},
{ "type": "Feature", "properties": {"Name":"Sturgeon city","State":"Missouri","State_Abbrev":"MO"},
"geometry":{ "type": "Point", "coordinates": [-92.282021,39.234658]}},
{ "type": "Feature", "properties": {"Name":"Sugar Creek city","State":"Missouri","State_Abbrev":"MO"},
"geometry":{ "type": "Point", "coordinates": [-94.408507,39.139505]}},
{ "type": "Feature", "properties": {"Name":"Sullivan city","State":"Missouri","State_Abbrev":"MO"},
"geometry":{ "type": "Point", "coordinates": [-91.16363,38.21288]}},
{ "type": "Feature", "properties": {"Name":"Summer Set CDP","State":"Missouri","State_Abbrev":"MO"},
"geometry":{ "type": "Point", "coordinates": [-90.576149,38.087499]}},
{ "type": "Feature", "properties": {"Name":"Summersville city","State":"Missouri","State_Abbrev":"MO"},
"geometry":{ "type": "Point", "coordinates": [-91.657691,37.178547]}},
{ "type": "Feature", "properties": {"Name":"Sumner town","State":"Missouri","State_Abbrev":"MO"},
"geometry":{ "type": "Point", "coordinates": [-93.243431,39.656058]}},
{ "type": "Feature", "properties": {"Name":"Sundown CDP","State":"Missouri","State_Abbrev":"MO"},
"geometry":{ "type": "Point", "coordinates": [-92.64162,36.558808]}},
{ "type": "Feature", "properties": {"Name":"Sunrise Beach village","State":"Missouri","State_Abbrev":"MO"},
"geometry":{ "type": "Point", "coordinates": [-92.781963,38.162751]}},
{ "type": "Feature", "properties": {"Name":"Sunset Hills city","State":"Missouri","State_Abbrev":"MO"},
"geometry":{ "type": "Point", "coordinates": [-90.409285,38.531246]}},
{ "type": "Feature", "properties": {"Name":"Sweet Springs city","State":"Missouri","State_Abbrev":"MO"},
"geometry":{ "type": "Point", "coordinates": [-93.416504,38.964279]}},
{ "type": "Feature", "properties": {"Name":"Sycamore Hills village","State":"Missouri","State_Abbrev":"MO"},
"geometry":{ "type": "Point", "coordinates": [-90.349028,38.701246]}},
{ "type": "Feature", "properties": {"Name":"Syracuse city","State":"Missouri","State_Abbrev":"MO"},
"geometry":{ "type": "Point", "coordinates": [-92.876329,38.669568]}},
{ "type": "Feature", "properties": {"Name":"Tallapoosa city","State":"Missouri","State_Abbrev":"MO"},
"geometry":{ "type": "Point", "coordinates": [-89.817,36.50606]}},
{ "type": "Feature", "properties": {"Name":"Taneyville village","State":"Missouri","State_Abbrev":"MO"},
"geometry":{ "type": "Point", "coordinates": [-93.03542,36.73769]}},
{ "type": "Feature", "properties": {"Name":"Taos city","State":"Missouri","State_Abbrev":"MO"},
"geometry":{ "type": "Point", "coordinates": [-92.092069,38.500084]}},
{ "type": "Feature", "properties": {"Name":"Tarkio city","State":"Missouri","State_Abbrev":"MO"},
"geometry":{ "type": "Point", "coordinates": [-95.383516,40.442988]}},
{ "type": "Feature", "properties": {"Name":"Tarrants village","State":"Missouri","State_Abbrev":"MO"},
"geometry":{ "type": "Point", "coordinates": [-91.183704,39.357609]}},
{ "type": "Feature", "properties": {"Name":"Tarsney Lakes CDP","State":"Missouri","State_Abbrev":"MO"},
"geometry":{ "type": "Point", "coordinates": [-94.205272,38.950764]}},
{ "type": "Feature", "properties": {"Name":"Tebbetts CDP","State":"Missouri","State_Abbrev":"MO"},
"geometry":{ "type": "Point", "coordinates": [-91.956001,38.617658]}},
{ "type": "Feature", "properties": {"Name":"Terre du Lac CDP","State":"Missouri","State_Abbrev":"MO"},
"geometry":{ "type": "Point", "coordinates": [-90.618431,37.904256]}},
{ "type": "Feature", "properties": {"Name":"Thayer city","State":"Missouri","State_Abbrev":"MO"},
"geometry":{ "type": "Point", "coordinates": [-91.540781,36.522362]}},
{ "type": "Feature", "properties": {"Name":"Theodosia village","State":"Missouri","State_Abbrev":"MO"},
"geometry":{ "type": "Point", "coordinates": [-92.664568,36.579889]}},
{ "type": "Feature", "properties": {"Name":"Thomasville CDP","State":"Missouri","State_Abbrev":"MO"},
"geometry":{ "type": "Point", "coordinates": [-91.533944,36.790741]}},
{ "type": "Feature", "properties": {"Name":"Three Creeks village","State":"Missouri","State_Abbrev":"MO"},
"geometry":{ "type": "Point", "coordinates": [-90.992736,38.573008]}},
{ "type": "Feature", "properties": {"Name":"Tightwad village","State":"Missouri","State_Abbrev":"MO"},
"geometry":{ "type": "Point", "coordinates": [-93.542298,38.305763]}},
{ "type": "Feature", "properties": {"Name":"Tina village","State":"Missouri","State_Abbrev":"MO"},
"geometry":{ "type": "Point", "coordinates": [-93.441318,39.537885]}},
{ "type": "Feature", "properties": {"Name":"Tindall town","State":"Missouri","State_Abbrev":"MO"},
"geometry":{ "type": "Point", "coordinates": [-93.609654,40.160878]}},
{ "type": "Feature", "properties": {"Name":"Tipton city","State":"Missouri","State_Abbrev":"MO"},
"geometry":{ "type": "Point", "coordinates": [-92.781266,38.655059]}},
{ "type": "Feature", "properties": {"Name":"Town and Country city","State":"Missouri","State_Abbrev":"MO"},
"geometry":{ "type": "Point", "coordinates": [-90.477191,38.630602]}},
{ "type": "Feature", "properties": {"Name":"Tracy city","State":"Missouri","State_Abbrev":"MO"},
"geometry":{ "type": "Point", "coordinates": [-94.791152,39.377467]}},
{ "type": "Feature", "properties": {"Name":"Trenton city","State":"Missouri","State_Abbrev":"MO"},
"geometry":{ "type": "Point", "coordinates": [-93.602387,40.081255]}},
{ "type": "Feature", "properties": {"Name":"Trimble city","State":"Missouri","State_Abbrev":"MO"},
"geometry":{ "type": "Point", "coordinates": [-94.561898,39.476152]}},
{ "type": "Feature", "properties": {"Name":"Triplett city","State":"Missouri","State_Abbrev":"MO"},
"geometry":{ "type": "Point", "coordinates": [-93.19386,39.498355]}},
{ "type": "Feature", "properties": {"Name":"Troy city","State":"Missouri","State_Abbrev":"MO"},
"geometry":{ "type": "Point", "coordinates": [-90.967467,38.969985]}},
{ "type": "Feature", "properties": {"Name":"Truesdale city","State":"Missouri","State_Abbrev":"MO"},
"geometry":{ "type": "Point", "coordinates": [-91.12213,38.813115]}},
{ "type": "Feature", "properties": {"Name":"Truxton village","State":"Missouri","State_Abbrev":"MO"},
"geometry":{ "type": "Point", "coordinates": [-91.23897,39.004591]}},
{ "type": "Feature", "properties": {"Name":"Turney village","State":"Missouri","State_Abbrev":"MO"},
"geometry":{ "type": "Point", "coordinates": [-94.321028,39.637603]}},
{ "type": "Feature", "properties": {"Name":"Tuscumbia town","State":"Missouri","State_Abbrev":"MO"},
"geometry":{ "type": "Point", "coordinates": [-92.46004,38.237061]}},
{ "type": "Feature", "properties": {"Name":"Twin Oaks village","State":"Missouri","State_Abbrev":"MO"},
"geometry":{ "type": "Point", "coordinates": [-90.500958,38.565764]}},
{ "type": "Feature", "properties": {"Name":"Umber View Heights village","State":"Missouri","State_Abbrev":"MO"},
"geometry":{ "type": "Point", "coordinates": [-93.803555,37.623402]}},
{ "type": "Feature", "properties": {"Name":"Union city","State":"Missouri","State_Abbrev":"MO"},
"geometry":{ "type": "Point", "coordinates": [-90.995801,38.437882]}},
{ "type": "Feature", "properties": {"Name":"Union Star town","State":"Missouri","State_Abbrev":"MO"},
"geometry":{ "type": "Point", "coordinates": [-94.598246,39.979417]}},
{ "type": "Feature", "properties": {"Name":"Unionville city","State":"Missouri","State_Abbrev":"MO"},
"geometry":{ "type": "Point", "coordinates": [-93.004416,40.475708]}},
{ "type": "Feature", "properties": {"Name":"Unity Village village","State":"Missouri","State_Abbrev":"MO"},
"geometry":{ "type": "Point", "coordinates": [-94.400935,38.958952]}},
{ "type": "Feature", "properties": {"Name":"University City city","State":"Missouri","State_Abbrev":"MO"},
"geometry":{ "type": "Point", "coordinates": [-90.33155,38.665732]}},
{ "type": "Feature", "properties": {"Name":"Uplands Park village","State":"Missouri","State_Abbrev":"MO"},
"geometry":{ "type": "Point", "coordinates": [-90.282849,38.692709]}},
{ "type": "Feature", "properties": {"Name":"Urbana city","State":"Missouri","State_Abbrev":"MO"},
"geometry":{ "type": "Point", "coordinates": [-93.167562,37.843454]}},
{ "type": "Feature", "properties": {"Name":"Urich city","State":"Missouri","State_Abbrev":"MO"},
"geometry":{ "type": "Point", "coordinates": [-93.998985,38.460417]}},
{ "type": "Feature", "properties": {"Name":"Utica village","State":"Missouri","State_Abbrev":"MO"},
"geometry":{ "type": "Point", "coordinates": [-93.6286,39.745582]}},
{ "type": "Feature", "properties": {"Name":"Valley Park city","State":"Missouri","State_Abbrev":"MO"},
"geometry":{ "type": "Point", "coordinates": [-90.495917,38.550005]}},
{ "type": "Feature", "properties": {"Name":"Van Buren town","State":"Missouri","State_Abbrev":"MO"},
"geometry":{ "type": "Point", "coordinates": [-91.00688,37.014426]}},
{ "type": "Feature", "properties": {"Name":"Vandalia city","State":"Missouri","State_Abbrev":"MO"},
"geometry":{ "type": "Point", "coordinates": [-91.489341,39.307965]}},
{ "type": "Feature", "properties": {"Name":"Vandiver village","State":"Missouri","State_Abbrev":"MO"},
"geometry":{ "type": "Point", "coordinates": [-91.847592,39.16115]}},
{ "type": "Feature", "properties": {"Name":"Vanduser village","State":"Missouri","State_Abbrev":"MO"},
"geometry":{ "type": "Point", "coordinates": [-89.686519,36.991037]}},
{ "type": "Feature", "properties": {"Name":"Velda City city","State":"Missouri","State_Abbrev":"MO"},
"geometry":{ "type": "Point", "coordinates": [-90.293443,38.694105]}},
{ "type": "Feature", "properties": {"Name":"Velda Village Hills city","State":"Missouri","State_Abbrev":"MO"},
"geometry":{ "type": "Point", "coordinates": [-90.287661,38.69216]}},
{ "type": "Feature", "properties": {"Name":"Verona town","State":"Missouri","State_Abbrev":"MO"},
"geometry":{ "type": "Point", "coordinates": [-93.790442,36.962207]}},
{ "type": "Feature", "properties": {"Name":"Versailles city","State":"Missouri","State_Abbrev":"MO"},
"geometry":{ "type": "Point", "coordinates": [-92.846034,38.433449]}},
{ "type": "Feature", "properties": {"Name":"Vibbard CDP","State":"Missouri","State_Abbrev":"MO"},
"geometry":{ "type": "Point", "coordinates": [-94.144139,39.387493]}},
{ "type": "Feature", "properties": {"Name":"Viburnum city","State":"Missouri","State_Abbrev":"MO"},
"geometry":{ "type": "Point", "coordinates": [-91.130767,37.715059]}},
{ "type": "Feature", "properties": {"Name":"Vienna city","State":"Missouri","State_Abbrev":"MO"},
"geometry":{ "type": "Point", "coordinates": [-91.950601,38.187826]}},
{ "type": "Feature", "properties": {"Name":"Village of Four Seasons village","State":"Missouri","State_Abbrev":"MO"},
"geometry":{ "type": "Point", "coordinates": [-92.713614,38.196203]}},
{ "type": "Feature", "properties": {"Name":"Villa Ridge CDP","State":"Missouri","State_Abbrev":"MO"},
"geometry":{ "type": "Point", "coordinates": [-90.882348,38.465699]}},
{ "type": "Feature", "properties": {"Name":"Vinita Park city","State":"Missouri","State_Abbrev":"MO"},
"geometry":{ "type": "Point", "coordinates": [-90.33922,38.688789]}},
{ "type": "Feature", "properties": {"Name":"Vista village","State":"Missouri","State_Abbrev":"MO"},
"geometry":{ "type": "Point", "coordinates": [-93.664195,37.988826]}},
{ "type": "Feature", "properties": {"Name":"Waco city","State":"Missouri","State_Abbrev":"MO"},
"geometry":{ "type": "Point", "coordinates": [-94.600279,37.246952]}},
{ "type": "Feature", "properties": {"Name":"Walker city","State":"Missouri","State_Abbrev":"MO"},
"geometry":{ "type": "Point", "coordinates": [-94.231125,37.898907]}},
{ "type": "Feature", "properties": {"Name":"Walnut Grove city","State":"Missouri","State_Abbrev":"MO"},
"geometry":{ "type": "Point", "coordinates": [-93.547976,37.411233]}},
{ "type": "Feature", "properties": {"Name":"Wardell town","State":"Missouri","State_Abbrev":"MO"},
"geometry":{ "type": "Point", "coordinates": [-89.815302,36.353808]}},
{ "type": "Feature", "properties": {"Name":"Wardsville village","State":"Missouri","State_Abbrev":"MO"},
"geometry":{ "type": "Point", "coordinates": [-92.182485,38.491807]}},
{ "type": "Feature", "properties": {"Name":"Warrensburg city","State":"Missouri","State_Abbrev":"MO"},
"geometry":{ "type": "Point", "coordinates": [-93.725337,38.762381]}},
{ "type": "Feature", "properties": {"Name":"Warrenton city","State":"Missouri","State_Abbrev":"MO"},
"geometry":{ "type": "Point", "coordinates": [-91.137933,38.819056]}},
{ "type": "Feature", "properties": {"Name":"Warsaw city","State":"Missouri","State_Abbrev":"MO"},
"geometry":{ "type": "Point", "coordinates": [-93.367038,38.249274]}},
{ "type": "Feature", "properties": {"Name":"Warson Woods city","State":"Missouri","State_Abbrev":"MO"},
"geometry":{ "type": "Point", "coordinates": [-90.39125,38.606827]}},
{ "type": "Feature", "properties": {"Name":"Washburn city","State":"Missouri","State_Abbrev":"MO"},
"geometry":{ "type": "Point", "coordinates": [-93.965698,36.588812]}},
{ "type": "Feature", "properties": {"Name":"Washington city","State":"Missouri","State_Abbrev":"MO"},
"geometry":{ "type": "Point", "coordinates": [-91.015491,38.551919]}},
{ "type": "Feature", "properties": {"Name":"Wasola CDP","State":"Missouri","State_Abbrev":"MO"},
"geometry":{ "type": "Point", "coordinates": [-92.567454,36.778227]}},
{ "type": "Feature", "properties": {"Name":"Watson village","State":"Missouri","State_Abbrev":"MO"},
"geometry":{ "type": "Point", "coordinates": [-95.62348,40.479906]}},
{ "type": "Feature", "properties": {"Name":"Waverly city","State":"Missouri","State_Abbrev":"MO"},
"geometry":{ "type": "Point", "coordinates": [-93.518133,39.207007]}},
{ "type": "Feature", "properties": {"Name":"Wayland city","State":"Missouri","State_Abbrev":"MO"},
"geometry":{ "type": "Point", "coordinates": [-91.575443,40.396301]}},
{ "type": "Feature", "properties": {"Name":"Waynesville city","State":"Missouri","State_Abbrev":"MO"},
"geometry":{ "type": "Point", "coordinates": [-92.219262,37.81943]}},
{ "type": "Feature", "properties": {"Name":"Weatherby town","State":"Missouri","State_Abbrev":"MO"},
"geometry":{ "type": "Point", "coordinates": [-94.242172,39.909263]}},
{ "type": "Feature", "properties": {"Name":"Weatherby Lake city","State":"Missouri","State_Abbrev":"MO"},
"geometry":{ "type": "Point", "coordinates": [-94.696135,39.234359]}},
{ "type": "Feature", "properties": {"Name":"Weaubleau city","State":"Missouri","State_Abbrev":"MO"},
"geometry":{ "type": "Point", "coordinates": [-93.539457,37.891207]}},
{ "type": "Feature", "properties": {"Name":"Webb City city","State":"Missouri","State_Abbrev":"MO"},
"geometry":{ "type": "Point", "coordinates": [-94.467586,37.141143]}},
{ "type": "Feature", "properties": {"Name":"Webster Groves city","State":"Missouri","State_Abbrev":"MO"},
"geometry":{ "type": "Point", "coordinates": [-90.354414,38.586599]}},
{ "type": "Feature", "properties": {"Name":"Weingarten CDP","State":"Missouri","State_Abbrev":"MO"},
"geometry":{ "type": "Point", "coordinates": [-90.217272,37.889384]}},
{ "type": "Feature", "properties": {"Name":"Weldon Spring city","State":"Missouri","State_Abbrev":"MO"},
"geometry":{ "type": "Point", "coordinates": [-90.652536,38.709381]}},
{ "type": "Feature", "properties": {"Name":"Weldon Spring Heights town","State":"Missouri","State_Abbrev":"MO"},
"geometry":{ "type": "Point", "coordinates": [-90.685303,38.704287]}},
{ "type": "Feature", "properties": {"Name":"Wellington city","State":"Missouri","State_Abbrev":"MO"},
"geometry":{ "type": "Point", "coordinates": [-93.98631,39.142358]}},
{ "type": "Feature", "properties": {"Name":"Wellston city","State":"Missouri","State_Abbrev":"MO"},
"geometry":{ "type": "Point", "coordinates": [-90.294049,38.675007]}},
{ "type": "Feature", "properties": {"Name":"Wellsville city","State":"Missouri","State_Abbrev":"MO"},
"geometry":{ "type": "Point", "coordinates": [-91.568904,39.073202]}},
{ "type": "Feature", "properties": {"Name":"Wentworth village","State":"Missouri","State_Abbrev":"MO"},
"geometry":{ "type": "Point", "coordinates": [-94.075485,36.993218]}},
{ "type": "Feature", "properties": {"Name":"Wentzville city","State":"Missouri","State_Abbrev":"MO"},
"geometry":{ "type": "Point", "coordinates": [-90.870758,38.816452]}},
{ "type": "Feature", "properties": {"Name":"West Alton city","State":"Missouri","State_Abbrev":"MO"},
"geometry":{ "type": "Point", "coordinates": [-90.203943,38.862927]}},
{ "type": "Feature", "properties": {"Name":"Westboro city","State":"Missouri","State_Abbrev":"MO"},
"geometry":{ "type": "Point", "coordinates": [-95.321106,40.53505]}},
{ "type": "Feature", "properties": {"Name":"West Line village","State":"Missouri","State_Abbrev":"MO"},
"geometry":{ "type": "Point", "coordinates": [-94.586958,38.635748]}},
{ "type": "Feature", "properties": {"Name":"Weston city","State":"Missouri","State_Abbrev":"MO"},
"geometry":{ "type": "Point", "coordinates": [-94.891259,39.404135]}},
{ "type": "Feature", "properties": {"Name":"Westphalia city","State":"Missouri","State_Abbrev":"MO"},
"geometry":{ "type": "Point", "coordinates": [-91.998657,38.441452]}},
{ "type": "Feature", "properties": {"Name":"West Plains city","State":"Missouri","State_Abbrev":"MO"},
"geometry":{ "type": "Point", "coordinates": [-91.867957,36.73743]}},
{ "type": "Feature", "properties": {"Name":"West Sullivan town","State":"Missouri","State_Abbrev":"MO"},
"geometry":{ "type": "Point", "coordinates": [-91.191726,38.191972]}},
{ "type": "Feature", "properties": {"Name":"Westwood village","State":"Missouri","State_Abbrev":"MO"},
"geometry":{ "type": "Point", "coordinates": [-90.433486,38.643489]}},
{ "type": "Feature", "properties": {"Name":"Wheatland city","State":"Missouri","State_Abbrev":"MO"},
"geometry":{ "type": "Point", "coordinates": [-93.39751,37.940965]}},
{ "type": "Feature", "properties": {"Name":"Wheaton city","State":"Missouri","State_Abbrev":"MO"},
"geometry":{ "type": "Point", "coordinates": [-94.056991,36.761613]}},
{ "type": "Feature", "properties": {"Name":"Wheeling city","State":"Missouri","State_Abbrev":"MO"},
"geometry":{ "type": "Point", "coordinates": [-93.386011,39.786065]}},
{ "type": "Feature", "properties": {"Name":"White Branch CDP","State":"Missouri","State_Abbrev":"MO"},
"geometry":{ "type": "Point", "coordinates": [-93.353461,38.230557]}},
{ "type": "Feature", "properties": {"Name":"Whiteman AFB CDP","State":"Missouri","State_Abbrev":"MO"},
"geometry":{ "type": "Point", "coordinates": [-93.553158,38.733116]}},
{ "type": "Feature", "properties": {"Name":"White Oak CDP","State":"Missouri","State_Abbrev":"MO"},
"geometry":{ "type": "Point", "coordinates": [-90.027582,36.329985]}},
{ "type": "Feature", "properties": {"Name":"Whiteside village","State":"Missouri","State_Abbrev":"MO"},
"geometry":{ "type": "Point", "coordinates": [-91.01553,39.183969]}},
{ "type": "Feature", "properties": {"Name":"Whitewater town","State":"Missouri","State_Abbrev":"MO"},
"geometry":{ "type": "Point", "coordinates": [-89.797842,37.236766]}},
{ "type": "Feature", "properties": {"Name":"Whiting CDP","State":"Missouri","State_Abbrev":"MO"},
"geometry":{ "type": "Point", "coordinates": [-89.371559,36.792072]}},
{ "type": "Feature", "properties": {"Name":"Wilbur Park village","State":"Missouri","State_Abbrev":"MO"},
"geometry":{ "type": "Point", "coordinates": [-90.308732,38.55319]}},
{ "type": "Feature", "properties": {"Name":"Wildwood city","State":"Missouri","State_Abbrev":"MO"},
"geometry":{ "type": "Point", "coordinates": [-90.667807,38.577073]}},
{ "type": "Feature", "properties": {"Name":"Willard city","State":"Missouri","State_Abbrev":"MO"},
"geometry":{ "type": "Point", "coordinates": [-93.417054,37.292977]}},
{ "type": "Feature", "properties": {"Name":"Williamstown CDP","State":"Missouri","State_Abbrev":"MO"},
"geometry":{ "type": "Point", "coordinates": [-91.797619,40.240837]}},
{ "type": "Feature", "properties": {"Name":"Williamsville city","State":"Missouri","State_Abbrev":"MO"},
"geometry":{ "type": "Point", "coordinates": [-90.547828,36.973654]}},
{ "type": "Feature", "properties": {"Name":"Willow Springs city","State":"Missouri","State_Abbrev":"MO"},
"geometry":{ "type": "Point", "coordinates": [-91.963101,36.987613]}},
{ "type": "Feature", "properties": {"Name":"Wilson City village","State":"Missouri","State_Abbrev":"MO"},
"geometry":{ "type": "Point", "coordinates": [-89.223016,36.923591]}},
{ "type": "Feature", "properties": {"Name":"Winchester city","State":"Missouri","State_Abbrev":"MO"},
"geometry":{ "type": "Point", "coordinates": [-90.526066,38.589702]}},
{ "type": "Feature", "properties": {"Name":"Windsor city","State":"Missouri","State_Abbrev":"MO"},
"geometry":{ "type": "Point", "coordinates": [-93.522945,38.532265]}},
{ "type": "Feature", "properties": {"Name":"Windsor Place village","State":"Missouri","State_Abbrev":"MO"},
"geometry":{ "type": "Point", "coordinates": [-92.703119,38.934258]}},
{ "type": "Feature", "properties": {"Name":"Winfield city","State":"Missouri","State_Abbrev":"MO"},
"geometry":{ "type": "Point", "coordinates": [-90.74513,38.99229]}},
{ "type": "Feature", "properties": {"Name":"Winigan CDP","State":"Missouri","State_Abbrev":"MO"},
"geometry":{ "type": "Point", "coordinates": [-92.89827,40.046873]}},
{ "type": "Feature", "properties": {"Name":"Winona city","State":"Missouri","State_Abbrev":"MO"},
"geometry":{ "type": "Point", "coordinates": [-91.326962,37.004151]}},
{ "type": "Feature", "properties": {"Name":"Winston village","State":"Missouri","State_Abbrev":"MO"},
"geometry":{ "type": "Point", "coordinates": [-94.141744,39.869946]}},
{ "type": "Feature", "properties": {"Name":"Wood Heights city","State":"Missouri","State_Abbrev":"MO"},
"geometry":{ "type": "Point", "coordinates": [-94.163048,39.341727]}},
{ "type": "Feature", "properties": {"Name":"Woodson Terrace city","State":"Missouri","State_Abbrev":"MO"},
"geometry":{ "type": "Point", "coordinates": [-90.360035,38.728606]}},
{ "type": "Feature", "properties": {"Name":"Wooldridge village","State":"Missouri","State_Abbrev":"MO"},
"geometry":{ "type": "Point", "coordinates": [-92.521401,38.906565]}},
{ "type": "Feature", "properties": {"Name":"Worth village","State":"Missouri","State_Abbrev":"MO"},
"geometry":{ "type": "Point", "coordinates": [-94.446506,40.404522]}},
{ "type": "Feature", "properties": {"Name":"Wortham CDP","State":"Missouri","State_Abbrev":"MO"},
"geometry":{ "type": "Point", "coordinates": [-90.603497,37.839749]}},
{ "type": "Feature", "properties": {"Name":"Worthington village","State":"Missouri","State_Abbrev":"MO"},
"geometry":{ "type": "Point", "coordinates": [-92.689255,40.408501]}},
{ "type": "Feature", "properties": {"Name":"Wright City city","State":"Missouri","State_Abbrev":"MO"},
"geometry":{ "type": "Point", "coordinates": [-91.035622,38.832191]}},
{ "type": "Feature", "properties": {"Name":"Wyaconda city","State":"Missouri","State_Abbrev":"MO"},
"geometry":{ "type": "Point", "coordinates": [-91.926118,40.392187]}},
{ "type": "Feature", "properties": {"Name":"Wyatt city","State":"Missouri","State_Abbrev":"MO"},
"geometry":{ "type": "Point", "coordinates": [-89.169548,36.960331]}},
{ "type": "Feature", "properties": {"Name":"Zalma CDP","State":"Missouri","State_Abbrev":"MO"},
"geometry":{ "type": "Point", "coordinates": [-90.081661,37.142766]}}]}
