{"type":"FeatureCollection","features":[
{ "type": "Feature", "properties": {"Abbeville town":"Aberdeen city","Mississippi":"Mississippi","MS":"MS"},
"geometry":{ "type": "Point", "coordinates": [-88.554741,33.828299]}},
{ "type": "Feature", "properties": {"Abbeville town":"Ackerman town","Mississippi":"Mississippi","MS":"MS"},
"geometry":{ "type": "Point", "coordinates": [-89.170247,33.310649]}},
{ "type": "Feature", "properties": {"Abbeville town":"Agricola CDP","Mississippi":"Mississippi","MS":"MS"},
"geometry":{ "type": "Point", "coordinates": [-88.524917,30.813804]}},
{ "type": "Feature", "properties": {"Abbeville town":"Alcorn State University CDP","Mississippi":"Mississippi","MS":"MS"},
"geometry":{ "type": "Point", "coordinates": [-91.140636,31.879168]}},
{ "type": "Feature", "properties": {"Abbeville town":"Algoma town","Mississippi":"Mississippi","MS":"MS"},
"geometry":{ "type": "Point", "coordinates": [-89.03807,34.179537]}},
{ "type": "Feature", "properties": {"Abbeville town":"Alligator town","Mississippi":"Mississippi","MS":"MS"},
"geometry":{ "type": "Point", "coordinates": [-90.722646,34.089802]}},
{ "type": "Feature", "properties": {"Abbeville town":"Amory city","Mississippi":"Mississippi","MS":"MS"},
"geometry":{ "type": "Point", "coordinates": [-88.482607,33.981846]}},
{ "type": "Feature", "properties": {"Abbeville town":"Anguilla town","Mississippi":"Mississippi","MS":"MS"},
"geometry":{ "type": "Point", "coordinates": [-90.828259,32.971869]}},
{ "type": "Feature", "properties": {"Abbeville town":"Arcola town","Mississippi":"Mississippi","MS":"MS"},
"geometry":{ "type": "Point", "coordinates": [-90.880002,33.27054]}},
{ "type": "Feature", "properties": {"Abbeville town":"Arkabutla CDP","Mississippi":"Mississippi","MS":"MS"},
"geometry":{ "type": "Point", "coordinates": [-90.121565,34.700227]}},
{ "type": "Feature", "properties": {"Abbeville town":"Arnold Line CDP","Mississippi":"Mississippi","MS":"MS"},
"geometry":{ "type": "Point", "coordinates": [-89.37719,31.337175]}},
{ "type": "Feature", "properties": {"Abbeville town":"Artesia town","Mississippi":"Mississippi","MS":"MS"},
"geometry":{ "type": "Point", "coordinates": [-88.642298,33.416711]}},
{ "type": "Feature", "properties": {"Abbeville town":"Ashland town","Mississippi":"Mississippi","MS":"MS"},
"geometry":{ "type": "Point", "coordinates": [-89.177741,34.834119]}},
{ "type": "Feature", "properties": {"Abbeville town":"Austin CDP","Mississippi":"Mississippi","MS":"MS"},
"geometry":{ "type": "Point", "coordinates": [-90.44791,34.642236]}},
{ "type": "Feature", "properties": {"Abbeville town":"Baldwyn city","Mississippi":"Mississippi","MS":"MS"},
"geometry":{ "type": "Point", "coordinates": [-88.642788,34.505494]}},
{ "type": "Feature", "properties": {"Abbeville town":"Bassfield town","Mississippi":"Mississippi","MS":"MS"},
"geometry":{ "type": "Point", "coordinates": [-89.744932,31.495955]}},
{ "type": "Feature", "properties": {"Abbeville town":"Batesville city","Mississippi":"Mississippi","MS":"MS"},
"geometry":{ "type": "Point", "coordinates": [-89.924878,34.320982]}},
{ "type": "Feature", "properties": {"Abbeville town":"Baxterville CDP","Mississippi":"Mississippi","MS":"MS"},
"geometry":{ "type": "Point", "coordinates": [-89.586699,31.09147]}},
{ "type": "Feature", "properties": {"Abbeville town":"Bay St. Louis city","Mississippi":"Mississippi","MS":"MS"},
"geometry":{ "type": "Point", "coordinates": [-89.35879,30.323448]}},
{ "type": "Feature", "properties": {"Abbeville town":"Bay Springs city","Mississippi":"Mississippi","MS":"MS"},
"geometry":{ "type": "Point", "coordinates": [-89.27961,31.978001]}},
{ "type": "Feature", "properties": {"Abbeville town":"Beaumont town","Mississippi":"Mississippi","MS":"MS"},
"geometry":{ "type": "Point", "coordinates": [-88.928356,31.167543]}},
{ "type": "Feature", "properties": {"Abbeville town":"Beauregard village","Mississippi":"Mississippi","MS":"MS"},
"geometry":{ "type": "Point", "coordinates": [-90.388687,31.717793]}},
{ "type": "Feature", "properties": {"Abbeville town":"Beechwood CDP","Mississippi":"Mississippi","MS":"MS"},
"geometry":{ "type": "Point", "coordinates": [-90.808692,32.336723]}},
{ "type": "Feature", "properties": {"Abbeville town":"Belmont town","Mississippi":"Mississippi","MS":"MS"},
"geometry":{ "type": "Point", "coordinates": [-88.208306,34.505035]}},
{ "type": "Feature", "properties": {"Abbeville town":"Belzoni city","Mississippi":"Mississippi","MS":"MS"},
"geometry":{ "type": "Point", "coordinates": [-90.486286,33.180498]}},
{ "type": "Feature", "properties": {"Abbeville town":"Benndale CDP","Mississippi":"Mississippi","MS":"MS"},
"geometry":{ "type": "Point", "coordinates": [-88.805435,30.86869]}},
{ "type": "Feature", "properties": {"Abbeville town":"Benoit town","Mississippi":"Mississippi","MS":"MS"},
"geometry":{ "type": "Point", "coordinates": [-91.008741,33.651595]}},
{ "type": "Feature", "properties": {"Abbeville town":"Benton CDP","Mississippi":"Mississippi","MS":"MS"},
"geometry":{ "type": "Point", "coordinates": [-90.261702,32.821561]}},
{ "type": "Feature", "properties": {"Abbeville town":"Bentonia town","Mississippi":"Mississippi","MS":"MS"},
"geometry":{ "type": "Point", "coordinates": [-90.369193,32.643598]}},
{ "type": "Feature", "properties": {"Abbeville town":"Bethlehem CDP","Mississippi":"Mississippi","MS":"MS"},
"geometry":{ "type": "Point", "coordinates": [-89.328873,34.577318]}},
{ "type": "Feature", "properties": {"Abbeville town":"Beulah town","Mississippi":"Mississippi","MS":"MS"},
"geometry":{ "type": "Point", "coordinates": [-90.980138,33.790471]}},
{ "type": "Feature", "properties": {"Abbeville town":"Big Creek village","Mississippi":"Mississippi","MS":"MS"},
"geometry":{ "type": "Point", "coordinates": [-89.415895,33.846392]}},
{ "type": "Feature", "properties": {"Abbeville town":"Biggersville CDP","Mississippi":"Mississippi","MS":"MS"},
"geometry":{ "type": "Point", "coordinates": [-88.563927,34.836728]}},
{ "type": "Feature", "properties": {"Abbeville town":"Big Point CDP","Mississippi":"Mississippi","MS":"MS"},
"geometry":{ "type": "Point", "coordinates": [-88.484562,30.590561]}},
{ "type": "Feature", "properties": {"Abbeville town":"Biloxi city","Mississippi":"Mississippi","MS":"MS"},
"geometry":{ "type": "Point", "coordinates": [-88.935762,30.426663]}},
{ "type": "Feature", "properties": {"Abbeville town":"Blue Mountain town","Mississippi":"Mississippi","MS":"MS"},
"geometry":{ "type": "Point", "coordinates": [-89.026184,34.673885]}},
{ "type": "Feature", "properties": {"Abbeville town":"Blue Springs village","Mississippi":"Mississippi","MS":"MS"},
"geometry":{ "type": "Point", "coordinates": [-88.883267,34.392778]}},
{ "type": "Feature", "properties": {"Abbeville town":"Bobo CDP","Mississippi":"Mississippi","MS":"MS"},
"geometry":{ "type": "Point", "coordinates": [-90.677553,34.133613]}},
{ "type": "Feature", "properties": {"Abbeville town":"Bogue Chitto CDP","Mississippi":"Mississippi","MS":"MS"},
"geometry":{ "type": "Point", "coordinates": [-90.461885,31.429417]}},
{ "type": "Feature", "properties": {"Abbeville town":"Bogue Chitto CDP","Mississippi":"Mississippi","MS":"MS"},
"geometry":{ "type": "Point", "coordinates": [-88.918434,32.832345]}},
{ "type": "Feature", "properties": {"Abbeville town":"Bolivar CDP","Mississippi":"Mississippi","MS":"MS"},
"geometry":{ "type": "Point", "coordinates": [-91.051835,33.660681]}},
{ "type": "Feature", "properties": {"Abbeville town":"Bolton town","Mississippi":"Mississippi","MS":"MS"},
"geometry":{ "type": "Point", "coordinates": [-90.458584,32.354611]}},
{ "type": "Feature", "properties": {"Abbeville town":"Bond CDP","Mississippi":"Mississippi","MS":"MS"},
"geometry":{ "type": "Point", "coordinates": [-89.165651,30.901964]}},
{ "type": "Feature", "properties": {"Abbeville town":"Booneville city","Mississippi":"Mississippi","MS":"MS"},
"geometry":{ "type": "Point", "coordinates": [-88.567991,34.664418]}},
{ "type": "Feature", "properties": {"Abbeville town":"Bovina CDP","Mississippi":"Mississippi","MS":"MS"},
"geometry":{ "type": "Point", "coordinates": [-90.737931,32.349965]}},
{ "type": "Feature", "properties": {"Abbeville town":"Boyle town","Mississippi":"Mississippi","MS":"MS"},
"geometry":{ "type": "Point", "coordinates": [-90.724872,33.706475]}},
{ "type": "Feature", "properties": {"Abbeville town":"Brandon city","Mississippi":"Mississippi","MS":"MS"},
"geometry":{ "type": "Point", "coordinates": [-89.990686,32.278093]}},
{ "type": "Feature", "properties": {"Abbeville town":"Braxton village","Mississippi":"Mississippi","MS":"MS"},
"geometry":{ "type": "Point", "coordinates": [-89.97153,32.026391]}},
{ "type": "Feature", "properties": {"Abbeville town":"Bridgetown CDP","Mississippi":"Mississippi","MS":"MS"},
"geometry":{ "type": "Point", "coordinates": [-89.904816,34.889727]}},
{ "type": "Feature", "properties": {"Abbeville town":"Brookhaven city","Mississippi":"Mississippi","MS":"MS"},
"geometry":{ "type": "Point", "coordinates": [-90.443386,31.580567]}},
{ "type": "Feature", "properties": {"Abbeville town":"Brooksville town","Mississippi":"Mississippi","MS":"MS"},
"geometry":{ "type": "Point", "coordinates": [-88.578141,33.236701]}},
{ "type": "Feature", "properties": {"Abbeville town":"Bruce town","Mississippi":"Mississippi","MS":"MS"},
"geometry":{ "type": "Point", "coordinates": [-89.345464,33.990906]}},
{ "type": "Feature", "properties": {"Abbeville town":"Buckatunna CDP","Mississippi":"Mississippi","MS":"MS"},
"geometry":{ "type": "Point", "coordinates": [-88.534283,31.553199]}},
{ "type": "Feature", "properties": {"Abbeville town":"Bude town","Mississippi":"Mississippi","MS":"MS"},
"geometry":{ "type": "Point", "coordinates": [-90.85228,31.462447]}},
{ "type": "Feature", "properties": {"Abbeville town":"Burnsville town","Mississippi":"Mississippi","MS":"MS"},
"geometry":{ "type": "Point", "coordinates": [-88.318699,34.832032]}},
{ "type": "Feature", "properties": {"Abbeville town":"Byhalia town","Mississippi":"Mississippi","MS":"MS"},
"geometry":{ "type": "Point", "coordinates": [-89.689993,34.869188]}},
{ "type": "Feature", "properties": {"Abbeville town":"Byram city","Mississippi":"Mississippi","MS":"MS"},
"geometry":{ "type": "Point", "coordinates": [-90.286965,32.192137]}},
{ "type": "Feature", "properties": {"Abbeville town":"Caledonia town","Mississippi":"Mississippi","MS":"MS"},
"geometry":{ "type": "Point", "coordinates": [-88.326024,33.683607]}},
{ "type": "Feature", "properties": {"Abbeville town":"Calhoun City town","Mississippi":"Mississippi","MS":"MS"},
"geometry":{ "type": "Point", "coordinates": [-89.314623,33.859347]}},
{ "type": "Feature", "properties": {"Abbeville town":"Canton city","Mississippi":"Mississippi","MS":"MS"},
"geometry":{ "type": "Point", "coordinates": [-90.032191,32.598419]}},
{ "type": "Feature", "properties": {"Abbeville town":"Carrollton town","Mississippi":"Mississippi","MS":"MS"},
"geometry":{ "type": "Point", "coordinates": [-89.921812,33.505647]}},
{ "type": "Feature", "properties": {"Abbeville town":"Carthage city","Mississippi":"Mississippi","MS":"MS"},
"geometry":{ "type": "Point", "coordinates": [-89.533452,32.744227]}},
{ "type": "Feature", "properties": {"Abbeville town":"Cary town","Mississippi":"Mississippi","MS":"MS"},
"geometry":{ "type": "Point", "coordinates": [-90.924612,32.805642]}},
{ "type": "Feature", "properties": {"Abbeville town":"Centreville town","Mississippi":"Mississippi","MS":"MS"},
"geometry":{ "type": "Point", "coordinates": [-91.06544,31.087019]}},
{ "type": "Feature", "properties": {"Abbeville town":"Chalybeate CDP","Mississippi":"Mississippi","MS":"MS"},
"geometry":{ "type": "Point", "coordinates": [-88.870548,34.932683]}},
{ "type": "Feature", "properties": {"Abbeville town":"Charleston city","Mississippi":"Mississippi","MS":"MS"},
"geometry":{ "type": "Point", "coordinates": [-90.055166,34.007653]}},
{ "type": "Feature", "properties": {"Abbeville town":"Chunky town","Mississippi":"Mississippi","MS":"MS"},
"geometry":{ "type": "Point", "coordinates": [-88.930172,32.327488]}},
{ "type": "Feature", "properties": {"Abbeville town":"Clara CDP","Mississippi":"Mississippi","MS":"MS"},
"geometry":{ "type": "Point", "coordinates": [-88.69161,31.58313]}},
{ "type": "Feature", "properties": {"Abbeville town":"Clarksdale city","Mississippi":"Mississippi","MS":"MS"},
"geometry":{ "type": "Point", "coordinates": [-90.568598,34.193796]}},
{ "type": "Feature", "properties": {"Abbeville town":"Cleary CDP","Mississippi":"Mississippi","MS":"MS"},
"geometry":{ "type": "Point", "coordinates": [-90.196452,32.157656]}},
{ "type": "Feature", "properties": {"Abbeville town":"Cleveland city","Mississippi":"Mississippi","MS":"MS"},
"geometry":{ "type": "Point", "coordinates": [-90.728476,33.744008]}},
{ "type": "Feature", "properties": {"Abbeville town":"Clinton city","Mississippi":"Mississippi","MS":"MS"},
"geometry":{ "type": "Point", "coordinates": [-90.341893,32.354443]}},
{ "type": "Feature", "properties": {"Abbeville town":"Cloverdale CDP","Mississippi":"Mississippi","MS":"MS"},
"geometry":{ "type": "Point", "coordinates": [-91.415192,31.495926]}},
{ "type": "Feature", "properties": {"Abbeville town":"Coahoma town","Mississippi":"Mississippi","MS":"MS"},
"geometry":{ "type": "Point", "coordinates": [-90.522019,34.366293]}},
{ "type": "Feature", "properties": {"Abbeville town":"Coffeeville town","Mississippi":"Mississippi","MS":"MS"},
"geometry":{ "type": "Point", "coordinates": [-89.684482,33.976494]}},
{ "type": "Feature", "properties": {"Abbeville town":"Coldwater town","Mississippi":"Mississippi","MS":"MS"},
"geometry":{ "type": "Point", "coordinates": [-89.975517,34.690376]}},
{ "type": "Feature", "properties": {"Abbeville town":"Collins city","Mississippi":"Mississippi","MS":"MS"},
"geometry":{ "type": "Point", "coordinates": [-89.567581,31.648272]}},
{ "type": "Feature", "properties": {"Abbeville town":"Collinsville CDP","Mississippi":"Mississippi","MS":"MS"},
"geometry":{ "type": "Point", "coordinates": [-88.844307,32.487323]}},
{ "type": "Feature", "properties": {"Abbeville town":"Columbia city","Mississippi":"Mississippi","MS":"MS"},
"geometry":{ "type": "Point", "coordinates": [-89.825443,31.256909]}},
{ "type": "Feature", "properties": {"Abbeville town":"Columbus city","Mississippi":"Mississippi","MS":"MS"},
"geometry":{ "type": "Point", "coordinates": [-88.407128,33.508208]}},
{ "type": "Feature", "properties": {"Abbeville town":"Columbus AFB CDP","Mississippi":"Mississippi","MS":"MS"},
"geometry":{ "type": "Point", "coordinates": [-88.445435,33.627598]}},
{ "type": "Feature", "properties": {"Abbeville town":"Como town","Mississippi":"Mississippi","MS":"MS"},
"geometry":{ "type": "Point", "coordinates": [-89.939947,34.513561]}},
{ "type": "Feature", "properties": {"Abbeville town":"Conehatta CDP","Mississippi":"Mississippi","MS":"MS"},
"geometry":{ "type": "Point", "coordinates": [-89.266934,32.466607]}},
{ "type": "Feature", "properties": {"Abbeville town":"Corinth city","Mississippi":"Mississippi","MS":"MS"},
"geometry":{ "type": "Point", "coordinates": [-88.513618,34.948353]}},
{ "type": "Feature", "properties": {"Abbeville town":"Courtland town","Mississippi":"Mississippi","MS":"MS"},
"geometry":{ "type": "Point", "coordinates": [-89.943282,34.24108]}},
{ "type": "Feature", "properties": {"Abbeville town":"Crawford town","Mississippi":"Mississippi","MS":"MS"},
"geometry":{ "type": "Point", "coordinates": [-88.625268,33.30232]}},
{ "type": "Feature", "properties": {"Abbeville town":"Crenshaw town","Mississippi":"Mississippi","MS":"MS"},
"geometry":{ "type": "Point", "coordinates": [-90.194637,34.504661]}},
{ "type": "Feature", "properties": {"Abbeville town":"Crosby town","Mississippi":"Mississippi","MS":"MS"},
"geometry":{ "type": "Point", "coordinates": [-91.061513,31.274362]}},
{ "type": "Feature", "properties": {"Abbeville town":"Crowder town","Mississippi":"Mississippi","MS":"MS"},
"geometry":{ "type": "Point", "coordinates": [-90.137688,34.172909]}},
{ "type": "Feature", "properties": {"Abbeville town":"Cruger town","Mississippi":"Mississippi","MS":"MS"},
"geometry":{ "type": "Point", "coordinates": [-90.235522,33.322998]}},
{ "type": "Feature", "properties": {"Abbeville town":"Crystal Springs city","Mississippi":"Mississippi","MS":"MS"},
"geometry":{ "type": "Point", "coordinates": [-90.355332,31.98995]}},
{ "type": "Feature", "properties": {"Abbeville town":"Darling CDP","Mississippi":"Mississippi","MS":"MS"},
"geometry":{ "type": "Point", "coordinates": [-90.275408,34.359137]}},
{ "type": "Feature", "properties": {"Abbeville town":"Decatur town","Mississippi":"Mississippi","MS":"MS"},
"geometry":{ "type": "Point", "coordinates": [-89.111233,32.433965]}},
{ "type": "Feature", "properties": {"Abbeville town":"De Kalb town","Mississippi":"Mississippi","MS":"MS"},
"geometry":{ "type": "Point", "coordinates": [-88.656096,32.773104]}},
{ "type": "Feature", "properties": {"Abbeville town":"DeLisle CDP","Mississippi":"Mississippi","MS":"MS"},
"geometry":{ "type": "Point", "coordinates": [-89.275687,30.382359]}},
{ "type": "Feature", "properties": {"Abbeville town":"Delta City CDP","Mississippi":"Mississippi","MS":"MS"},
"geometry":{ "type": "Point", "coordinates": [-90.792531,33.073864]}},
{ "type": "Feature", "properties": {"Abbeville town":"Dennis CDP","Mississippi":"Mississippi","MS":"MS"},
"geometry":{ "type": "Point", "coordinates": [-88.230306,34.558945]}},
{ "type": "Feature", "properties": {"Abbeville town":"Derma town","Mississippi":"Mississippi","MS":"MS"},
"geometry":{ "type": "Point", "coordinates": [-89.28776,33.858875]}},
{ "type": "Feature", "properties": {"Abbeville town":"De Soto CDP","Mississippi":"Mississippi","MS":"MS"},
"geometry":{ "type": "Point", "coordinates": [-88.723936,31.966848]}},
{ "type": "Feature", "properties": {"Abbeville town":"Diamondhead city","Mississippi":"Mississippi","MS":"MS"},
"geometry":{ "type": "Point", "coordinates": [-89.35022,30.382065]}},
{ "type": "Feature", "properties": {"Abbeville town":"D'Iberville city","Mississippi":"Mississippi","MS":"MS"},
"geometry":{ "type": "Point", "coordinates": [-88.895358,30.443519]}},
{ "type": "Feature", "properties": {"Abbeville town":"D'Lo town","Mississippi":"Mississippi","MS":"MS"},
"geometry":{ "type": "Point", "coordinates": [-89.901131,31.986952]}},
{ "type": "Feature", "properties": {"Abbeville town":"Doddsville town","Mississippi":"Mississippi","MS":"MS"},
"geometry":{ "type": "Point", "coordinates": [-90.521439,33.659864]}},
{ "type": "Feature", "properties": {"Abbeville town":"Drew city","Mississippi":"Mississippi","MS":"MS"},
"geometry":{ "type": "Point", "coordinates": [-90.530384,33.810092]}},
{ "type": "Feature", "properties": {"Abbeville town":"Dublin CDP","Mississippi":"Mississippi","MS":"MS"},
"geometry":{ "type": "Point", "coordinates": [-90.489162,34.072591]}},
{ "type": "Feature", "properties": {"Abbeville town":"Duck Hill town","Mississippi":"Mississippi","MS":"MS"},
"geometry":{ "type": "Point", "coordinates": [-89.715396,33.631649]}},
{ "type": "Feature", "properties": {"Abbeville town":"Dumas town","Mississippi":"Mississippi","MS":"MS"},
"geometry":{ "type": "Point", "coordinates": [-88.843092,34.638016]}},
{ "type": "Feature", "properties": {"Abbeville town":"Duncan town","Mississippi":"Mississippi","MS":"MS"},
"geometry":{ "type": "Point", "coordinates": [-90.745896,34.04181]}},
{ "type": "Feature", "properties": {"Abbeville town":"Dundee CDP","Mississippi":"Mississippi","MS":"MS"},
"geometry":{ "type": "Point", "coordinates": [-90.448387,34.532138]}},
{ "type": "Feature", "properties": {"Abbeville town":"Durant city","Mississippi":"Mississippi","MS":"MS"},
"geometry":{ "type": "Point", "coordinates": [-89.857335,33.081948]}},
{ "type": "Feature", "properties": {"Abbeville town":"Eagle Bend CDP","Mississippi":"Mississippi","MS":"MS"},
"geometry":{ "type": "Point", "coordinates": [-91.024663,32.527508]}},
{ "type": "Feature", "properties": {"Abbeville town":"Eastabuchie CDP","Mississippi":"Mississippi","MS":"MS"},
"geometry":{ "type": "Point", "coordinates": [-89.289825,31.429381]}},
{ "type": "Feature", "properties": {"Abbeville town":"Ecru town","Mississippi":"Mississippi","MS":"MS"},
"geometry":{ "type": "Point", "coordinates": [-89.023135,34.354297]}},
{ "type": "Feature", "properties": {"Abbeville town":"Eden village","Mississippi":"Mississippi","MS":"MS"},
"geometry":{ "type": "Point", "coordinates": [-90.323957,32.98371]}},
{ "type": "Feature", "properties": {"Abbeville town":"Edwards town","Mississippi":"Mississippi","MS":"MS"},
"geometry":{ "type": "Point", "coordinates": [-90.60556,32.332612]}},
{ "type": "Feature", "properties": {"Abbeville town":"Elizabeth CDP","Mississippi":"Mississippi","MS":"MS"},
"geometry":{ "type": "Point", "coordinates": [-90.880717,33.427103]}},
{ "type": "Feature", "properties": {"Abbeville town":"Elliott CDP","Mississippi":"Mississippi","MS":"MS"},
"geometry":{ "type": "Point", "coordinates": [-89.752453,33.691254]}},
{ "type": "Feature", "properties": {"Abbeville town":"Ellisville city","Mississippi":"Mississippi","MS":"MS"},
"geometry":{ "type": "Point", "coordinates": [-89.210269,31.597277]}},
{ "type": "Feature", "properties": {"Abbeville town":"Enterprise town","Mississippi":"Mississippi","MS":"MS"},
"geometry":{ "type": "Point", "coordinates": [-88.815818,32.172542]}},
{ "type": "Feature", "properties": {"Abbeville town":"Escatawpa CDP","Mississippi":"Mississippi","MS":"MS"},
"geometry":{ "type": "Point", "coordinates": [-88.544067,30.490622]}},
{ "type": "Feature", "properties": {"Abbeville town":"Ethel town","Mississippi":"Mississippi","MS":"MS"},
"geometry":{ "type": "Point", "coordinates": [-89.465023,33.122088]}},
{ "type": "Feature", "properties": {"Abbeville town":"Eudora CDP","Mississippi":"Mississippi","MS":"MS"},
"geometry":{ "type": "Point", "coordinates": [-90.148826,34.831033]}},
{ "type": "Feature", "properties": {"Abbeville town":"Eupora city","Mississippi":"Mississippi","MS":"MS"},
"geometry":{ "type": "Point", "coordinates": [-89.279336,33.542557]}},
{ "type": "Feature", "properties": {"Abbeville town":"Falcon town","Mississippi":"Mississippi","MS":"MS"},
"geometry":{ "type": "Point", "coordinates": [-90.255638,34.391137]}},
{ "type": "Feature", "properties": {"Abbeville town":"Falkner town","Mississippi":"Mississippi","MS":"MS"},
"geometry":{ "type": "Point", "coordinates": [-88.948409,34.839349]}},
{ "type": "Feature", "properties": {"Abbeville town":"Farmington town","Mississippi":"Mississippi","MS":"MS"},
"geometry":{ "type": "Point", "coordinates": [-88.446131,34.922555]}},
{ "type": "Feature", "properties": {"Abbeville town":"Farrell CDP","Mississippi":"Mississippi","MS":"MS"},
"geometry":{ "type": "Point", "coordinates": [-90.675041,34.261707]}},
{ "type": "Feature", "properties": {"Abbeville town":"Fayette city","Mississippi":"Mississippi","MS":"MS"},
"geometry":{ "type": "Point", "coordinates": [-91.062061,31.712206]}},
{ "type": "Feature", "properties": {"Abbeville town":"Fernwood CDP","Mississippi":"Mississippi","MS":"MS"},
"geometry":{ "type": "Point", "coordinates": [-90.457067,31.186116]}},
{ "type": "Feature", "properties": {"Abbeville town":"Flora town","Mississippi":"Mississippi","MS":"MS"},
"geometry":{ "type": "Point", "coordinates": [-90.313703,32.542729]}},
{ "type": "Feature", "properties": {"Abbeville town":"Florence city","Mississippi":"Mississippi","MS":"MS"},
"geometry":{ "type": "Point", "coordinates": [-90.122454,32.155615]}},
{ "type": "Feature", "properties": {"Abbeville town":"Flowood city","Mississippi":"Mississippi","MS":"MS"},
"geometry":{ "type": "Point", "coordinates": [-90.072874,32.336101]}},
{ "type": "Feature", "properties": {"Abbeville town":"Forest city","Mississippi":"Mississippi","MS":"MS"},
"geometry":{ "type": "Point", "coordinates": [-89.475908,32.359838]}},
{ "type": "Feature", "properties": {"Abbeville town":"Foxworth CDP","Mississippi":"Mississippi","MS":"MS"},
"geometry":{ "type": "Point", "coordinates": [-89.88283,31.238552]}},
{ "type": "Feature", "properties": {"Abbeville town":"French Camp town","Mississippi":"Mississippi","MS":"MS"},
"geometry":{ "type": "Point", "coordinates": [-89.39928,33.292334]}},
{ "type": "Feature", "properties": {"Abbeville town":"Friars Point town","Mississippi":"Mississippi","MS":"MS"},
"geometry":{ "type": "Point", "coordinates": [-90.637047,34.366576]}},
{ "type": "Feature", "properties": {"Abbeville town":"Fulton city","Mississippi":"Mississippi","MS":"MS"},
"geometry":{ "type": "Point", "coordinates": [-88.401928,34.26288]}},
{ "type": "Feature", "properties": {"Abbeville town":"Gattman village","Mississippi":"Mississippi","MS":"MS"},
"geometry":{ "type": "Point", "coordinates": [-88.236574,33.884848]}},
{ "type": "Feature", "properties": {"Abbeville town":"Gautier city","Mississippi":"Mississippi","MS":"MS"},
"geometry":{ "type": "Point", "coordinates": [-88.659341,30.406214]}},
{ "type": "Feature", "properties": {"Abbeville town":"Georgetown town","Mississippi":"Mississippi","MS":"MS"},
"geometry":{ "type": "Point", "coordinates": [-90.16478,31.870057]}},
{ "type": "Feature", "properties": {"Abbeville town":"Glen town","Mississippi":"Mississippi","MS":"MS"},
"geometry":{ "type": "Point", "coordinates": [-88.417566,34.85822]}},
{ "type": "Feature", "properties": {"Abbeville town":"Glen Allan CDP","Mississippi":"Mississippi","MS":"MS"},
"geometry":{ "type": "Point", "coordinates": [-91.013808,33.022143]}},
{ "type": "Feature", "properties": {"Abbeville town":"Glendale CDP","Mississippi":"Mississippi","MS":"MS"},
"geometry":{ "type": "Point", "coordinates": [-89.308628,31.368016]}},
{ "type": "Feature", "properties": {"Abbeville town":"Glendora village","Mississippi":"Mississippi","MS":"MS"},
"geometry":{ "type": "Point", "coordinates": [-90.292696,33.827645]}},
{ "type": "Feature", "properties": {"Abbeville town":"Gloster town","Mississippi":"Mississippi","MS":"MS"},
"geometry":{ "type": "Point", "coordinates": [-91.017679,31.195066]}},
{ "type": "Feature", "properties": {"Abbeville town":"Gluckstadt CDP","Mississippi":"Mississippi","MS":"MS"},
"geometry":{ "type": "Point", "coordinates": [-90.105195,32.537033]}},
{ "type": "Feature", "properties": {"Abbeville town":"Golden town","Mississippi":"Mississippi","MS":"MS"},
"geometry":{ "type": "Point", "coordinates": [-88.186318,34.486643]}},
{ "type": "Feature", "properties": {"Abbeville town":"Goodman town","Mississippi":"Mississippi","MS":"MS"},
"geometry":{ "type": "Point", "coordinates": [-89.912726,32.968207]}},
{ "type": "Feature", "properties": {"Abbeville town":"Grace CDP","Mississippi":"Mississippi","MS":"MS"},
"geometry":{ "type": "Point", "coordinates": [-90.956893,32.991436]}},
{ "type": "Feature", "properties": {"Abbeville town":"Greenville city","Mississippi":"Mississippi","MS":"MS"},
"geometry":{ "type": "Point", "coordinates": [-91.052314,33.383461]}},
{ "type": "Feature", "properties": {"Abbeville town":"Greenwood city","Mississippi":"Mississippi","MS":"MS"},
"geometry":{ "type": "Point", "coordinates": [-90.198963,33.51246]}},
{ "type": "Feature", "properties": {"Abbeville town":"Grenada city","Mississippi":"Mississippi","MS":"MS"},
"geometry":{ "type": "Point", "coordinates": [-89.811547,33.781445]}},
{ "type": "Feature", "properties": {"Abbeville town":"Gulf Hills CDP","Mississippi":"Mississippi","MS":"MS"},
"geometry":{ "type": "Point", "coordinates": [-88.81207,30.428928]}},
{ "type": "Feature", "properties": {"Abbeville town":"Gulf Park Estates CDP","Mississippi":"Mississippi","MS":"MS"},
"geometry":{ "type": "Point", "coordinates": [-88.7579,30.379331]}},
{ "type": "Feature", "properties": {"Abbeville town":"Gulfport city","Mississippi":"Mississippi","MS":"MS"},
"geometry":{ "type": "Point", "coordinates": [-89.069022,30.419487]}},
{ "type": "Feature", "properties": {"Abbeville town":"Gunnison town","Mississippi":"Mississippi","MS":"MS"},
"geometry":{ "type": "Point", "coordinates": [-90.946644,33.943114]}},
{ "type": "Feature", "properties": {"Abbeville town":"Guntown town","Mississippi":"Mississippi","MS":"MS"},
"geometry":{ "type": "Point", "coordinates": [-88.6638,34.445101]}},
{ "type": "Feature", "properties": {"Abbeville town":"Hamilton CDP","Mississippi":"Mississippi","MS":"MS"},
"geometry":{ "type": "Point", "coordinates": [-88.407578,33.746576]}},
{ "type": "Feature", "properties": {"Abbeville town":"Harperville CDP","Mississippi":"Mississippi","MS":"MS"},
"geometry":{ "type": "Point", "coordinates": [-89.487866,32.492804]}},
{ "type": "Feature", "properties": {"Abbeville town":"Hatley town","Mississippi":"Mississippi","MS":"MS"},
"geometry":{ "type": "Point", "coordinates": [-88.418392,33.977321]}},
{ "type": "Feature", "properties": {"Abbeville town":"Hattiesburg city","Mississippi":"Mississippi","MS":"MS"},
"geometry":{ "type": "Point", "coordinates": [-89.317434,31.307305]}},
{ "type": "Feature", "properties": {"Abbeville town":"Hazlehurst city","Mississippi":"Mississippi","MS":"MS"},
"geometry":{ "type": "Point", "coordinates": [-90.392793,31.863858]}},
{ "type": "Feature", "properties": {"Abbeville town":"Heidelberg town","Mississippi":"Mississippi","MS":"MS"},
"geometry":{ "type": "Point", "coordinates": [-88.990218,31.890513]}},
{ "type": "Feature", "properties": {"Abbeville town":"Helena CDP","Mississippi":"Mississippi","MS":"MS"},
"geometry":{ "type": "Point", "coordinates": [-88.505567,30.488076]}},
{ "type": "Feature", "properties": {"Abbeville town":"Henderson Point CDP","Mississippi":"Mississippi","MS":"MS"},
"geometry":{ "type": "Point", "coordinates": [-89.286165,30.313959]}},
{ "type": "Feature", "properties": {"Abbeville town":"Hermanville CDP","Mississippi":"Mississippi","MS":"MS"},
"geometry":{ "type": "Point", "coordinates": [-90.84036,31.957836]}},
{ "type": "Feature", "properties": {"Abbeville town":"Hernando city","Mississippi":"Mississippi","MS":"MS"},
"geometry":{ "type": "Point", "coordinates": [-89.992401,34.849588]}},
{ "type": "Feature", "properties": {"Abbeville town":"Hickory town","Mississippi":"Mississippi","MS":"MS"},
"geometry":{ "type": "Point", "coordinates": [-89.021735,32.316704]}},
{ "type": "Feature", "properties": {"Abbeville town":"Hickory Flat town","Mississippi":"Mississippi","MS":"MS"},
"geometry":{ "type": "Point", "coordinates": [-89.191388,34.615926]}},
{ "type": "Feature", "properties": {"Abbeville town":"Hide-A-Way Lake CDP","Mississippi":"Mississippi","MS":"MS"},
"geometry":{ "type": "Point", "coordinates": [-89.638574,30.578646]}},
{ "type": "Feature", "properties": {"Abbeville town":"Hillsboro CDP","Mississippi":"Mississippi","MS":"MS"},
"geometry":{ "type": "Point", "coordinates": [-89.486469,32.450697]}},
{ "type": "Feature", "properties": {"Abbeville town":"Holcomb CDP","Mississippi":"Mississippi","MS":"MS"},
"geometry":{ "type": "Point", "coordinates": [-89.973181,33.764211]}},
{ "type": "Feature", "properties": {"Abbeville town":"Hollandale city","Mississippi":"Mississippi","MS":"MS"},
"geometry":{ "type": "Point", "coordinates": [-90.852898,33.176105]}},
{ "type": "Feature", "properties": {"Abbeville town":"Holly Springs city","Mississippi":"Mississippi","MS":"MS"},
"geometry":{ "type": "Point", "coordinates": [-89.445819,34.778017]}},
{ "type": "Feature", "properties": {"Abbeville town":"Horn Lake city","Mississippi":"Mississippi","MS":"MS"},
"geometry":{ "type": "Point", "coordinates": [-90.049209,34.952081]}},
{ "type": "Feature", "properties": {"Abbeville town":"Houston city","Mississippi":"Mississippi","MS":"MS"},
"geometry":{ "type": "Point", "coordinates": [-89.00349,33.896187]}},
{ "type": "Feature", "properties": {"Abbeville town":"Hurley CDP","Mississippi":"Mississippi","MS":"MS"},
"geometry":{ "type": "Point", "coordinates": [-88.498689,30.662715]}},
{ "type": "Feature", "properties": {"Abbeville town":"Independence CDP","Mississippi":"Mississippi","MS":"MS"},
"geometry":{ "type": "Point", "coordinates": [-89.807518,34.707776]}},
{ "type": "Feature", "properties": {"Abbeville town":"Indianola city","Mississippi":"Mississippi","MS":"MS"},
"geometry":{ "type": "Point", "coordinates": [-90.643789,33.448963]}},
{ "type": "Feature", "properties": {"Abbeville town":"Inverness town","Mississippi":"Mississippi","MS":"MS"},
"geometry":{ "type": "Point", "coordinates": [-90.591192,33.354229]}},
{ "type": "Feature", "properties": {"Abbeville town":"Isola town","Mississippi":"Mississippi","MS":"MS"},
"geometry":{ "type": "Point", "coordinates": [-90.592342,33.263404]}},
{ "type": "Feature", "properties": {"Abbeville town":"Itta Bena city","Mississippi":"Mississippi","MS":"MS"},
"geometry":{ "type": "Point", "coordinates": [-90.324288,33.500868]}},
{ "type": "Feature", "properties": {"Abbeville town":"Iuka city","Mississippi":"Mississippi","MS":"MS"},
"geometry":{ "type": "Point", "coordinates": [-88.19692,34.807384]}},
{ "type": "Feature", "properties": {"Abbeville town":"Jacinto CDP","Mississippi":"Mississippi","MS":"MS"},
"geometry":{ "type": "Point", "coordinates": [-88.427561,34.762209]}},
{ "type": "Feature", "properties": {"Abbeville town":"Jackson city","Mississippi":"Mississippi","MS":"MS"},
"geometry":{ "type": "Point", "coordinates": [-90.21285,32.315834]}},
{ "type": "Feature", "properties": {"Abbeville town":"Jonestown town","Mississippi":"Mississippi","MS":"MS"},
"geometry":{ "type": "Point", "coordinates": [-90.454274,34.322154]}},
{ "type": "Feature", "properties": {"Abbeville town":"Jumpertown town","Mississippi":"Mississippi","MS":"MS"},
"geometry":{ "type": "Point", "coordinates": [-88.667551,34.706142]}},
{ "type": "Feature", "properties": {"Abbeville town":"Kearney Park CDP","Mississippi":"Mississippi","MS":"MS"},
"geometry":{ "type": "Point", "coordinates": [-90.3164,32.590044]}},
{ "type": "Feature", "properties": {"Abbeville town":"Kilmichael town","Mississippi":"Mississippi","MS":"MS"},
"geometry":{ "type": "Point", "coordinates": [-89.560303,33.440472]}},
{ "type": "Feature", "properties": {"Abbeville town":"Kiln CDP","Mississippi":"Mississippi","MS":"MS"},
"geometry":{ "type": "Point", "coordinates": [-89.429785,30.418436]}},
{ "type": "Feature", "properties": {"Abbeville town":"Kirkville CDP","Mississippi":"Mississippi","MS":"MS"},
"geometry":{ "type": "Point", "coordinates": [-88.485463,34.44201]}},
{ "type": "Feature", "properties": {"Abbeville town":"Kokomo CDP","Mississippi":"Mississippi","MS":"MS"},
"geometry":{ "type": "Point", "coordinates": [-89.997131,31.203044]}},
{ "type": "Feature", "properties": {"Abbeville town":"Kosciusko city","Mississippi":"Mississippi","MS":"MS"},
"geometry":{ "type": "Point", "coordinates": [-89.589364,33.058169]}},
{ "type": "Feature", "properties": {"Abbeville town":"Kossuth village","Mississippi":"Mississippi","MS":"MS"},
"geometry":{ "type": "Point", "coordinates": [-88.643257,34.869369]}},
{ "type": "Feature", "properties": {"Abbeville town":"Lake town","Mississippi":"Mississippi","MS":"MS"},
"geometry":{ "type": "Point", "coordinates": [-89.31435,32.329992]}},
{ "type": "Feature", "properties": {"Abbeville town":"Lakeview CDP","Mississippi":"Mississippi","MS":"MS"},
"geometry":{ "type": "Point", "coordinates": [-90.136506,34.987982]}},
{ "type": "Feature", "properties": {"Abbeville town":"Lamar CDP","Mississippi":"Mississippi","MS":"MS"},
"geometry":{ "type": "Point", "coordinates": [-89.315092,34.912208]}},
{ "type": "Feature", "properties": {"Abbeville town":"Lambert town","Mississippi":"Mississippi","MS":"MS"},
"geometry":{ "type": "Point", "coordinates": [-90.284527,34.200596]}},
{ "type": "Feature", "properties": {"Abbeville town":"Latimer CDP","Mississippi":"Mississippi","MS":"MS"},
"geometry":{ "type": "Point", "coordinates": [-88.848531,30.487291]}},
{ "type": "Feature", "properties": {"Abbeville town":"Lauderdale CDP","Mississippi":"Mississippi","MS":"MS"},
"geometry":{ "type": "Point", "coordinates": [-88.526366,32.510394]}},
{ "type": "Feature", "properties": {"Abbeville town":"Laurel city","Mississippi":"Mississippi","MS":"MS"},
"geometry":{ "type": "Point", "coordinates": [-89.144955,31.695077]}},
{ "type": "Feature", "properties": {"Abbeville town":"Leaf CDP","Mississippi":"Mississippi","MS":"MS"},
"geometry":{ "type": "Point", "coordinates": [-88.797998,31.027546]}},
{ "type": "Feature", "properties": {"Abbeville town":"Leakesville town","Mississippi":"Mississippi","MS":"MS"},
"geometry":{ "type": "Point", "coordinates": [-88.555853,31.149202]}},
{ "type": "Feature", "properties": {"Abbeville town":"Learned town","Mississippi":"Mississippi","MS":"MS"},
"geometry":{ "type": "Point", "coordinates": [-90.548009,32.197122]}},
{ "type": "Feature", "properties": {"Abbeville town":"Leland city","Mississippi":"Mississippi","MS":"MS"},
"geometry":{ "type": "Point", "coordinates": [-90.890925,33.404834]}},
{ "type": "Feature", "properties": {"Abbeville town":"Lena town","Mississippi":"Mississippi","MS":"MS"},
"geometry":{ "type": "Point", "coordinates": [-89.594813,32.593972]}},
{ "type": "Feature", "properties": {"Abbeville town":"Lexington city","Mississippi":"Mississippi","MS":"MS"},
"geometry":{ "type": "Point", "coordinates": [-90.049619,33.11709]}},
{ "type": "Feature", "properties": {"Abbeville town":"Liberty town","Mississippi":"Mississippi","MS":"MS"},
"geometry":{ "type": "Point", "coordinates": [-90.798332,31.161899]}},
{ "type": "Feature", "properties": {"Abbeville town":"Long Beach city","Mississippi":"Mississippi","MS":"MS"},
"geometry":{ "type": "Point", "coordinates": [-89.162678,30.354468]}},
{ "type": "Feature", "properties": {"Abbeville town":"Longview CDP","Mississippi":"Mississippi","MS":"MS"},
"geometry":{ "type": "Point", "coordinates": [-88.934019,33.401125]}},
{ "type": "Feature", "properties": {"Abbeville town":"Louin town","Mississippi":"Mississippi","MS":"MS"},
"geometry":{ "type": "Point", "coordinates": [-89.273183,32.075202]}},
{ "type": "Feature", "properties": {"Abbeville town":"Louise town","Mississippi":"Mississippi","MS":"MS"},
"geometry":{ "type": "Point", "coordinates": [-90.590427,32.981425]}},
{ "type": "Feature", "properties": {"Abbeville town":"Louisville city","Mississippi":"Mississippi","MS":"MS"},
"geometry":{ "type": "Point", "coordinates": [-89.054879,33.122934]}},
{ "type": "Feature", "properties": {"Abbeville town":"Lucedale city","Mississippi":"Mississippi","MS":"MS"},
"geometry":{ "type": "Point", "coordinates": [-88.595896,30.931213]}},
{ "type": "Feature", "properties": {"Abbeville town":"Lula town","Mississippi":"Mississippi","MS":"MS"},
"geometry":{ "type": "Point", "coordinates": [-90.477882,34.45451]}},
{ "type": "Feature", "properties": {"Abbeville town":"Lumberton city","Mississippi":"Mississippi","MS":"MS"},
"geometry":{ "type": "Point", "coordinates": [-89.459013,31.005866]}},
{ "type": "Feature", "properties": {"Abbeville town":"Lyman CDP","Mississippi":"Mississippi","MS":"MS"},
"geometry":{ "type": "Point", "coordinates": [-89.130463,30.507887]}},
{ "type": "Feature", "properties": {"Abbeville town":"Lynchburg CDP","Mississippi":"Mississippi","MS":"MS"},
"geometry":{ "type": "Point", "coordinates": [-90.107084,34.961972]}},
{ "type": "Feature", "properties": {"Abbeville town":"Lyon town","Mississippi":"Mississippi","MS":"MS"},
"geometry":{ "type": "Point", "coordinates": [-90.543195,34.216925]}},
{ "type": "Feature", "properties": {"Abbeville town":"Maben town","Mississippi":"Mississippi","MS":"MS"},
"geometry":{ "type": "Point", "coordinates": [-89.081042,33.554173]}},
{ "type": "Feature", "properties": {"Abbeville town":"McComb city","Mississippi":"Mississippi","MS":"MS"},
"geometry":{ "type": "Point", "coordinates": [-90.471593,31.244474]}},
{ "type": "Feature", "properties": {"Abbeville town":"McCool town","Mississippi":"Mississippi","MS":"MS"},
"geometry":{ "type": "Point", "coordinates": [-89.340651,33.198855]}},
{ "type": "Feature", "properties": {"Abbeville town":"McLain town","Mississippi":"Mississippi","MS":"MS"},
"geometry":{ "type": "Point", "coordinates": [-88.82415,31.103838]}},
{ "type": "Feature", "properties": {"Abbeville town":"Macon city","Mississippi":"Mississippi","MS":"MS"},
"geometry":{ "type": "Point", "coordinates": [-88.556713,33.122065]}},
{ "type": "Feature", "properties": {"Abbeville town":"Madison city","Mississippi":"Mississippi","MS":"MS"},
"geometry":{ "type": "Point", "coordinates": [-90.130865,32.473884]}},
{ "type": "Feature", "properties": {"Abbeville town":"Magee city","Mississippi":"Mississippi","MS":"MS"},
"geometry":{ "type": "Point", "coordinates": [-89.734001,31.873006]}},
{ "type": "Feature", "properties": {"Abbeville town":"Magnolia city","Mississippi":"Mississippi","MS":"MS"},
"geometry":{ "type": "Point", "coordinates": [-90.469529,31.161161]}},
{ "type": "Feature", "properties": {"Abbeville town":"Mantachie town","Mississippi":"Mississippi","MS":"MS"},
"geometry":{ "type": "Point", "coordinates": [-88.502565,34.321343]}},
{ "type": "Feature", "properties": {"Abbeville town":"Mantee village","Mississippi":"Mississippi","MS":"MS"},
"geometry":{ "type": "Point", "coordinates": [-89.058695,33.720904]}},
{ "type": "Feature", "properties": {"Abbeville town":"Marietta town","Mississippi":"Mississippi","MS":"MS"},
"geometry":{ "type": "Point", "coordinates": [-88.472578,34.499971]}},
{ "type": "Feature", "properties": {"Abbeville town":"Marion town","Mississippi":"Mississippi","MS":"MS"},
"geometry":{ "type": "Point", "coordinates": [-88.651807,32.430234]}},
{ "type": "Feature", "properties": {"Abbeville town":"Marks city","Mississippi":"Mississippi","MS":"MS"},
"geometry":{ "type": "Point", "coordinates": [-90.272218,34.253521]}},
{ "type": "Feature", "properties": {"Abbeville town":"Mathiston town","Mississippi":"Mississippi","MS":"MS"},
"geometry":{ "type": "Point", "coordinates": [-89.12589,33.538877]}},
{ "type": "Feature", "properties": {"Abbeville town":"Mayersville town","Mississippi":"Mississippi","MS":"MS"},
"geometry":{ "type": "Point", "coordinates": [-91.046676,32.896409]}},
{ "type": "Feature", "properties": {"Abbeville town":"Meadville town","Mississippi":"Mississippi","MS":"MS"},
"geometry":{ "type": "Point", "coordinates": [-90.893088,31.472012]}},
{ "type": "Feature", "properties": {"Abbeville town":"Mendenhall city","Mississippi":"Mississippi","MS":"MS"},
"geometry":{ "type": "Point", "coordinates": [-89.869483,31.9607]}},
{ "type": "Feature", "properties": {"Abbeville town":"Meridian city","Mississippi":"Mississippi","MS":"MS"},
"geometry":{ "type": "Point", "coordinates": [-88.689448,32.38417]}},
{ "type": "Feature", "properties": {"Abbeville town":"Meridian Station CDP","Mississippi":"Mississippi","MS":"MS"},
"geometry":{ "type": "Point", "coordinates": [-88.607414,32.548645]}},
{ "type": "Feature", "properties": {"Abbeville town":"Merigold town","Mississippi":"Mississippi","MS":"MS"},
"geometry":{ "type": "Point", "coordinates": [-90.726393,33.839143]}},
{ "type": "Feature", "properties": {"Abbeville town":"Metcalfe town","Mississippi":"Mississippi","MS":"MS"},
"geometry":{ "type": "Point", "coordinates": [-91.001831,33.45059]}},
{ "type": "Feature", "properties": {"Abbeville town":"Mississippi State CDP","Mississippi":"Mississippi","MS":"MS"},
"geometry":{ "type": "Point", "coordinates": [-88.790998,33.451614]}},
{ "type": "Feature", "properties": {"Abbeville town":"Mississippi Valley State University CDP","Mississippi":"Mississippi","MS":"MS"},
"geometry":{ "type": "Point", "coordinates": [-90.344437,33.517282]}},
{ "type": "Feature", "properties": {"Abbeville town":"Mize town","Mississippi":"Mississippi","MS":"MS"},
"geometry":{ "type": "Point", "coordinates": [-89.554157,31.866425]}},
{ "type": "Feature", "properties": {"Abbeville town":"Monticello town","Mississippi":"Mississippi","MS":"MS"},
"geometry":{ "type": "Point", "coordinates": [-90.118674,31.553242]}},
{ "type": "Feature", "properties": {"Abbeville town":"Montrose town","Mississippi":"Mississippi","MS":"MS"},
"geometry":{ "type": "Point", "coordinates": [-89.234386,32.125665]}},
{ "type": "Feature", "properties": {"Abbeville town":"Mooreville CDP","Mississippi":"Mississippi","MS":"MS"},
"geometry":{ "type": "Point", "coordinates": [-88.576868,34.264896]}},
{ "type": "Feature", "properties": {"Abbeville town":"Moorhead city","Mississippi":"Mississippi","MS":"MS"},
"geometry":{ "type": "Point", "coordinates": [-90.50627,33.449416]}},
{ "type": "Feature", "properties": {"Abbeville town":"Morgan City town","Mississippi":"Mississippi","MS":"MS"},
"geometry":{ "type": "Point", "coordinates": [-90.346163,33.378651]}},
{ "type": "Feature", "properties": {"Abbeville town":"Morgantown CDP","Mississippi":"Mississippi","MS":"MS"},
"geometry":{ "type": "Point", "coordinates": [-91.352105,31.575019]}},
{ "type": "Feature", "properties": {"Abbeville town":"Morton city","Mississippi":"Mississippi","MS":"MS"},
"geometry":{ "type": "Point", "coordinates": [-89.659145,32.345528]}},
{ "type": "Feature", "properties": {"Abbeville town":"Moselle CDP","Mississippi":"Mississippi","MS":"MS"},
"geometry":{ "type": "Point", "coordinates": [-89.282407,31.508669]}},
{ "type": "Feature", "properties": {"Abbeville town":"Moss Point city","Mississippi":"Mississippi","MS":"MS"},
"geometry":{ "type": "Point", "coordinates": [-88.532733,30.425914]}},
{ "type": "Feature", "properties": {"Abbeville town":"Mound Bayou city","Mississippi":"Mississippi","MS":"MS"},
"geometry":{ "type": "Point", "coordinates": [-90.727868,33.880724]}},
{ "type": "Feature", "properties": {"Abbeville town":"Mount Olive town","Mississippi":"Mississippi","MS":"MS"},
"geometry":{ "type": "Point", "coordinates": [-89.655945,31.753807]}},
{ "type": "Feature", "properties": {"Abbeville town":"Mount Pleasant CDP","Mississippi":"Mississippi","MS":"MS"},
"geometry":{ "type": "Point", "coordinates": [-89.525599,34.953977]}},
{ "type": "Feature", "properties": {"Abbeville town":"Myrtle town","Mississippi":"Mississippi","MS":"MS"},
"geometry":{ "type": "Point", "coordinates": [-89.117865,34.560519]}},
{ "type": "Feature", "properties": {"Abbeville town":"Natchez city","Mississippi":"Mississippi","MS":"MS"},
"geometry":{ "type": "Point", "coordinates": [-91.385649,31.542438]}},
{ "type": "Feature", "properties": {"Abbeville town":"Nellieburg CDP","Mississippi":"Mississippi","MS":"MS"},
"geometry":{ "type": "Point", "coordinates": [-88.780029,32.396965]}},
{ "type": "Feature", "properties": {"Abbeville town":"Nettleton city","Mississippi":"Mississippi","MS":"MS"},
"geometry":{ "type": "Point", "coordinates": [-88.626297,34.08307]}},
{ "type": "Feature", "properties": {"Abbeville town":"New Albany city","Mississippi":"Mississippi","MS":"MS"},
"geometry":{ "type": "Point", "coordinates": [-89.02172,34.492286]}},
{ "type": "Feature", "properties": {"Abbeville town":"New Augusta town","Mississippi":"Mississippi","MS":"MS"},
"geometry":{ "type": "Point", "coordinates": [-89.029338,31.203377]}},
{ "type": "Feature", "properties": {"Abbeville town":"New Hamilton CDP","Mississippi":"Mississippi","MS":"MS"},
"geometry":{ "type": "Point", "coordinates": [-88.442835,33.747149]}},
{ "type": "Feature", "properties": {"Abbeville town":"New Hebron town","Mississippi":"Mississippi","MS":"MS"},
"geometry":{ "type": "Point", "coordinates": [-89.983326,31.733219]}},
{ "type": "Feature", "properties": {"Abbeville town":"New Hope CDP","Mississippi":"Mississippi","MS":"MS"},
"geometry":{ "type": "Point", "coordinates": [-88.34318,33.457264]}},
{ "type": "Feature", "properties": {"Abbeville town":"New Houlka town","Mississippi":"Mississippi","MS":"MS"},
"geometry":{ "type": "Point", "coordinates": [-89.021079,34.03625]}},
{ "type": "Feature", "properties": {"Abbeville town":"New Site CDP","Mississippi":"Mississippi","MS":"MS"},
"geometry":{ "type": "Point", "coordinates": [-88.415315,34.555252]}},
{ "type": "Feature", "properties": {"Abbeville town":"Newton city","Mississippi":"Mississippi","MS":"MS"},
"geometry":{ "type": "Point", "coordinates": [-89.147528,32.330112]}},
{ "type": "Feature", "properties": {"Abbeville town":"Nicholson CDP","Mississippi":"Mississippi","MS":"MS"},
"geometry":{ "type": "Point", "coordinates": [-89.698071,30.487366]}},
{ "type": "Feature", "properties": {"Abbeville town":"Nitta Yuma CDP","Mississippi":"Mississippi","MS":"MS"},
"geometry":{ "type": "Point", "coordinates": [-90.848748,33.023622]}},
{ "type": "Feature", "properties": {"Abbeville town":"North Carrollton town","Mississippi":"Mississippi","MS":"MS"},
"geometry":{ "type": "Point", "coordinates": [-89.9194,33.518634]}},
{ "type": "Feature", "properties": {"Abbeville town":"North Tunica CDP","Mississippi":"Mississippi","MS":"MS"},
"geometry":{ "type": "Point", "coordinates": [-90.379715,34.703061]}},
{ "type": "Feature", "properties": {"Abbeville town":"Noxapater town","Mississippi":"Mississippi","MS":"MS"},
"geometry":{ "type": "Point", "coordinates": [-89.063532,32.993583]}},
{ "type": "Feature", "properties": {"Abbeville town":"Oak Grove CDP","Mississippi":"Mississippi","MS":"MS"},
"geometry":{ "type": "Point", "coordinates": [-89.414491,31.28674]}},
{ "type": "Feature", "properties": {"Abbeville town":"Oakland town","Mississippi":"Mississippi","MS":"MS"},
"geometry":{ "type": "Point", "coordinates": [-89.913225,34.057581]}},
{ "type": "Feature", "properties": {"Abbeville town":"Ocean Springs city","Mississippi":"Mississippi","MS":"MS"},
"geometry":{ "type": "Point", "coordinates": [-88.788647,30.402704]}},
{ "type": "Feature", "properties": {"Abbeville town":"Okolona city","Mississippi":"Mississippi","MS":"MS"},
"geometry":{ "type": "Point", "coordinates": [-88.747692,34.005061]}},
{ "type": "Feature", "properties": {"Abbeville town":"Olive Branch city","Mississippi":"Mississippi","MS":"MS"},
"geometry":{ "type": "Point", "coordinates": [-89.841153,34.955752]}},
{ "type": "Feature", "properties": {"Abbeville town":"Osyka town","Mississippi":"Mississippi","MS":"MS"},
"geometry":{ "type": "Point", "coordinates": [-90.471131,31.007316]}},
{ "type": "Feature", "properties": {"Abbeville town":"Ovett CDP","Mississippi":"Mississippi","MS":"MS"},
"geometry":{ "type": "Point", "coordinates": [-89.025273,31.488577]}},
{ "type": "Feature", "properties": {"Abbeville town":"Oxford city","Mississippi":"Mississippi","MS":"MS"},
"geometry":{ "type": "Point", "coordinates": [-89.536981,34.351262]}},
{ "type": "Feature", "properties": {"Abbeville town":"Pace town","Mississippi":"Mississippi","MS":"MS"},
"geometry":{ "type": "Point", "coordinates": [-90.85914,33.792246]}},
{ "type": "Feature", "properties": {"Abbeville town":"Pachuta town","Mississippi":"Mississippi","MS":"MS"},
"geometry":{ "type": "Point", "coordinates": [-88.884393,32.044108]}},
{ "type": "Feature", "properties": {"Abbeville town":"Paden village","Mississippi":"Mississippi","MS":"MS"},
"geometry":{ "type": "Point", "coordinates": [-88.260508,34.660276]}},
{ "type": "Feature", "properties": {"Abbeville town":"Panther Burn CDP","Mississippi":"Mississippi","MS":"MS"},
"geometry":{ "type": "Point", "coordinates": [-90.872624,33.06585]}},
{ "type": "Feature", "properties": {"Abbeville town":"Paris CDP","Mississippi":"Mississippi","MS":"MS"},
"geometry":{ "type": "Point", "coordinates": [-89.451776,34.174836]}},
{ "type": "Feature", "properties": {"Abbeville town":"Pascagoula city","Mississippi":"Mississippi","MS":"MS"},
"geometry":{ "type": "Point", "coordinates": [-88.556327,30.360067]}},
{ "type": "Feature", "properties": {"Abbeville town":"Pass Christian city","Mississippi":"Mississippi","MS":"MS"},
"geometry":{ "type": "Point", "coordinates": [-89.239082,30.318029]}},
{ "type": "Feature", "properties": {"Abbeville town":"Pattison CDP","Mississippi":"Mississippi","MS":"MS"},
"geometry":{ "type": "Point", "coordinates": [-90.883921,31.890824]}},
{ "type": "Feature", "properties": {"Abbeville town":"Pearl city","Mississippi":"Mississippi","MS":"MS"},
"geometry":{ "type": "Point", "coordinates": [-90.091827,32.272456]}},
{ "type": "Feature", "properties": {"Abbeville town":"Pearlington CDP","Mississippi":"Mississippi","MS":"MS"},
"geometry":{ "type": "Point", "coordinates": [-89.604803,30.250826]}},
{ "type": "Feature", "properties": {"Abbeville town":"Pearl River CDP","Mississippi":"Mississippi","MS":"MS"},
"geometry":{ "type": "Point", "coordinates": [-89.240905,32.796878]}},
{ "type": "Feature", "properties": {"Abbeville town":"Pelahatchie town","Mississippi":"Mississippi","MS":"MS"},
"geometry":{ "type": "Point", "coordinates": [-89.807951,32.320903]}},
{ "type": "Feature", "properties": {"Abbeville town":"Petal city","Mississippi":"Mississippi","MS":"MS"},
"geometry":{ "type": "Point", "coordinates": [-89.235131,31.34817]}},
{ "type": "Feature", "properties": {"Abbeville town":"Pheba CDP","Mississippi":"Mississippi","MS":"MS"},
"geometry":{ "type": "Point", "coordinates": [-88.949397,33.583656]}},
{ "type": "Feature", "properties": {"Abbeville town":"Philadelphia city","Mississippi":"Mississippi","MS":"MS"},
"geometry":{ "type": "Point", "coordinates": [-89.122045,32.775106]}},
{ "type": "Feature", "properties": {"Abbeville town":"Picayune city","Mississippi":"Mississippi","MS":"MS"},
"geometry":{ "type": "Point", "coordinates": [-89.670628,30.53082]}},
{ "type": "Feature", "properties": {"Abbeville town":"Pickens town","Mississippi":"Mississippi","MS":"MS"},
"geometry":{ "type": "Point", "coordinates": [-89.968775,32.89132]}},
{ "type": "Feature", "properties": {"Abbeville town":"Pittsboro village","Mississippi":"Mississippi","MS":"MS"},
"geometry":{ "type": "Point", "coordinates": [-89.337291,33.940002]}},
{ "type": "Feature", "properties": {"Abbeville town":"Plantersville town","Mississippi":"Mississippi","MS":"MS"},
"geometry":{ "type": "Point", "coordinates": [-88.665435,34.208169]}},
{ "type": "Feature", "properties": {"Abbeville town":"Polkville town","Mississippi":"Mississippi","MS":"MS"},
"geometry":{ "type": "Point", "coordinates": [-89.695976,32.190936]}},
{ "type": "Feature", "properties": {"Abbeville town":"Pontotoc city","Mississippi":"Mississippi","MS":"MS"},
"geometry":{ "type": "Point", "coordinates": [-89.008348,34.25088]}},
{ "type": "Feature", "properties": {"Abbeville town":"Pope village","Mississippi":"Mississippi","MS":"MS"},
"geometry":{ "type": "Point", "coordinates": [-89.944792,34.215775]}},
{ "type": "Feature", "properties": {"Abbeville town":"Poplarville city","Mississippi":"Mississippi","MS":"MS"},
"geometry":{ "type": "Point", "coordinates": [-89.530092,30.839699]}},
{ "type": "Feature", "properties": {"Abbeville town":"Porterville CDP","Mississippi":"Mississippi","MS":"MS"},
"geometry":{ "type": "Point", "coordinates": [-88.471271,32.685429]}},
{ "type": "Feature", "properties": {"Abbeville town":"Port Gibson city","Mississippi":"Mississippi","MS":"MS"},
"geometry":{ "type": "Point", "coordinates": [-90.983438,31.955816]}},
{ "type": "Feature", "properties": {"Abbeville town":"Potts Camp town","Mississippi":"Mississippi","MS":"MS"},
"geometry":{ "type": "Point", "coordinates": [-89.306424,34.649188]}},
{ "type": "Feature", "properties": {"Abbeville town":"Prentiss town","Mississippi":"Mississippi","MS":"MS"},
"geometry":{ "type": "Point", "coordinates": [-89.874654,31.599464]}},
{ "type": "Feature", "properties": {"Abbeville town":"Puckett village","Mississippi":"Mississippi","MS":"MS"},
"geometry":{ "type": "Point", "coordinates": [-89.781689,32.086831]}},
{ "type": "Feature", "properties": {"Abbeville town":"Purvis city","Mississippi":"Mississippi","MS":"MS"},
"geometry":{ "type": "Point", "coordinates": [-89.406281,31.146366]}},
{ "type": "Feature", "properties": {"Abbeville town":"Quitman city","Mississippi":"Mississippi","MS":"MS"},
"geometry":{ "type": "Point", "coordinates": [-88.720518,32.04152]}},
{ "type": "Feature", "properties": {"Abbeville town":"Raleigh town","Mississippi":"Mississippi","MS":"MS"},
"geometry":{ "type": "Point", "coordinates": [-89.525703,32.034662]}},
{ "type": "Feature", "properties": {"Abbeville town":"Randolph CDP","Mississippi":"Mississippi","MS":"MS"},
"geometry":{ "type": "Point", "coordinates": [-89.161628,34.181328]}},
{ "type": "Feature", "properties": {"Abbeville town":"Rawls Springs CDP","Mississippi":"Mississippi","MS":"MS"},
"geometry":{ "type": "Point", "coordinates": [-89.386531,31.383398]}},
{ "type": "Feature", "properties": {"Abbeville town":"Raymond city","Mississippi":"Mississippi","MS":"MS"},
"geometry":{ "type": "Point", "coordinates": [-90.409023,32.260966]}},
{ "type": "Feature", "properties": {"Abbeville town":"Red Banks CDP","Mississippi":"Mississippi","MS":"MS"},
"geometry":{ "type": "Point", "coordinates": [-89.563407,34.834689]}},
{ "type": "Feature", "properties": {"Abbeville town":"Redwater CDP","Mississippi":"Mississippi","MS":"MS"},
"geometry":{ "type": "Point", "coordinates": [-89.55336,32.792793]}},
{ "type": "Feature", "properties": {"Abbeville town":"Redwood CDP","Mississippi":"Mississippi","MS":"MS"},
"geometry":{ "type": "Point", "coordinates": [-90.79685,32.473469]}},
{ "type": "Feature", "properties": {"Abbeville town":"Rena Lara CDP","Mississippi":"Mississippi","MS":"MS"},
"geometry":{ "type": "Point", "coordinates": [-90.774874,34.158765]}},
{ "type": "Feature", "properties": {"Abbeville town":"Renova town","Mississippi":"Mississippi","MS":"MS"},
"geometry":{ "type": "Point", "coordinates": [-90.723195,33.780475]}},
{ "type": "Feature", "properties": {"Abbeville town":"Richland city","Mississippi":"Mississippi","MS":"MS"},
"geometry":{ "type": "Point", "coordinates": [-90.159622,32.230413]}},
{ "type": "Feature", "properties": {"Abbeville town":"Richton town","Mississippi":"Mississippi","MS":"MS"},
"geometry":{ "type": "Point", "coordinates": [-88.940739,31.34948]}},
{ "type": "Feature", "properties": {"Abbeville town":"Ridgeland city","Mississippi":"Mississippi","MS":"MS"},
"geometry":{ "type": "Point", "coordinates": [-90.161773,32.423676]}},
{ "type": "Feature", "properties": {"Abbeville town":"Rienzi town","Mississippi":"Mississippi","MS":"MS"},
"geometry":{ "type": "Point", "coordinates": [-88.533973,34.763317]}},
{ "type": "Feature", "properties": {"Abbeville town":"Ripley city","Mississippi":"Mississippi","MS":"MS"},
"geometry":{ "type": "Point", "coordinates": [-88.94353,34.732437]}},
{ "type": "Feature", "properties": {"Abbeville town":"Robinhood CDP","Mississippi":"Mississippi","MS":"MS"},
"geometry":{ "type": "Point", "coordinates": [-89.96733,32.200396]}},
{ "type": "Feature", "properties": {"Abbeville town":"Rolling Fork city","Mississippi":"Mississippi","MS":"MS"},
"geometry":{ "type": "Point", "coordinates": [-90.876907,32.907304]}},
{ "type": "Feature", "properties": {"Abbeville town":"Rosedale city","Mississippi":"Mississippi","MS":"MS"},
"geometry":{ "type": "Point", "coordinates": [-91.043531,33.860221]}},
{ "type": "Feature", "properties": {"Abbeville town":"Roxie town","Mississippi":"Mississippi","MS":"MS"},
"geometry":{ "type": "Point", "coordinates": [-91.071036,31.507676]}},
{ "type": "Feature", "properties": {"Abbeville town":"Ruleville city","Mississippi":"Mississippi","MS":"MS"},
"geometry":{ "type": "Point", "coordinates": [-90.550317,33.72491]}},
{ "type": "Feature", "properties": {"Abbeville town":"Runnelstown CDP","Mississippi":"Mississippi","MS":"MS"},
"geometry":{ "type": "Point", "coordinates": [-89.114268,31.377849]}},
{ "type": "Feature", "properties": {"Abbeville town":"St. Martin CDP","Mississippi":"Mississippi","MS":"MS"},
"geometry":{ "type": "Point", "coordinates": [-88.861742,30.438052]}},
{ "type": "Feature", "properties": {"Abbeville town":"Sallis town","Mississippi":"Mississippi","MS":"MS"},
"geometry":{ "type": "Point", "coordinates": [-89.764736,33.021552]}},
{ "type": "Feature", "properties": {"Abbeville town":"Saltillo city","Mississippi":"Mississippi","MS":"MS"},
"geometry":{ "type": "Point", "coordinates": [-88.693641,34.378461]}},
{ "type": "Feature", "properties": {"Abbeville town":"Sandersville town","Mississippi":"Mississippi","MS":"MS"},
"geometry":{ "type": "Point", "coordinates": [-89.039758,31.784016]}},
{ "type": "Feature", "properties": {"Abbeville town":"Sardis town","Mississippi":"Mississippi","MS":"MS"},
"geometry":{ "type": "Point", "coordinates": [-89.911362,34.435505]}},
{ "type": "Feature", "properties": {"Abbeville town":"Satartia village","Mississippi":"Mississippi","MS":"MS"},
"geometry":{ "type": "Point", "coordinates": [-90.544522,32.671959]}},
{ "type": "Feature", "properties": {"Abbeville town":"Saucier CDP","Mississippi":"Mississippi","MS":"MS"},
"geometry":{ "type": "Point", "coordinates": [-89.142271,30.620874]}},
{ "type": "Feature", "properties": {"Abbeville town":"Schlater town","Mississippi":"Mississippi","MS":"MS"},
"geometry":{ "type": "Point", "coordinates": [-90.349361,33.639707]}},
{ "type": "Feature", "properties": {"Abbeville town":"Scooba town","Mississippi":"Mississippi","MS":"MS"},
"geometry":{ "type": "Point", "coordinates": [-88.477118,32.830179]}},
{ "type": "Feature", "properties": {"Abbeville town":"Scott CDP","Mississippi":"Mississippi","MS":"MS"},
"geometry":{ "type": "Point", "coordinates": [-91.076023,33.594467]}},
{ "type": "Feature", "properties": {"Abbeville town":"Sebastopol town","Mississippi":"Mississippi","MS":"MS"},
"geometry":{ "type": "Point", "coordinates": [-89.333992,32.567925]}},
{ "type": "Feature", "properties": {"Abbeville town":"Seminary town","Mississippi":"Mississippi","MS":"MS"},
"geometry":{ "type": "Point", "coordinates": [-89.49931,31.557705]}},
{ "type": "Feature", "properties": {"Abbeville town":"Senatobia city","Mississippi":"Mississippi","MS":"MS"},
"geometry":{ "type": "Point", "coordinates": [-89.980994,34.60865]}},
{ "type": "Feature", "properties": {"Abbeville town":"Shannon town","Mississippi":"Mississippi","MS":"MS"},
"geometry":{ "type": "Point", "coordinates": [-88.693131,34.114416]}},
{ "type": "Feature", "properties": {"Abbeville town":"Sharon CDP","Mississippi":"Mississippi","MS":"MS"},
"geometry":{ "type": "Point", "coordinates": [-89.092938,31.795475]}},
{ "type": "Feature", "properties": {"Abbeville town":"Shaw city","Mississippi":"Mississippi","MS":"MS"},
"geometry":{ "type": "Point", "coordinates": [-90.771987,33.601492]}},
{ "type": "Feature", "properties": {"Abbeville town":"Shelby city","Mississippi":"Mississippi","MS":"MS"},
"geometry":{ "type": "Point", "coordinates": [-90.765091,33.950528]}},
{ "type": "Feature", "properties": {"Abbeville town":"Sherman town","Mississippi":"Mississippi","MS":"MS"},
"geometry":{ "type": "Point", "coordinates": [-88.838744,34.36117]}},
{ "type": "Feature", "properties": {"Abbeville town":"Shubuta town","Mississippi":"Mississippi","MS":"MS"},
"geometry":{ "type": "Point", "coordinates": [-88.702051,31.862036]}},
{ "type": "Feature", "properties": {"Abbeville town":"Shuqualak town","Mississippi":"Mississippi","MS":"MS"},
"geometry":{ "type": "Point", "coordinates": [-88.569299,32.979281]}},
{ "type": "Feature", "properties": {"Abbeville town":"Sidon town","Mississippi":"Mississippi","MS":"MS"},
"geometry":{ "type": "Point", "coordinates": [-90.208077,33.407931]}},
{ "type": "Feature", "properties": {"Abbeville town":"Silver City town","Mississippi":"Mississippi","MS":"MS"},
"geometry":{ "type": "Point", "coordinates": [-90.499024,33.093691]}},
{ "type": "Feature", "properties": {"Abbeville town":"Silver Creek town","Mississippi":"Mississippi","MS":"MS"},
"geometry":{ "type": "Point", "coordinates": [-90.002316,31.604792]}},
{ "type": "Feature", "properties": {"Abbeville town":"Skene CDP","Mississippi":"Mississippi","MS":"MS"},
"geometry":{ "type": "Point", "coordinates": [-90.797405,33.703989]}},
{ "type": "Feature", "properties": {"Abbeville town":"Slate Springs village","Mississippi":"Mississippi","MS":"MS"},
"geometry":{ "type": "Point", "coordinates": [-89.375167,33.741713]}},
{ "type": "Feature", "properties": {"Abbeville town":"Sledge town","Mississippi":"Mississippi","MS":"MS"},
"geometry":{ "type": "Point", "coordinates": [-90.221177,34.432632]}},
{ "type": "Feature", "properties": {"Abbeville town":"Smithville town","Mississippi":"Mississippi","MS":"MS"},
"geometry":{ "type": "Point", "coordinates": [-88.398154,34.067963]}},
{ "type": "Feature", "properties": {"Abbeville town":"Snow Lake Shores town","Mississippi":"Mississippi","MS":"MS"},
"geometry":{ "type": "Point", "coordinates": [-89.23813,34.821253]}},
{ "type": "Feature", "properties": {"Abbeville town":"Soso town","Mississippi":"Mississippi","MS":"MS"},
"geometry":{ "type": "Point", "coordinates": [-89.276873,31.75028]}},
{ "type": "Feature", "properties": {"Abbeville town":"Southaven city","Mississippi":"Mississippi","MS":"MS"},
"geometry":{ "type": "Point", "coordinates": [-89.977669,34.951005]}},
{ "type": "Feature", "properties": {"Abbeville town":"Standing Pine CDP","Mississippi":"Mississippi","MS":"MS"},
"geometry":{ "type": "Point", "coordinates": [-89.452088,32.671027]}},
{ "type": "Feature", "properties": {"Abbeville town":"Starkville city","Mississippi":"Mississippi","MS":"MS"},
"geometry":{ "type": "Point", "coordinates": [-88.832691,33.458808]}},
{ "type": "Feature", "properties": {"Abbeville town":"State Line town","Mississippi":"Mississippi","MS":"MS"},
"geometry":{ "type": "Point", "coordinates": [-88.473477,31.436095]}},
{ "type": "Feature", "properties": {"Abbeville town":"Stewart CDP","Mississippi":"Mississippi","MS":"MS"},
"geometry":{ "type": "Point", "coordinates": [-89.437548,33.451888]}},
{ "type": "Feature", "properties": {"Abbeville town":"Stoneville CDP","Mississippi":"Mississippi","MS":"MS"},
"geometry":{ "type": "Point", "coordinates": [-90.921629,33.423804]}},
{ "type": "Feature", "properties": {"Abbeville town":"Stonewall town","Mississippi":"Mississippi","MS":"MS"},
"geometry":{ "type": "Point", "coordinates": [-88.797408,32.134983]}},
{ "type": "Feature", "properties": {"Abbeville town":"Strayhorn CDP","Mississippi":"Mississippi","MS":"MS"},
"geometry":{ "type": "Point", "coordinates": [-90.152566,34.615896]}},
{ "type": "Feature", "properties": {"Abbeville town":"Sturgis town","Mississippi":"Mississippi","MS":"MS"},
"geometry":{ "type": "Point", "coordinates": [-89.045774,33.345164]}},
{ "type": "Feature", "properties": {"Abbeville town":"Summit town","Mississippi":"Mississippi","MS":"MS"},
"geometry":{ "type": "Point", "coordinates": [-90.466977,31.280815]}},
{ "type": "Feature", "properties": {"Abbeville town":"Sumner town","Mississippi":"Mississippi","MS":"MS"},
"geometry":{ "type": "Point", "coordinates": [-90.369275,33.969317]}},
{ "type": "Feature", "properties": {"Abbeville town":"Sumrall town","Mississippi":"Mississippi","MS":"MS"},
"geometry":{ "type": "Point", "coordinates": [-89.541777,31.417028]}},
{ "type": "Feature", "properties": {"Abbeville town":"Sunflower town","Mississippi":"Mississippi","MS":"MS"},
"geometry":{ "type": "Point", "coordinates": [-90.537289,33.544296]}},
{ "type": "Feature", "properties": {"Abbeville town":"Sylvarena village","Mississippi":"Mississippi","MS":"MS"},
"geometry":{ "type": "Point", "coordinates": [-89.381796,32.014376]}},
{ "type": "Feature", "properties": {"Abbeville town":"Symonds CDP","Mississippi":"Mississippi","MS":"MS"},
"geometry":{ "type": "Point", "coordinates": [-90.889524,33.833929]}},
{ "type": "Feature", "properties": {"Abbeville town":"Taylor village","Mississippi":"Mississippi","MS":"MS"},
"geometry":{ "type": "Point", "coordinates": [-89.583686,34.269742]}},
{ "type": "Feature", "properties": {"Abbeville town":"Taylorsville town","Mississippi":"Mississippi","MS":"MS"},
"geometry":{ "type": "Point", "coordinates": [-89.433973,31.832174]}},
{ "type": "Feature", "properties": {"Abbeville town":"Tchula town","Mississippi":"Mississippi","MS":"MS"},
"geometry":{ "type": "Point", "coordinates": [-90.222848,33.183181]}},
{ "type": "Feature", "properties": {"Abbeville town":"Terry town","Mississippi":"Mississippi","MS":"MS"},
"geometry":{ "type": "Point", "coordinates": [-90.292595,32.106057]}},
{ "type": "Feature", "properties": {"Abbeville town":"Thaxton town","Mississippi":"Mississippi","MS":"MS"},
"geometry":{ "type": "Point", "coordinates": [-89.171737,34.302905]}},
{ "type": "Feature", "properties": {"Abbeville town":"Tillatoba town","Mississippi":"Mississippi","MS":"MS"},
"geometry":{ "type": "Point", "coordinates": [-89.89606,33.985086]}},
{ "type": "Feature", "properties": {"Abbeville town":"Tishomingo town","Mississippi":"Mississippi","MS":"MS"},
"geometry":{ "type": "Point", "coordinates": [-88.229144,34.638284]}},
{ "type": "Feature", "properties": {"Abbeville town":"Toccopola town","Mississippi":"Mississippi","MS":"MS"},
"geometry":{ "type": "Point", "coordinates": [-89.221314,34.255254]}},
{ "type": "Feature", "properties": {"Abbeville town":"Toomsuba CDP","Mississippi":"Mississippi","MS":"MS"},
"geometry":{ "type": "Point", "coordinates": [-88.507088,32.430282]}},
{ "type": "Feature", "properties": {"Abbeville town":"Tremont town","Mississippi":"Mississippi","MS":"MS"},
"geometry":{ "type": "Point", "coordinates": [-88.248936,34.233728]}},
{ "type": "Feature", "properties": {"Abbeville town":"Tucker CDP","Mississippi":"Mississippi","MS":"MS"},
"geometry":{ "type": "Point", "coordinates": [-89.049074,32.707777]}},
{ "type": "Feature", "properties": {"Abbeville town":"Tula CDP","Mississippi":"Mississippi","MS":"MS"},
"geometry":{ "type": "Point", "coordinates": [-89.368423,34.237174]}},
{ "type": "Feature", "properties": {"Abbeville town":"Tunica town","Mississippi":"Mississippi","MS":"MS"},
"geometry":{ "type": "Point", "coordinates": [-90.380937,34.688137]}},
{ "type": "Feature", "properties": {"Abbeville town":"Tunica Resorts CDP","Mississippi":"Mississippi","MS":"MS"},
"geometry":{ "type": "Point", "coordinates": [-90.321189,34.824186]}},
{ "type": "Feature", "properties": {"Abbeville town":"Tupelo city","Mississippi":"Mississippi","MS":"MS"},
"geometry":{ "type": "Point", "coordinates": [-88.732455,34.270604]}},
{ "type": "Feature", "properties": {"Abbeville town":"Tutwiler town","Mississippi":"Mississippi","MS":"MS"},
"geometry":{ "type": "Point", "coordinates": [-90.433339,34.01718]}},
{ "type": "Feature", "properties": {"Abbeville town":"Tylertown town","Mississippi":"Mississippi","MS":"MS"},
"geometry":{ "type": "Point", "coordinates": [-90.144851,31.1172]}},
{ "type": "Feature", "properties": {"Abbeville town":"Union town","Mississippi":"Mississippi","MS":"MS"},
"geometry":{ "type": "Point", "coordinates": [-89.115203,32.571128]}},
{ "type": "Feature", "properties": {"Abbeville town":"University CDP","Mississippi":"Mississippi","MS":"MS"},
"geometry":{ "type": "Point", "coordinates": [-89.537871,34.365529]}},
{ "type": "Feature", "properties": {"Abbeville town":"Utica town","Mississippi":"Mississippi","MS":"MS"},
"geometry":{ "type": "Point", "coordinates": [-90.622234,32.107254]}},
{ "type": "Feature", "properties": {"Abbeville town":"Vaiden town","Mississippi":"Mississippi","MS":"MS"},
"geometry":{ "type": "Point", "coordinates": [-89.752603,33.332523]}},
{ "type": "Feature", "properties": {"Abbeville town":"Valley Park CDP","Mississippi":"Mississippi","MS":"MS"},
"geometry":{ "type": "Point", "coordinates": [-90.850666,32.631363]}},
{ "type": "Feature", "properties": {"Abbeville town":"Vancleave CDP","Mississippi":"Mississippi","MS":"MS"},
"geometry":{ "type": "Point", "coordinates": [-88.673409,30.545918]}},
{ "type": "Feature", "properties": {"Abbeville town":"Van Vleet CDP","Mississippi":"Mississippi","MS":"MS"},
"geometry":{ "type": "Point", "coordinates": [-88.89717,33.983217]}},
{ "type": "Feature", "properties": {"Abbeville town":"Vardaman town","Mississippi":"Mississippi","MS":"MS"},
"geometry":{ "type": "Point", "coordinates": [-89.177796,33.882195]}},
{ "type": "Feature", "properties": {"Abbeville town":"Verona city","Mississippi":"Mississippi","MS":"MS"},
"geometry":{ "type": "Point", "coordinates": [-88.720503,34.18969]}},
{ "type": "Feature", "properties": {"Abbeville town":"Vicksburg city","Mississippi":"Mississippi","MS":"MS"},
"geometry":{ "type": "Point", "coordinates": [-90.881557,32.322004]}},
{ "type": "Feature", "properties": {"Abbeville town":"Victoria CDP","Mississippi":"Mississippi","MS":"MS"},
"geometry":{ "type": "Point", "coordinates": [-89.61542,34.838995]}},
{ "type": "Feature", "properties": {"Abbeville town":"Wade CDP","Mississippi":"Mississippi","MS":"MS"},
"geometry":{ "type": "Point", "coordinates": [-88.555842,30.629681]}},
{ "type": "Feature", "properties": {"Abbeville town":"Walls town","Mississippi":"Mississippi","MS":"MS"},
"geometry":{ "type": "Point", "coordinates": [-90.167744,34.925861]}},
{ "type": "Feature", "properties": {"Abbeville town":"Walnut town","Mississippi":"Mississippi","MS":"MS"},
"geometry":{ "type": "Point", "coordinates": [-88.924455,34.949671]}},
{ "type": "Feature", "properties": {"Abbeville town":"Walnut Grove town","Mississippi":"Mississippi","MS":"MS"},
"geometry":{ "type": "Point", "coordinates": [-89.457826,32.593169]}},
{ "type": "Feature", "properties": {"Abbeville town":"Walthall village","Mississippi":"Mississippi","MS":"MS"},
"geometry":{ "type": "Point", "coordinates": [-89.279109,33.606669]}},
{ "type": "Feature", "properties": {"Abbeville town":"Waterford CDP","Mississippi":"Mississippi","MS":"MS"},
"geometry":{ "type": "Point", "coordinates": [-89.457547,34.649436]}},
{ "type": "Feature", "properties": {"Abbeville town":"Water Valley city","Mississippi":"Mississippi","MS":"MS"},
"geometry":{ "type": "Point", "coordinates": [-89.63012,34.16199]}},
{ "type": "Feature", "properties": {"Abbeville town":"Waveland city","Mississippi":"Mississippi","MS":"MS"},
"geometry":{ "type": "Point", "coordinates": [-89.393703,30.295414]}},
{ "type": "Feature", "properties": {"Abbeville town":"Waynesboro city","Mississippi":"Mississippi","MS":"MS"},
"geometry":{ "type": "Point", "coordinates": [-88.63384,31.677557]}},
{ "type": "Feature", "properties": {"Abbeville town":"Webb town","Mississippi":"Mississippi","MS":"MS"},
"geometry":{ "type": "Point", "coordinates": [-90.346332,33.947746]}},
{ "type": "Feature", "properties": {"Abbeville town":"Weir town","Mississippi":"Mississippi","MS":"MS"},
"geometry":{ "type": "Point", "coordinates": [-89.295333,33.261333]}},
{ "type": "Feature", "properties": {"Abbeville town":"Wesson town","Mississippi":"Mississippi","MS":"MS"},
"geometry":{ "type": "Point", "coordinates": [-90.395042,31.69993]}},
{ "type": "Feature", "properties": {"Abbeville town":"West town","Mississippi":"Mississippi","MS":"MS"},
"geometry":{ "type": "Point", "coordinates": [-89.782106,33.197767]}},
{ "type": "Feature", "properties": {"Abbeville town":"West Hattiesburg CDP","Mississippi":"Mississippi","MS":"MS"},
"geometry":{ "type": "Point", "coordinates": [-89.377151,31.309957]}},
{ "type": "Feature", "properties": {"Abbeville town":"West Point city","Mississippi":"Mississippi","MS":"MS"},
"geometry":{ "type": "Point", "coordinates": [-88.657568,33.606236]}},
{ "type": "Feature", "properties": {"Abbeville town":"Wheeler CDP","Mississippi":"Mississippi","MS":"MS"},
"geometry":{ "type": "Point", "coordinates": [-88.602478,34.583662]}},
{ "type": "Feature", "properties": {"Abbeville town":"White Oak CDP","Mississippi":"Mississippi","MS":"MS"},
"geometry":{ "type": "Point", "coordinates": [-90.349435,34.643868]}},
{ "type": "Feature", "properties": {"Abbeville town":"Wiggins city","Mississippi":"Mississippi","MS":"MS"},
"geometry":{ "type": "Point", "coordinates": [-89.138981,30.856048]}},
{ "type": "Feature", "properties": {"Abbeville town":"Winona city","Mississippi":"Mississippi","MS":"MS"},
"geometry":{ "type": "Point", "coordinates": [-89.729287,33.490256]}},
{ "type": "Feature", "properties": {"Abbeville town":"Winstonville town","Mississippi":"Mississippi","MS":"MS"},
"geometry":{ "type": "Point", "coordinates": [-90.752884,33.912292]}},
{ "type": "Feature", "properties": {"Abbeville town":"Winterville CDP","Mississippi":"Mississippi","MS":"MS"},
"geometry":{ "type": "Point", "coordinates": [-91.060278,33.502352]}},
{ "type": "Feature", "properties": {"Abbeville town":"Woodland village","Mississippi":"Mississippi","MS":"MS"},
"geometry":{ "type": "Point", "coordinates": [-89.05069,33.779675]}},
{ "type": "Feature", "properties": {"Abbeville town":"Woodville town","Mississippi":"Mississippi","MS":"MS"},
"geometry":{ "type": "Point", "coordinates": [-91.299257,31.102891]}},
{ "type": "Feature", "properties": {"Abbeville town":"Yazoo City city","Mississippi":"Mississippi","MS":"MS"},
"geometry":{ "type": "Point", "coordinates": [-90.407996,32.862219]}}]}
