{"type":"FeatureCollection","features":[
{ "type": "Feature", "properties": {"Name":"Absarokee CDP","State":"Montana","State_Abbrev":"MT"},
"geometry":{ "type": "Point", "coordinates": [-109.455765,45.527593]}},
{ "type": "Feature", "properties": {"Name":"Acton CDP","State":"Montana","State_Abbrev":"MT"},
"geometry":{ "type": "Point", "coordinates": [-108.678685,45.928946]}},
{ "type": "Feature", "properties": {"Name":"Alberton town","State":"Montana","State_Abbrev":"MT"},
"geometry":{ "type": "Point", "coordinates": [-114.485283,47.004437]}},
{ "type": "Feature", "properties": {"Name":"Alder CDP","State":"Montana","State_Abbrev":"MT"},
"geometry":{ "type": "Point", "coordinates": [-112.109216,45.321591]}},
{ "type": "Feature", "properties": {"Name":"Alzada CDP","State":"Montana","State_Abbrev":"MT"},
"geometry":{ "type": "Point", "coordinates": [-104.412787,45.020549]}},
{ "type": "Feature", "properties": {"Name":"Amsterdam CDP","State":"Montana","State_Abbrev":"MT"},
"geometry":{ "type": "Point", "coordinates": [-111.339096,45.738262]}},
{ "type": "Feature", "properties": {"Name":"Anaconda-Deer Lodge County","State":"Montana","State_Abbrev":"MT"},
"geometry":{ "type": "Point", "coordinates": [-113.141624,46.094672]}},
{ "type": "Feature", "properties": {"Name":"Antelope CDP","State":"Montana","State_Abbrev":"MT"},
"geometry":{ "type": "Point", "coordinates": [-104.454017,48.689714]}},
{ "type": "Feature", "properties": {"Name":"Argenta CDP","State":"Montana","State_Abbrev":"MT"},
"geometry":{ "type": "Point", "coordinates": [-112.860611,45.278728]}},
{ "type": "Feature", "properties": {"Name":"Arlee CDP","State":"Montana","State_Abbrev":"MT"},
"geometry":{ "type": "Point", "coordinates": [-114.083645,47.168088]}},
{ "type": "Feature", "properties": {"Name":"Ashland CDP","State":"Montana","State_Abbrev":"MT"},
"geometry":{ "type": "Point", "coordinates": [-106.297498,45.597682]}},
{ "type": "Feature", "properties": {"Name":"Augusta CDP","State":"Montana","State_Abbrev":"MT"},
"geometry":{ "type": "Point", "coordinates": [-112.392158,47.489329]}},
{ "type": "Feature", "properties": {"Name":"Avon CDP","State":"Montana","State_Abbrev":"MT"},
"geometry":{ "type": "Point", "coordinates": [-112.575587,46.628653]}},
{ "type": "Feature", "properties": {"Name":"Ayers Ranch Colony CDP","State":"Montana","State_Abbrev":"MT"},
"geometry":{ "type": "Point", "coordinates": [-108.945175,47.051033]}},
{ "type": "Feature", "properties": {"Name":"Azure CDP","State":"Montana","State_Abbrev":"MT"},
"geometry":{ "type": "Point", "coordinates": [-109.807252,48.305019]}},
{ "type": "Feature", "properties": {"Name":"Babb CDP","State":"Montana","State_Abbrev":"MT"},
"geometry":{ "type": "Point", "coordinates": [-113.451128,48.88791]}},
{ "type": "Feature", "properties": {"Name":"Bainville town","State":"Montana","State_Abbrev":"MT"},
"geometry":{ "type": "Point", "coordinates": [-104.221054,48.143994]}},
{ "type": "Feature", "properties": {"Name":"Baker city","State":"Montana","State_Abbrev":"MT"},
"geometry":{ "type": "Point", "coordinates": [-104.274261,46.364277]}},
{ "type": "Feature", "properties": {"Name":"Ballantine CDP","State":"Montana","State_Abbrev":"MT"},
"geometry":{ "type": "Point", "coordinates": [-108.142846,45.951098]}},
{ "type": "Feature", "properties": {"Name":"Basin CDP","State":"Montana","State_Abbrev":"MT"},
"geometry":{ "type": "Point", "coordinates": [-112.287097,46.283454]}},
{ "type": "Feature", "properties": {"Name":"Batavia CDP","State":"Montana","State_Abbrev":"MT"},
"geometry":{ "type": "Point", "coordinates": [-114.407201,48.17744]}},
{ "type": "Feature", "properties": {"Name":"Bearcreek town","State":"Montana","State_Abbrev":"MT"},
"geometry":{ "type": "Point", "coordinates": [-109.157421,45.160556]}},
{ "type": "Feature", "properties": {"Name":"Bear Dance CDP","State":"Montana","State_Abbrev":"MT"},
"geometry":{ "type": "Point", "coordinates": [-114.027316,47.901904]}},
{ "type": "Feature", "properties": {"Name":"Beaver Creek CDP","State":"Montana","State_Abbrev":"MT"},
"geometry":{ "type": "Point", "coordinates": [-109.806925,48.543666]}},
{ "type": "Feature", "properties": {"Name":"Belfry CDP","State":"Montana","State_Abbrev":"MT"},
"geometry":{ "type": "Point", "coordinates": [-108.998065,45.137234]}},
{ "type": "Feature", "properties": {"Name":"Belgrade city","State":"Montana","State_Abbrev":"MT"},
"geometry":{ "type": "Point", "coordinates": [-111.1748,45.780564]}},
{ "type": "Feature", "properties": {"Name":"Belknap CDP","State":"Montana","State_Abbrev":"MT"},
"geometry":{ "type": "Point", "coordinates": [-115.422132,47.647314]}},
{ "type": "Feature", "properties": {"Name":"Belt town","State":"Montana","State_Abbrev":"MT"},
"geometry":{ "type": "Point", "coordinates": [-110.927737,47.387201]}},
{ "type": "Feature", "properties": {"Name":"Biddle CDP","State":"Montana","State_Abbrev":"MT"},
"geometry":{ "type": "Point", "coordinates": [-105.31155,45.105066]}},
{ "type": "Feature", "properties": {"Name":"Big Arm CDP","State":"Montana","State_Abbrev":"MT"},
"geometry":{ "type": "Point", "coordinates": [-114.27003,47.793609]}},
{ "type": "Feature", "properties": {"Name":"Bigfork CDP","State":"Montana","State_Abbrev":"MT"},
"geometry":{ "type": "Point", "coordinates": [-114.054631,48.08407]}},
{ "type": "Feature", "properties": {"Name":"Big Sandy town","State":"Montana","State_Abbrev":"MT"},
"geometry":{ "type": "Point", "coordinates": [-110.113341,48.178561]}},
{ "type": "Feature", "properties": {"Name":"Big Sky CDP","State":"Montana","State_Abbrev":"MT"},
"geometry":{ "type": "Point", "coordinates": [-111.332002,45.256435]}},
{ "type": "Feature", "properties": {"Name":"Big Sky Colony CDP","State":"Montana","State_Abbrev":"MT"},
"geometry":{ "type": "Point", "coordinates": [-112.76846,48.839229]}},
{ "type": "Feature", "properties": {"Name":"Big Stone Colony CDP","State":"Montana","State_Abbrev":"MT"},
"geometry":{ "type": "Point", "coordinates": [-111.209164,47.400065]}},
{ "type": "Feature", "properties": {"Name":"Big Timber city","State":"Montana","State_Abbrev":"MT"},
"geometry":{ "type": "Point", "coordinates": [-109.948266,45.834782]}},
{ "type": "Feature", "properties": {"Name":"Billings city","State":"Montana","State_Abbrev":"MT"},
"geometry":{ "type": "Point", "coordinates": [-108.552475,45.788538]}},
{ "type": "Feature", "properties": {"Name":"Birch Creek Colony CDP","State":"Montana","State_Abbrev":"MT"},
"geometry":{ "type": "Point", "coordinates": [-112.469648,48.246506]}},
{ "type": "Feature", "properties": {"Name":"Birney CDP","State":"Montana","State_Abbrev":"MT"},
"geometry":{ "type": "Point", "coordinates": [-106.493383,45.415485]}},
{ "type": "Feature", "properties": {"Name":"Black Eagle CDP","State":"Montana","State_Abbrev":"MT"},
"geometry":{ "type": "Point", "coordinates": [-111.259956,47.527748]}},
{ "type": "Feature", "properties": {"Name":"Blackfoot CDP","State":"Montana","State_Abbrev":"MT"},
"geometry":{ "type": "Point", "coordinates": [-112.873323,48.577115]}},
{ "type": "Feature", "properties": {"Name":"Bloomfield CDP","State":"Montana","State_Abbrev":"MT"},
"geometry":{ "type": "Point", "coordinates": [-104.918783,47.412195]}},
{ "type": "Feature", "properties": {"Name":"Boneau CDP","State":"Montana","State_Abbrev":"MT"},
"geometry":{ "type": "Point", "coordinates": [-109.873788,48.295107]}},
{ "type": "Feature", "properties": {"Name":"Bonner-West Riverside CDP","State":"Montana","State_Abbrev":"MT"},
"geometry":{ "type": "Point", "coordinates": [-113.888033,46.877275]}},
{ "type": "Feature", "properties": {"Name":"Boulder city","State":"Montana","State_Abbrev":"MT"},
"geometry":{ "type": "Point", "coordinates": [-112.119749,46.23584]}},
{ "type": "Feature", "properties": {"Name":"Box Elder CDP","State":"Montana","State_Abbrev":"MT"},
"geometry":{ "type": "Point", "coordinates": [-110.017664,48.32305]}},
{ "type": "Feature", "properties": {"Name":"Boyd CDP","State":"Montana","State_Abbrev":"MT"},
"geometry":{ "type": "Point", "coordinates": [-109.069661,45.454067]}},
{ "type": "Feature", "properties": {"Name":"Bozeman city","State":"Montana","State_Abbrev":"MT"},
"geometry":{ "type": "Point", "coordinates": [-111.053782,45.683155]}},
{ "type": "Feature", "properties": {"Name":"Brady CDP","State":"Montana","State_Abbrev":"MT"},
"geometry":{ "type": "Point", "coordinates": [-111.844064,48.027912]}},
{ "type": "Feature", "properties": {"Name":"Brandon CDP","State":"Montana","State_Abbrev":"MT"},
"geometry":{ "type": "Point", "coordinates": [-112.133932,45.466045]}},
{ "type": "Feature", "properties": {"Name":"Bridger town","State":"Montana","State_Abbrev":"MT"},
"geometry":{ "type": "Point", "coordinates": [-108.916666,45.294592]}},
{ "type": "Feature", "properties": {"Name":"Bridger CDP","State":"Montana","State_Abbrev":"MT"},
"geometry":{ "type": "Point", "coordinates": [-110.896384,45.804244]}},
{ "type": "Feature", "properties": {"Name":"Broadus town","State":"Montana","State_Abbrev":"MT"},
"geometry":{ "type": "Point", "coordinates": [-105.408349,45.443053]}},
{ "type": "Feature", "properties": {"Name":"Broadview town","State":"Montana","State_Abbrev":"MT"},
"geometry":{ "type": "Point", "coordinates": [-108.878866,46.098789]}},
{ "type": "Feature", "properties": {"Name":"Brockton CDP","State":"Montana","State_Abbrev":"MT"},
"geometry":{ "type": "Point", "coordinates": [-104.903034,48.155942]}},
{ "type": "Feature", "properties": {"Name":"Brockway CDP","State":"Montana","State_Abbrev":"MT"},
"geometry":{ "type": "Point", "coordinates": [-105.764408,47.299242]}},
{ "type": "Feature", "properties": {"Name":"Brooks CDP","State":"Montana","State_Abbrev":"MT"},
"geometry":{ "type": "Point", "coordinates": [-109.421139,47.205297]}},
{ "type": "Feature", "properties": {"Name":"Browning town","State":"Montana","State_Abbrev":"MT"},
"geometry":{ "type": "Point", "coordinates": [-113.015095,48.556344]}},
{ "type": "Feature", "properties": {"Name":"Bull Lake CDP","State":"Montana","State_Abbrev":"MT"},
"geometry":{ "type": "Point", "coordinates": [-115.852598,48.229506]}},
{ "type": "Feature", "properties": {"Name":"Busby CDP","State":"Montana","State_Abbrev":"MT"},
"geometry":{ "type": "Point", "coordinates": [-106.977522,45.525636]}},
{ "type": "Feature", "properties": {"Name":"Butte-Silver Bow (balance)","State":"Montana","State_Abbrev":"MT"},
"geometry":{ "type": "Point", "coordinates": [-112.660071,45.896232]}},
{ "type": "Feature", "properties": {"Name":"Bynum CDP","State":"Montana","State_Abbrev":"MT"},
"geometry":{ "type": "Point", "coordinates": [-112.316476,47.968123]}},
{ "type": "Feature", "properties": {"Name":"Camas CDP","State":"Montana","State_Abbrev":"MT"},
"geometry":{ "type": "Point", "coordinates": [-114.655991,47.617922]}},
{ "type": "Feature", "properties": {"Name":"Camp Three CDP","State":"Montana","State_Abbrev":"MT"},
"geometry":{ "type": "Point", "coordinates": [-108.574113,46.453303]}},
{ "type": "Feature", "properties": {"Name":"Camrose Colony CDP","State":"Montana","State_Abbrev":"MT"},
"geometry":{ "type": "Point", "coordinates": [-111.611834,48.311579]}},
{ "type": "Feature", "properties": {"Name":"Canyon Creek CDP","State":"Montana","State_Abbrev":"MT"},
"geometry":{ "type": "Point", "coordinates": [-112.254476,46.805379]}},
{ "type": "Feature", "properties": {"Name":"Cardwell CDP","State":"Montana","State_Abbrev":"MT"},
"geometry":{ "type": "Point", "coordinates": [-111.964239,45.865085]}},
{ "type": "Feature", "properties": {"Name":"Carlton CDP","State":"Montana","State_Abbrev":"MT"},
"geometry":{ "type": "Point", "coordinates": [-114.062378,46.691186]}},
{ "type": "Feature", "properties": {"Name":"Carter CDP","State":"Montana","State_Abbrev":"MT"},
"geometry":{ "type": "Point", "coordinates": [-110.932759,47.777825]}},
{ "type": "Feature", "properties": {"Name":"Cascade town","State":"Montana","State_Abbrev":"MT"},
"geometry":{ "type": "Point", "coordinates": [-111.703006,47.277102]}},
{ "type": "Feature", "properties": {"Name":"Cascade Colony CDP","State":"Montana","State_Abbrev":"MT"},
"geometry":{ "type": "Point", "coordinates": [-111.817769,47.440964]}},
{ "type": "Feature", "properties": {"Name":"Centerville CDP","State":"Montana","State_Abbrev":"MT"},
"geometry":{ "type": "Point", "coordinates": [-111.143158,47.384509]}},
{ "type": "Feature", "properties": {"Name":"Charlo CDP","State":"Montana","State_Abbrev":"MT"},
"geometry":{ "type": "Point", "coordinates": [-114.172175,47.442764]}},
{ "type": "Feature", "properties": {"Name":"Charlos Heights CDP","State":"Montana","State_Abbrev":"MT"},
"geometry":{ "type": "Point", "coordinates": [-114.188541,46.134516]}},
{ "type": "Feature", "properties": {"Name":"Chester town","State":"Montana","State_Abbrev":"MT"},
"geometry":{ "type": "Point", "coordinates": [-110.966143,48.511293]}},
{ "type": "Feature", "properties": {"Name":"Chinook city","State":"Montana","State_Abbrev":"MT"},
"geometry":{ "type": "Point", "coordinates": [-109.23182,48.590128]}},
{ "type": "Feature", "properties": {"Name":"Choteau city","State":"Montana","State_Abbrev":"MT"},
"geometry":{ "type": "Point", "coordinates": [-112.1794,47.813673]}},
{ "type": "Feature", "properties": {"Name":"Churchill CDP","State":"Montana","State_Abbrev":"MT"},
"geometry":{ "type": "Point", "coordinates": [-111.310256,45.749951]}},
{ "type": "Feature", "properties": {"Name":"Circle town","State":"Montana","State_Abbrev":"MT"},
"geometry":{ "type": "Point", "coordinates": [-105.587041,47.417664]}},
{ "type": "Feature", "properties": {"Name":"Clancy CDP","State":"Montana","State_Abbrev":"MT"},
"geometry":{ "type": "Point", "coordinates": [-112.002954,46.449259]}},
{ "type": "Feature", "properties": {"Name":"Clinton CDP","State":"Montana","State_Abbrev":"MT"},
"geometry":{ "type": "Point", "coordinates": [-113.720457,46.771774]}},
{ "type": "Feature", "properties": {"Name":"Clyde Park town","State":"Montana","State_Abbrev":"MT"},
"geometry":{ "type": "Point", "coordinates": [-110.605786,45.883944]}},
{ "type": "Feature", "properties": {"Name":"Coffee Creek CDP","State":"Montana","State_Abbrev":"MT"},
"geometry":{ "type": "Point", "coordinates": [-110.082617,47.348978]}},
{ "type": "Feature", "properties": {"Name":"Colstrip city","State":"Montana","State_Abbrev":"MT"},
"geometry":{ "type": "Point", "coordinates": [-106.628419,45.894514]}},
{ "type": "Feature", "properties": {"Name":"Columbia Falls city","State":"Montana","State_Abbrev":"MT"},
"geometry":{ "type": "Point", "coordinates": [-114.191834,48.371476]}},
{ "type": "Feature", "properties": {"Name":"Columbus town","State":"Montana","State_Abbrev":"MT"},
"geometry":{ "type": "Point", "coordinates": [-109.248784,45.635966]}},
{ "type": "Feature", "properties": {"Name":"Condon CDP","State":"Montana","State_Abbrev":"MT"},
"geometry":{ "type": "Point", "coordinates": [-113.691081,47.534392]}},
{ "type": "Feature", "properties": {"Name":"Conner CDP","State":"Montana","State_Abbrev":"MT"},
"geometry":{ "type": "Point", "coordinates": [-114.133474,45.925791]}},
{ "type": "Feature", "properties": {"Name":"Conrad city","State":"Montana","State_Abbrev":"MT"},
"geometry":{ "type": "Point", "coordinates": [-111.946593,48.174083]}},
{ "type": "Feature", "properties": {"Name":"Cooke City CDP","State":"Montana","State_Abbrev":"MT"},
"geometry":{ "type": "Point", "coordinates": [-109.9119,45.01869]}},
{ "type": "Feature", "properties": {"Name":"Coram CDP","State":"Montana","State_Abbrev":"MT"},
"geometry":{ "type": "Point", "coordinates": [-114.046814,48.43062]}},
{ "type": "Feature", "properties": {"Name":"Corvallis CDP","State":"Montana","State_Abbrev":"MT"},
"geometry":{ "type": "Point", "coordinates": [-114.111708,46.313952]}},
{ "type": "Feature", "properties": {"Name":"Corwin Springs CDP","State":"Montana","State_Abbrev":"MT"},
"geometry":{ "type": "Point", "coordinates": [-110.799188,45.132255]}},
{ "type": "Feature", "properties": {"Name":"Craig CDP","State":"Montana","State_Abbrev":"MT"},
"geometry":{ "type": "Point", "coordinates": [-111.967987,47.070565]}},
{ "type": "Feature", "properties": {"Name":"Crane CDP","State":"Montana","State_Abbrev":"MT"},
"geometry":{ "type": "Point", "coordinates": [-104.238602,47.579432]}},
{ "type": "Feature", "properties": {"Name":"Crow Agency CDP","State":"Montana","State_Abbrev":"MT"},
"geometry":{ "type": "Point", "coordinates": [-107.459154,45.602651]}},
{ "type": "Feature", "properties": {"Name":"Culbertson town","State":"Montana","State_Abbrev":"MT"},
"geometry":{ "type": "Point", "coordinates": [-104.518117,48.144792]}},
{ "type": "Feature", "properties": {"Name":"Custer CDP","State":"Montana","State_Abbrev":"MT"},
"geometry":{ "type": "Point", "coordinates": [-107.555549,46.129227]}},
{ "type": "Feature", "properties": {"Name":"Cut Bank city","State":"Montana","State_Abbrev":"MT"},
"geometry":{ "type": "Point", "coordinates": [-112.330068,48.634097]}},
{ "type": "Feature", "properties": {"Name":"Cyr CDP","State":"Montana","State_Abbrev":"MT"},
"geometry":{ "type": "Point", "coordinates": [-114.587727,47.00032]}},
{ "type": "Feature", "properties": {"Name":"Danvers CDP","State":"Montana","State_Abbrev":"MT"},
"geometry":{ "type": "Point", "coordinates": [-109.713053,47.228328]}},
{ "type": "Feature", "properties": {"Name":"Darby town","State":"Montana","State_Abbrev":"MT"},
"geometry":{ "type": "Point", "coordinates": [-114.179745,46.024549]}},
{ "type": "Feature", "properties": {"Name":"Dayton CDP","State":"Montana","State_Abbrev":"MT"},
"geometry":{ "type": "Point", "coordinates": [-114.276849,47.864867]}},
{ "type": "Feature", "properties": {"Name":"De Borgia CDP","State":"Montana","State_Abbrev":"MT"},
"geometry":{ "type": "Point", "coordinates": [-115.321026,47.370104]}},
{ "type": "Feature", "properties": {"Name":"Deerfield Colony CDP","State":"Montana","State_Abbrev":"MT"},
"geometry":{ "type": "Point", "coordinates": [-109.676865,47.257096]}},
{ "type": "Feature", "properties": {"Name":"Deer Lodge city","State":"Montana","State_Abbrev":"MT"},
"geometry":{ "type": "Point", "coordinates": [-112.733237,46.398345]}},
{ "type": "Feature", "properties": {"Name":"Dell CDP","State":"Montana","State_Abbrev":"MT"},
"geometry":{ "type": "Point", "coordinates": [-112.696894,44.726755]}},
{ "type": "Feature", "properties": {"Name":"Denton town","State":"Montana","State_Abbrev":"MT"},
"geometry":{ "type": "Point", "coordinates": [-109.948161,47.322167]}},
{ "type": "Feature", "properties": {"Name":"Dewey CDP","State":"Montana","State_Abbrev":"MT"},
"geometry":{ "type": "Point", "coordinates": [-112.852899,45.775399]}},
{ "type": "Feature", "properties": {"Name":"Dillon city","State":"Montana","State_Abbrev":"MT"},
"geometry":{ "type": "Point", "coordinates": [-112.63458,45.217876]}},
{ "type": "Feature", "properties": {"Name":"Dixon CDP","State":"Montana","State_Abbrev":"MT"},
"geometry":{ "type": "Point", "coordinates": [-114.360067,47.317824]}},
{ "type": "Feature", "properties": {"Name":"Dodson town","State":"Montana","State_Abbrev":"MT"},
"geometry":{ "type": "Point", "coordinates": [-108.247242,48.395338]}},
{ "type": "Feature", "properties": {"Name":"Drummond town","State":"Montana","State_Abbrev":"MT"},
"geometry":{ "type": "Point", "coordinates": [-113.147042,46.666585]}},
{ "type": "Feature", "properties": {"Name":"Duncan Ranch Colony CDP","State":"Montana","State_Abbrev":"MT"},
"geometry":{ "type": "Point", "coordinates": [-110.026266,46.441832]}},
{ "type": "Feature", "properties": {"Name":"Dupuyer CDP","State":"Montana","State_Abbrev":"MT"},
"geometry":{ "type": "Point", "coordinates": [-112.474464,48.182424]}},
{ "type": "Feature", "properties": {"Name":"Dutton town","State":"Montana","State_Abbrev":"MT"},
"geometry":{ "type": "Point", "coordinates": [-111.714305,47.847539]}},
{ "type": "Feature", "properties": {"Name":"Eagle Creek Colony CDP","State":"Montana","State_Abbrev":"MT"},
"geometry":{ "type": "Point", "coordinates": [-111.203113,48.702124]}},
{ "type": "Feature", "properties": {"Name":"East End Colony CDP","State":"Montana","State_Abbrev":"MT"},
"geometry":{ "type": "Point", "coordinates": [-109.546587,48.751857]}},
{ "type": "Feature", "properties": {"Name":"East Glacier Park Village CDP","State":"Montana","State_Abbrev":"MT"},
"geometry":{ "type": "Point", "coordinates": [-113.223498,48.445916]}},
{ "type": "Feature", "properties": {"Name":"East Helena city","State":"Montana","State_Abbrev":"MT"},
"geometry":{ "type": "Point", "coordinates": [-111.920791,46.584464]}},
{ "type": "Feature", "properties": {"Name":"East Malta Colony CDP","State":"Montana","State_Abbrev":"MT"},
"geometry":{ "type": "Point", "coordinates": [-107.610802,48.350583]}},
{ "type": "Feature", "properties": {"Name":"East Missoula CDP","State":"Montana","State_Abbrev":"MT"},
"geometry":{ "type": "Point", "coordinates": [-113.947243,46.879666]}},
{ "type": "Feature", "properties": {"Name":"Edgar CDP","State":"Montana","State_Abbrev":"MT"},
"geometry":{ "type": "Point", "coordinates": [-108.858789,45.459312]}},
{ "type": "Feature", "properties": {"Name":"Ekalaka town","State":"Montana","State_Abbrev":"MT"},
"geometry":{ "type": "Point", "coordinates": [-104.551683,45.889207]}},
{ "type": "Feature", "properties": {"Name":"Elkhorn CDP","State":"Montana","State_Abbrev":"MT"},
"geometry":{ "type": "Point", "coordinates": [-111.948837,46.28431]}},
{ "type": "Feature", "properties": {"Name":"Elliston CDP","State":"Montana","State_Abbrev":"MT"},
"geometry":{ "type": "Point", "coordinates": [-112.463842,46.558694]}},
{ "type": "Feature", "properties": {"Name":"Elmo CDP","State":"Montana","State_Abbrev":"MT"},
"geometry":{ "type": "Point", "coordinates": [-114.348349,47.829024]}},
{ "type": "Feature", "properties": {"Name":"Emigrant CDP","State":"Montana","State_Abbrev":"MT"},
"geometry":{ "type": "Point", "coordinates": [-110.756889,45.384218]}},
{ "type": "Feature", "properties": {"Name":"Ennis town","State":"Montana","State_Abbrev":"MT"},
"geometry":{ "type": "Point", "coordinates": [-111.731302,45.346119]}},
{ "type": "Feature", "properties": {"Name":"Essex CDP","State":"Montana","State_Abbrev":"MT"},
"geometry":{ "type": "Point", "coordinates": [-113.610657,48.284943]}},
{ "type": "Feature", "properties": {"Name":"Eureka town","State":"Montana","State_Abbrev":"MT"},
"geometry":{ "type": "Point", "coordinates": [-115.049176,48.878942]}},
{ "type": "Feature", "properties": {"Name":"Evaro CDP","State":"Montana","State_Abbrev":"MT"},
"geometry":{ "type": "Point", "coordinates": [-114.025975,47.073949]}},
{ "type": "Feature", "properties": {"Name":"Evergreen CDP","State":"Montana","State_Abbrev":"MT"},
"geometry":{ "type": "Point", "coordinates": [-114.272298,48.228926]}},
{ "type": "Feature", "properties": {"Name":"Fairfield town","State":"Montana","State_Abbrev":"MT"},
"geometry":{ "type": "Point", "coordinates": [-111.98141,47.615345]}},
{ "type": "Feature", "properties": {"Name":"Fair Haven Colony CDP","State":"Montana","State_Abbrev":"MT"},
"geometry":{ "type": "Point", "coordinates": [-111.629437,47.404077]}},
{ "type": "Feature", "properties": {"Name":"Fairview town","State":"Montana","State_Abbrev":"MT"},
"geometry":{ "type": "Point", "coordinates": [-104.050894,47.852026]}},
{ "type": "Feature", "properties": {"Name":"Fallon CDP","State":"Montana","State_Abbrev":"MT"},
"geometry":{ "type": "Point", "coordinates": [-105.127496,46.83705]}},
{ "type": "Feature", "properties": {"Name":"Finley Point CDP","State":"Montana","State_Abbrev":"MT"},
"geometry":{ "type": "Point", "coordinates": [-114.075034,47.749505]}},
{ "type": "Feature", "properties": {"Name":"Fishtail CDP","State":"Montana","State_Abbrev":"MT"},
"geometry":{ "type": "Point", "coordinates": [-109.508429,45.448071]}},
{ "type": "Feature", "properties": {"Name":"Flat Willow Colony CDP","State":"Montana","State_Abbrev":"MT"},
"geometry":{ "type": "Point", "coordinates": [-108.488203,46.725166]}},
{ "type": "Feature", "properties": {"Name":"Flaxville town","State":"Montana","State_Abbrev":"MT"},
"geometry":{ "type": "Point", "coordinates": [-105.173629,48.804486]}},
{ "type": "Feature", "properties": {"Name":"Florence CDP","State":"Montana","State_Abbrev":"MT"},
"geometry":{ "type": "Point", "coordinates": [-114.081347,46.634486]}},
{ "type": "Feature", "properties": {"Name":"Floweree CDP","State":"Montana","State_Abbrev":"MT"},
"geometry":{ "type": "Point", "coordinates": [-111.025262,47.724804]}},
{ "type": "Feature", "properties": {"Name":"Fords Creek Colony CDP","State":"Montana","State_Abbrev":"MT"},
"geometry":{ "type": "Point", "coordinates": [-108.916691,47.131036]}},
{ "type": "Feature", "properties": {"Name":"Forest Hill Village CDP","State":"Montana","State_Abbrev":"MT"},
"geometry":{ "type": "Point", "coordinates": [-114.262517,48.115913]}},
{ "type": "Feature", "properties": {"Name":"Forsyth city","State":"Montana","State_Abbrev":"MT"},
"geometry":{ "type": "Point", "coordinates": [-106.672587,46.267882]}},
{ "type": "Feature", "properties": {"Name":"Fort Belknap Agency CDP","State":"Montana","State_Abbrev":"MT"},
"geometry":{ "type": "Point", "coordinates": [-108.679958,48.430119]}},
{ "type": "Feature", "properties": {"Name":"Fort Benton city","State":"Montana","State_Abbrev":"MT"},
"geometry":{ "type": "Point", "coordinates": [-110.655787,47.829003]}},
{ "type": "Feature", "properties": {"Name":"Fortine CDP","State":"Montana","State_Abbrev":"MT"},
"geometry":{ "type": "Point", "coordinates": [-114.88602,48.770142]}},
{ "type": "Feature", "properties": {"Name":"Fort Peck town","State":"Montana","State_Abbrev":"MT"},
"geometry":{ "type": "Point", "coordinates": [-106.455199,48.00705]}},
{ "type": "Feature", "properties": {"Name":"Fort Shaw CDP","State":"Montana","State_Abbrev":"MT"},
"geometry":{ "type": "Point", "coordinates": [-111.819344,47.496885]}},
{ "type": "Feature", "properties": {"Name":"Fort Smith CDP","State":"Montana","State_Abbrev":"MT"},
"geometry":{ "type": "Point", "coordinates": [-107.935078,45.317138]}},
{ "type": "Feature", "properties": {"Name":"Forty Mile Colony CDP","State":"Montana","State_Abbrev":"MT"},
"geometry":{ "type": "Point", "coordinates": [-107.356763,45.282771]}},
{ "type": "Feature", "properties": {"Name":"Four Corners CDP","State":"Montana","State_Abbrev":"MT"},
"geometry":{ "type": "Point", "coordinates": [-111.178408,45.669776]}},
{ "type": "Feature", "properties": {"Name":"Fox CDP","State":"Montana","State_Abbrev":"MT"},
"geometry":{ "type": "Point", "coordinates": [-109.212489,45.288417]}},
{ "type": "Feature", "properties": {"Name":"Fox Lake CDP","State":"Montana","State_Abbrev":"MT"},
"geometry":{ "type": "Point", "coordinates": [-104.630654,47.685655]}},
{ "type": "Feature", "properties": {"Name":"Frazer CDP","State":"Montana","State_Abbrev":"MT"},
"geometry":{ "type": "Point", "coordinates": [-106.048524,48.048928]}},
{ "type": "Feature", "properties": {"Name":"Frenchtown CDP","State":"Montana","State_Abbrev":"MT"},
"geometry":{ "type": "Point", "coordinates": [-114.246192,47.028011]}},
{ "type": "Feature", "properties": {"Name":"Froid town","State":"Montana","State_Abbrev":"MT"},
"geometry":{ "type": "Point", "coordinates": [-104.490841,48.338043]}},
{ "type": "Feature", "properties": {"Name":"Fromberg town","State":"Montana","State_Abbrev":"MT"},
"geometry":{ "type": "Point", "coordinates": [-108.901369,45.393525]}},
{ "type": "Feature", "properties": {"Name":"Gallatin Gateway CDP","State":"Montana","State_Abbrev":"MT"},
"geometry":{ "type": "Point", "coordinates": [-111.194587,45.587809]}},
{ "type": "Feature", "properties": {"Name":"Gallatin River Ranch CDP","State":"Montana","State_Abbrev":"MT"},
"geometry":{ "type": "Point", "coordinates": [-111.329442,45.902112]}},
{ "type": "Feature", "properties": {"Name":"Gardiner CDP","State":"Montana","State_Abbrev":"MT"},
"geometry":{ "type": "Point", "coordinates": [-110.737775,45.052509]}},
{ "type": "Feature", "properties": {"Name":"Garrison CDP","State":"Montana","State_Abbrev":"MT"},
"geometry":{ "type": "Point", "coordinates": [-112.816758,46.540193]}},
{ "type": "Feature", "properties": {"Name":"Geraldine town","State":"Montana","State_Abbrev":"MT"},
"geometry":{ "type": "Point", "coordinates": [-110.266733,47.602016]}},
{ "type": "Feature", "properties": {"Name":"Geyser CDP","State":"Montana","State_Abbrev":"MT"},
"geometry":{ "type": "Point", "coordinates": [-110.492693,47.263323]}},
{ "type": "Feature", "properties": {"Name":"Gibson Flats CDP","State":"Montana","State_Abbrev":"MT"},
"geometry":{ "type": "Point", "coordinates": [-111.240427,47.464011]}},
{ "type": "Feature", "properties": {"Name":"Gildford CDP","State":"Montana","State_Abbrev":"MT"},
"geometry":{ "type": "Point", "coordinates": [-110.307094,48.573724]}},
{ "type": "Feature", "properties": {"Name":"Gildford Colony CDP","State":"Montana","State_Abbrev":"MT"},
"geometry":{ "type": "Point", "coordinates": [-110.284339,48.80251]}},
{ "type": "Feature", "properties": {"Name":"Gilman CDP","State":"Montana","State_Abbrev":"MT"},
"geometry":{ "type": "Point", "coordinates": [-112.357797,47.509302]}},
{ "type": "Feature", "properties": {"Name":"Glacier Colony CDP","State":"Montana","State_Abbrev":"MT"},
"geometry":{ "type": "Point", "coordinates": [-112.214975,48.830359]}},
{ "type": "Feature", "properties": {"Name":"Glasgow city","State":"Montana","State_Abbrev":"MT"},
"geometry":{ "type": "Point", "coordinates": [-106.632077,48.199027]}},
{ "type": "Feature", "properties": {"Name":"Glen CDP","State":"Montana","State_Abbrev":"MT"},
"geometry":{ "type": "Point", "coordinates": [-112.692001,45.478905]}},
{ "type": "Feature", "properties": {"Name":"Glendale Colony CDP","State":"Montana","State_Abbrev":"MT"},
"geometry":{ "type": "Point", "coordinates": [-112.544219,48.840885]}},
{ "type": "Feature", "properties": {"Name":"Glendive city","State":"Montana","State_Abbrev":"MT"},
"geometry":{ "type": "Point", "coordinates": [-104.710856,47.106473]}},
{ "type": "Feature", "properties": {"Name":"Goldcreek CDP","State":"Montana","State_Abbrev":"MT"},
"geometry":{ "type": "Point", "coordinates": [-112.928436,46.583792]}},
{ "type": "Feature", "properties": {"Name":"Golden Valley Colony CDP","State":"Montana","State_Abbrev":"MT"},
"geometry":{ "type": "Point", "coordinates": [-109.27341,46.259244]}},
{ "type": "Feature", "properties": {"Name":"Grant CDP","State":"Montana","State_Abbrev":"MT"},
"geometry":{ "type": "Point", "coordinates": [-113.067458,45.009632]}},
{ "type": "Feature", "properties": {"Name":"Grass Range town","State":"Montana","State_Abbrev":"MT"},
"geometry":{ "type": "Point", "coordinates": [-108.803077,47.026069]}},
{ "type": "Feature", "properties": {"Name":"Great Falls city","State":"Montana","State_Abbrev":"MT"},
"geometry":{ "type": "Point", "coordinates": [-111.29997,47.502518]}},
{ "type": "Feature", "properties": {"Name":"Greycliff CDP","State":"Montana","State_Abbrev":"MT"},
"geometry":{ "type": "Point", "coordinates": [-109.779792,45.758654]}},
{ "type": "Feature", "properties": {"Name":"Hall CDP","State":"Montana","State_Abbrev":"MT"},
"geometry":{ "type": "Point", "coordinates": [-113.197079,46.586717]}},
{ "type": "Feature", "properties": {"Name":"Hamilton city","State":"Montana","State_Abbrev":"MT"},
"geometry":{ "type": "Point", "coordinates": [-114.159978,46.251583]}},
{ "type": "Feature", "properties": {"Name":"Happys Inn CDP","State":"Montana","State_Abbrev":"MT"},
"geometry":{ "type": "Point", "coordinates": [-115.126915,48.058349]}},
{ "type": "Feature", "properties": {"Name":"Hardin city","State":"Montana","State_Abbrev":"MT"},
"geometry":{ "type": "Point", "coordinates": [-107.608237,45.742231]}},
{ "type": "Feature", "properties": {"Name":"Hardy CDP","State":"Montana","State_Abbrev":"MT"},
"geometry":{ "type": "Point", "coordinates": [-111.815545,47.182546]}},
{ "type": "Feature", "properties": {"Name":"Harlem city","State":"Montana","State_Abbrev":"MT"},
"geometry":{ "type": "Point", "coordinates": [-108.784652,48.531857]}},
{ "type": "Feature", "properties": {"Name":"Harlowton city","State":"Montana","State_Abbrev":"MT"},
"geometry":{ "type": "Point", "coordinates": [-109.835104,46.436776]}},
{ "type": "Feature", "properties": {"Name":"Harrison CDP","State":"Montana","State_Abbrev":"MT"},
"geometry":{ "type": "Point", "coordinates": [-111.784416,45.704378]}},
{ "type": "Feature", "properties": {"Name":"Hartland Colony CDP","State":"Montana","State_Abbrev":"MT"},
"geometry":{ "type": "Point", "coordinates": [-109.448284,48.951969]}},
{ "type": "Feature", "properties": {"Name":"Haugan CDP","State":"Montana","State_Abbrev":"MT"},
"geometry":{ "type": "Point", "coordinates": [-115.407822,47.388602]}},
{ "type": "Feature", "properties": {"Name":"Havre city","State":"Montana","State_Abbrev":"MT"},
"geometry":{ "type": "Point", "coordinates": [-109.677956,48.541911]}},
{ "type": "Feature", "properties": {"Name":"Havre North CDP","State":"Montana","State_Abbrev":"MT"},
"geometry":{ "type": "Point", "coordinates": [-109.671233,48.563239]}},
{ "type": "Feature", "properties": {"Name":"Hays CDP","State":"Montana","State_Abbrev":"MT"},
"geometry":{ "type": "Point", "coordinates": [-108.660646,48.010366]}},
{ "type": "Feature", "properties": {"Name":"Heart Butte CDP","State":"Montana","State_Abbrev":"MT"},
"geometry":{ "type": "Point", "coordinates": [-112.833777,48.289615]}},
{ "type": "Feature", "properties": {"Name":"Hebgen Lake Estates CDP","State":"Montana","State_Abbrev":"MT"},
"geometry":{ "type": "Point", "coordinates": [-111.190453,44.76924]}},
{ "type": "Feature", "properties": {"Name":"Helena city","State":"Montana","State_Abbrev":"MT"},
"geometry":{ "type": "Point", "coordinates": [-112.018746,46.595465]}},
{ "type": "Feature", "properties": {"Name":"Helena Flats CDP","State":"Montana","State_Abbrev":"MT"},
"geometry":{ "type": "Point", "coordinates": [-114.236347,48.278609]}},
{ "type": "Feature", "properties": {"Name":"Helena Valley Northeast CDP","State":"Montana","State_Abbrev":"MT"},
"geometry":{ "type": "Point", "coordinates": [-111.938804,46.706606]}},
{ "type": "Feature", "properties": {"Name":"Helena Valley Northwest CDP","State":"Montana","State_Abbrev":"MT"},
"geometry":{ "type": "Point", "coordinates": [-112.058105,46.729488]}},
{ "type": "Feature", "properties": {"Name":"Helena Valley Southeast CDP","State":"Montana","State_Abbrev":"MT"},
"geometry":{ "type": "Point", "coordinates": [-111.9008,46.622593]}},
{ "type": "Feature", "properties": {"Name":"Helena Valley West Central CDP","State":"Montana","State_Abbrev":"MT"},
"geometry":{ "type": "Point", "coordinates": [-112.058584,46.66029]}},
{ "type": "Feature", "properties": {"Name":"Helena West Side CDP","State":"Montana","State_Abbrev":"MT"},
"geometry":{ "type": "Point", "coordinates": [-112.127791,46.595868]}},
{ "type": "Feature", "properties": {"Name":"Helmville CDP","State":"Montana","State_Abbrev":"MT"},
"geometry":{ "type": "Point", "coordinates": [-112.966794,46.856496]}},
{ "type": "Feature", "properties": {"Name":"Heron CDP","State":"Montana","State_Abbrev":"MT"},
"geometry":{ "type": "Point", "coordinates": [-115.98022,48.063758]}},
{ "type": "Feature", "properties": {"Name":"Herron CDP","State":"Montana","State_Abbrev":"MT"},
"geometry":{ "type": "Point", "coordinates": [-109.771759,48.53413]}},
{ "type": "Feature", "properties": {"Name":"Hidden Lake Colony CDP","State":"Montana","State_Abbrev":"MT"},
"geometry":{ "type": "Point", "coordinates": [-112.603149,48.598743]}},
{ "type": "Feature", "properties": {"Name":"Highwood CDP","State":"Montana","State_Abbrev":"MT"},
"geometry":{ "type": "Point", "coordinates": [-110.769605,47.599181]}},
{ "type": "Feature", "properties": {"Name":"Hilger CDP","State":"Montana","State_Abbrev":"MT"},
"geometry":{ "type": "Point", "coordinates": [-109.357223,47.255714]}},
{ "type": "Feature", "properties": {"Name":"Hilldale Colony CDP","State":"Montana","State_Abbrev":"MT"},
"geometry":{ "type": "Point", "coordinates": [-109.783241,48.803513]}},
{ "type": "Feature", "properties": {"Name":"Hillside Colony CDP","State":"Montana","State_Abbrev":"MT"},
"geometry":{ "type": "Point", "coordinates": [-112.070364,48.978855]}},
{ "type": "Feature", "properties": {"Name":"Hingham town","State":"Montana","State_Abbrev":"MT"},
"geometry":{ "type": "Point", "coordinates": [-110.421288,48.555449]}},
{ "type": "Feature", "properties": {"Name":"Hinsdale CDP","State":"Montana","State_Abbrev":"MT"},
"geometry":{ "type": "Point", "coordinates": [-107.086867,48.404783]}},
{ "type": "Feature", "properties": {"Name":"Hobson city","State":"Montana","State_Abbrev":"MT"},
"geometry":{ "type": "Point", "coordinates": [-109.873339,46.999431]}},
{ "type": "Feature", "properties": {"Name":"Hogeland CDP","State":"Montana","State_Abbrev":"MT"},
"geometry":{ "type": "Point", "coordinates": [-108.662401,48.854668]}},
{ "type": "Feature", "properties": {"Name":"Homestead CDP","State":"Montana","State_Abbrev":"MT"},
"geometry":{ "type": "Point", "coordinates": [-104.536949,48.420209]}},
{ "type": "Feature", "properties": {"Name":"Horizon Colony CDP","State":"Montana","State_Abbrev":"MT"},
"geometry":{ "type": "Point", "coordinates": [-112.227609,48.716716]}},
{ "type": "Feature", "properties": {"Name":"Hot Springs town","State":"Montana","State_Abbrev":"MT"},
"geometry":{ "type": "Point", "coordinates": [-114.670354,47.609203]}},
{ "type": "Feature", "properties": {"Name":"Hungry Horse CDP","State":"Montana","State_Abbrev":"MT"},
"geometry":{ "type": "Point", "coordinates": [-114.064861,48.383808]}},
{ "type": "Feature", "properties": {"Name":"Huntley CDP","State":"Montana","State_Abbrev":"MT"},
"geometry":{ "type": "Point", "coordinates": [-108.304442,45.900144]}},
{ "type": "Feature", "properties": {"Name":"Huson CDP","State":"Montana","State_Abbrev":"MT"},
"geometry":{ "type": "Point", "coordinates": [-114.340786,47.033243]}},
{ "type": "Feature", "properties": {"Name":"Hysham town","State":"Montana","State_Abbrev":"MT"},
"geometry":{ "type": "Point", "coordinates": [-107.230499,46.290921]}},
{ "type": "Feature", "properties": {"Name":"Indian Springs CDP","State":"Montana","State_Abbrev":"MT"},
"geometry":{ "type": "Point", "coordinates": [-115.043725,48.957793]}},
{ "type": "Feature", "properties": {"Name":"Inverness CDP","State":"Montana","State_Abbrev":"MT"},
"geometry":{ "type": "Point", "coordinates": [-110.710077,48.559865]}},
{ "type": "Feature", "properties": {"Name":"Ismay town","State":"Montana","State_Abbrev":"MT"},
"geometry":{ "type": "Point", "coordinates": [-104.792931,46.500227]}},
{ "type": "Feature", "properties": {"Name":"Jackson CDP","State":"Montana","State_Abbrev":"MT"},
"geometry":{ "type": "Point", "coordinates": [-113.409678,45.367885]}},
{ "type": "Feature", "properties": {"Name":"Jardine CDP","State":"Montana","State_Abbrev":"MT"},
"geometry":{ "type": "Point", "coordinates": [-110.618573,45.056491]}},
{ "type": "Feature", "properties": {"Name":"Jeffers CDP","State":"Montana","State_Abbrev":"MT"},
"geometry":{ "type": "Point", "coordinates": [-111.703659,45.348143]}},
{ "type": "Feature", "properties": {"Name":"Jefferson City CDP","State":"Montana","State_Abbrev":"MT"},
"geometry":{ "type": "Point", "coordinates": [-112.030486,46.377945]}},
{ "type": "Feature", "properties": {"Name":"Jette CDP","State":"Montana","State_Abbrev":"MT"},
"geometry":{ "type": "Point", "coordinates": [-114.190557,47.716947]}},
{ "type": "Feature", "properties": {"Name":"Joliet town","State":"Montana","State_Abbrev":"MT"},
"geometry":{ "type": "Point", "coordinates": [-108.972147,45.484367]}},
{ "type": "Feature", "properties": {"Name":"Joplin CDP","State":"Montana","State_Abbrev":"MT"},
"geometry":{ "type": "Point", "coordinates": [-110.77292,48.559391]}},
{ "type": "Feature", "properties": {"Name":"Jordan town","State":"Montana","State_Abbrev":"MT"},
"geometry":{ "type": "Point", "coordinates": [-106.909859,47.321054]}},
{ "type": "Feature", "properties": {"Name":"Judith Gap city","State":"Montana","State_Abbrev":"MT"},
"geometry":{ "type": "Point", "coordinates": [-109.753312,46.67907]}},
{ "type": "Feature", "properties": {"Name":"Kalispell city","State":"Montana","State_Abbrev":"MT"},
"geometry":{ "type": "Point", "coordinates": [-114.323523,48.213846]}},
{ "type": "Feature", "properties": {"Name":"Kerr CDP","State":"Montana","State_Abbrev":"MT"},
"geometry":{ "type": "Point", "coordinates": [-114.183035,47.676435]}},
{ "type": "Feature", "properties": {"Name":"Kevin town","State":"Montana","State_Abbrev":"MT"},
"geometry":{ "type": "Point", "coordinates": [-111.965771,48.745649]}},
{ "type": "Feature", "properties": {"Name":"Kicking Horse CDP","State":"Montana","State_Abbrev":"MT"},
"geometry":{ "type": "Point", "coordinates": [-114.060264,47.46115]}},
{ "type": "Feature", "properties": {"Name":"Kila CDP","State":"Montana","State_Abbrev":"MT"},
"geometry":{ "type": "Point", "coordinates": [-114.476703,48.121529]}},
{ "type": "Feature", "properties": {"Name":"Kilby Butte Colony CDP","State":"Montana","State_Abbrev":"MT"},
"geometry":{ "type": "Point", "coordinates": [-108.360375,46.476203]}},
{ "type": "Feature", "properties": {"Name":"King Arthur Park CDP","State":"Montana","State_Abbrev":"MT"},
"geometry":{ "type": "Point", "coordinates": [-111.12836,45.666532]}},
{ "type": "Feature", "properties": {"Name":"King Ranch Colony CDP","State":"Montana","State_Abbrev":"MT"},
"geometry":{ "type": "Point", "coordinates": [-109.636196,47.057223]}},
{ "type": "Feature", "properties": {"Name":"Kingsbury Colony CDP","State":"Montana","State_Abbrev":"MT"},
"geometry":{ "type": "Point", "coordinates": [-112.484629,48.304423]}},
{ "type": "Feature", "properties": {"Name":"Kings Point CDP","State":"Montana","State_Abbrev":"MT"},
"geometry":{ "type": "Point", "coordinates": [-114.153269,47.765756]}},
{ "type": "Feature", "properties": {"Name":"Klein CDP","State":"Montana","State_Abbrev":"MT"},
"geometry":{ "type": "Point", "coordinates": [-108.552585,46.398261]}},
{ "type": "Feature", "properties": {"Name":"Kremlin CDP","State":"Montana","State_Abbrev":"MT"},
"geometry":{ "type": "Point", "coordinates": [-110.086085,48.570627]}},
{ "type": "Feature", "properties": {"Name":"Lake Mary Ronan CDP","State":"Montana","State_Abbrev":"MT"},
"geometry":{ "type": "Point", "coordinates": [-114.379118,47.917229]}},
{ "type": "Feature", "properties": {"Name":"Lakeside CDP","State":"Montana","State_Abbrev":"MT"},
"geometry":{ "type": "Point", "coordinates": [-114.231916,48.018275]}},
{ "type": "Feature", "properties": {"Name":"Lakeview CDP","State":"Montana","State_Abbrev":"MT"},
"geometry":{ "type": "Point", "coordinates": [-111.812365,44.60213]}},
{ "type": "Feature", "properties": {"Name":"Lame Deer CDP","State":"Montana","State_Abbrev":"MT"},
"geometry":{ "type": "Point", "coordinates": [-106.613362,45.617651]}},
{ "type": "Feature", "properties": {"Name":"Landusky CDP","State":"Montana","State_Abbrev":"MT"},
"geometry":{ "type": "Point", "coordinates": [-108.619741,47.898274]}},
{ "type": "Feature", "properties": {"Name":"Laredo CDP","State":"Montana","State_Abbrev":"MT"},
"geometry":{ "type": "Point", "coordinates": [-109.885978,48.430306]}},
{ "type": "Feature", "properties": {"Name":"Laurel city","State":"Montana","State_Abbrev":"MT"},
"geometry":{ "type": "Point", "coordinates": [-108.770841,45.672956]}},
{ "type": "Feature", "properties": {"Name":"Lavina town","State":"Montana","State_Abbrev":"MT"},
"geometry":{ "type": "Point", "coordinates": [-108.938808,46.295015]}},
{ "type": "Feature", "properties": {"Name":"Lewistown city","State":"Montana","State_Abbrev":"MT"},
"geometry":{ "type": "Point", "coordinates": [-109.452399,47.05138]}},
{ "type": "Feature", "properties": {"Name":"Lewistown Heights CDP","State":"Montana","State_Abbrev":"MT"},
"geometry":{ "type": "Point", "coordinates": [-109.473528,47.078383]}},
{ "type": "Feature", "properties": {"Name":"Libby city","State":"Montana","State_Abbrev":"MT"},
"geometry":{ "type": "Point", "coordinates": [-115.556701,48.386421]}},
{ "type": "Feature", "properties": {"Name":"Lima town","State":"Montana","State_Abbrev":"MT"},
"geometry":{ "type": "Point", "coordinates": [-112.591922,44.638406]}},
{ "type": "Feature", "properties": {"Name":"Lincoln CDP","State":"Montana","State_Abbrev":"MT"},
"geometry":{ "type": "Point", "coordinates": [-112.671497,46.953382]}},
{ "type": "Feature", "properties": {"Name":"Lindisfarne CDP","State":"Montana","State_Abbrev":"MT"},
"geometry":{ "type": "Point", "coordinates": [-114.208211,47.80422]}},
{ "type": "Feature", "properties": {"Name":"Lindsay CDP","State":"Montana","State_Abbrev":"MT"},
"geometry":{ "type": "Point", "coordinates": [-105.152791,47.224885]}},
{ "type": "Feature", "properties": {"Name":"Little Bitterroot Lake CDP","State":"Montana","State_Abbrev":"MT"},
"geometry":{ "type": "Point", "coordinates": [-114.7259,48.133869]}},
{ "type": "Feature", "properties": {"Name":"Little Browning CDP","State":"Montana","State_Abbrev":"MT"},
"geometry":{ "type": "Point", "coordinates": [-112.351313,48.625599]}},
{ "type": "Feature", "properties": {"Name":"Livingston city","State":"Montana","State_Abbrev":"MT"},
"geometry":{ "type": "Point", "coordinates": [-110.555884,45.665503]}},
{ "type": "Feature", "properties": {"Name":"Lockwood CDP","State":"Montana","State_Abbrev":"MT"},
"geometry":{ "type": "Point", "coordinates": [-108.397127,45.830531]}},
{ "type": "Feature", "properties": {"Name":"Lodge Grass town","State":"Montana","State_Abbrev":"MT"},
"geometry":{ "type": "Point", "coordinates": [-107.367783,45.31426]}},
{ "type": "Feature", "properties": {"Name":"Lodge Pole CDP","State":"Montana","State_Abbrev":"MT"},
"geometry":{ "type": "Point", "coordinates": [-108.551732,48.027236]}},
{ "type": "Feature", "properties": {"Name":"Logan CDP","State":"Montana","State_Abbrev":"MT"},
"geometry":{ "type": "Point", "coordinates": [-111.423822,45.882907]}},
{ "type": "Feature", "properties": {"Name":"Lolo CDP","State":"Montana","State_Abbrev":"MT"},
"geometry":{ "type": "Point", "coordinates": [-114.108453,46.771857]}},
{ "type": "Feature", "properties": {"Name":"Loma CDP","State":"Montana","State_Abbrev":"MT"},
"geometry":{ "type": "Point", "coordinates": [-110.488611,47.951118]}},
{ "type": "Feature", "properties": {"Name":"Lonepine CDP","State":"Montana","State_Abbrev":"MT"},
"geometry":{ "type": "Point", "coordinates": [-114.639625,47.692119]}},
{ "type": "Feature", "properties": {"Name":"Loring Colony CDP","State":"Montana","State_Abbrev":"MT"},
"geometry":{ "type": "Point", "coordinates": [-107.968654,48.789125]}},
{ "type": "Feature", "properties": {"Name":"Luther CDP","State":"Montana","State_Abbrev":"MT"},
"geometry":{ "type": "Point", "coordinates": [-109.416132,45.284963]}},
{ "type": "Feature", "properties": {"Name":"McAllister CDP","State":"Montana","State_Abbrev":"MT"},
"geometry":{ "type": "Point", "coordinates": [-111.725169,45.436393]}},
{ "type": "Feature", "properties": {"Name":"Malmstrom AFB CDP","State":"Montana","State_Abbrev":"MT"},
"geometry":{ "type": "Point", "coordinates": [-111.182513,47.505847]}},
{ "type": "Feature", "properties": {"Name":"Malta city","State":"Montana","State_Abbrev":"MT"},
"geometry":{ "type": "Point", "coordinates": [-107.870227,48.355497]}},
{ "type": "Feature", "properties": {"Name":"Mammoth CDP","State":"Montana","State_Abbrev":"MT"},
"geometry":{ "type": "Point", "coordinates": [-112.017694,45.669171]}},
{ "type": "Feature", "properties": {"Name":"Manhattan town","State":"Montana","State_Abbrev":"MT"},
"geometry":{ "type": "Point", "coordinates": [-111.330283,45.858626]}},
{ "type": "Feature", "properties": {"Name":"Marion CDP","State":"Montana","State_Abbrev":"MT"},
"geometry":{ "type": "Point", "coordinates": [-114.679609,48.086481]}},
{ "type": "Feature", "properties": {"Name":"Martin City CDP","State":"Montana","State_Abbrev":"MT"},
"geometry":{ "type": "Point", "coordinates": [-114.030998,48.3931]}},
{ "type": "Feature", "properties": {"Name":"Martinsdale CDP","State":"Montana","State_Abbrev":"MT"},
"geometry":{ "type": "Point", "coordinates": [-110.311974,46.454741]}},
{ "type": "Feature", "properties": {"Name":"Martinsdale Colony CDP","State":"Montana","State_Abbrev":"MT"},
"geometry":{ "type": "Point", "coordinates": [-110.260505,46.489594]}},
{ "type": "Feature", "properties": {"Name":"Marysville CDP","State":"Montana","State_Abbrev":"MT"},
"geometry":{ "type": "Point", "coordinates": [-112.302733,46.750242]}},
{ "type": "Feature", "properties": {"Name":"Maverick Mountain CDP","State":"Montana","State_Abbrev":"MT"},
"geometry":{ "type": "Point", "coordinates": [-113.110969,45.418111]}},
{ "type": "Feature", "properties": {"Name":"Maxville CDP","State":"Montana","State_Abbrev":"MT"},
"geometry":{ "type": "Point", "coordinates": [-113.235375,46.476127]}},
{ "type": "Feature", "properties": {"Name":"Medicine Lake town","State":"Montana","State_Abbrev":"MT"},
"geometry":{ "type": "Point", "coordinates": [-104.501676,48.5022]}},
{ "type": "Feature", "properties": {"Name":"Melstone town","State":"Montana","State_Abbrev":"MT"},
"geometry":{ "type": "Point", "coordinates": [-107.868255,46.598696]}},
{ "type": "Feature", "properties": {"Name":"Midway Colony CDP","State":"Montana","State_Abbrev":"MT"},
"geometry":{ "type": "Point", "coordinates": [-111.993533,48.06698]}},
{ "type": "Feature", "properties": {"Name":"Miles City city","State":"Montana","State_Abbrev":"MT"},
"geometry":{ "type": "Point", "coordinates": [-105.838944,46.405823]}},
{ "type": "Feature", "properties": {"Name":"Milford Colony CDP","State":"Montana","State_Abbrev":"MT"},
"geometry":{ "type": "Point", "coordinates": [-112.21164,47.329813]}},
{ "type": "Feature", "properties": {"Name":"Miller Colony CDP","State":"Montana","State_Abbrev":"MT"},
"geometry":{ "type": "Point", "coordinates": [-112.291712,47.925717]}},
{ "type": "Feature", "properties": {"Name":"Missoula city","State":"Montana","State_Abbrev":"MT"},
"geometry":{ "type": "Point", "coordinates": [-114.026136,46.874359]}},
{ "type": "Feature", "properties": {"Name":"Moccasin CDP","State":"Montana","State_Abbrev":"MT"},
"geometry":{ "type": "Point", "coordinates": [-109.908604,47.052728]}},
{ "type": "Feature", "properties": {"Name":"Monarch CDP","State":"Montana","State_Abbrev":"MT"},
"geometry":{ "type": "Point", "coordinates": [-110.844806,47.100289]}},
{ "type": "Feature", "properties": {"Name":"Montana City CDP","State":"Montana","State_Abbrev":"MT"},
"geometry":{ "type": "Point", "coordinates": [-111.933472,46.52399]}},
{ "type": "Feature", "properties": {"Name":"Montaqua CDP","State":"Montana","State_Abbrev":"MT"},
"geometry":{ "type": "Point", "coordinates": [-108.908711,45.507253]}},
{ "type": "Feature", "properties": {"Name":"Moore town","State":"Montana","State_Abbrev":"MT"},
"geometry":{ "type": "Point", "coordinates": [-109.695113,46.974956]}},
{ "type": "Feature", "properties": {"Name":"Mountain View Colony CDP","State":"Montana","State_Abbrev":"MT"},
"geometry":{ "type": "Point", "coordinates": [-108.721341,46.068024]}},
{ "type": "Feature", "properties": {"Name":"Muddy CDP","State":"Montana","State_Abbrev":"MT"},
"geometry":{ "type": "Point", "coordinates": [-106.775353,45.579773]}},
{ "type": "Feature", "properties": {"Name":"Musselshell CDP","State":"Montana","State_Abbrev":"MT"},
"geometry":{ "type": "Point", "coordinates": [-108.096293,46.494154]}},
{ "type": "Feature", "properties": {"Name":"Nashua town","State":"Montana","State_Abbrev":"MT"},
"geometry":{ "type": "Point", "coordinates": [-106.357118,48.133551]}},
{ "type": "Feature", "properties": {"Name":"Neihart town","State":"Montana","State_Abbrev":"MT"},
"geometry":{ "type": "Point", "coordinates": [-110.736052,46.935209]}},
{ "type": "Feature", "properties": {"Name":"New Miami Colony CDP","State":"Montana","State_Abbrev":"MT"},
"geometry":{ "type": "Point", "coordinates": [-112.280423,48.19117]}},
{ "type": "Feature", "properties": {"Name":"New Rockport Colony CDP","State":"Montana","State_Abbrev":"MT"},
"geometry":{ "type": "Point", "coordinates": [-112.034807,47.859798]}},
{ "type": "Feature", "properties": {"Name":"Niarada CDP","State":"Montana","State_Abbrev":"MT"},
"geometry":{ "type": "Point", "coordinates": [-114.557807,47.830918]}},
{ "type": "Feature", "properties": {"Name":"Nibbe CDP","State":"Montana","State_Abbrev":"MT"},
"geometry":{ "type": "Point", "coordinates": [-108.02714,45.981937]}},
{ "type": "Feature", "properties": {"Name":"Norris CDP","State":"Montana","State_Abbrev":"MT"},
"geometry":{ "type": "Point", "coordinates": [-111.691333,45.573087]}},
{ "type": "Feature", "properties": {"Name":"North Browning CDP","State":"Montana","State_Abbrev":"MT"},
"geometry":{ "type": "Point", "coordinates": [-113.031436,48.571191]}},
{ "type": "Feature", "properties": {"Name":"North Harlem Colony CDP","State":"Montana","State_Abbrev":"MT"},
"geometry":{ "type": "Point", "coordinates": [-108.755576,48.584343]}},
{ "type": "Feature", "properties": {"Name":"Noxon CDP","State":"Montana","State_Abbrev":"MT"},
"geometry":{ "type": "Point", "coordinates": [-115.770857,47.985046]}},
{ "type": "Feature", "properties": {"Name":"Nye CDP","State":"Montana","State_Abbrev":"MT"},
"geometry":{ "type": "Point", "coordinates": [-109.806906,45.434026]}},
{ "type": "Feature", "properties": {"Name":"Old Agency CDP","State":"Montana","State_Abbrev":"MT"},
"geometry":{ "type": "Point", "coordinates": [-114.297499,47.325186]}},
{ "type": "Feature", "properties": {"Name":"Olney CDP","State":"Montana","State_Abbrev":"MT"},
"geometry":{ "type": "Point", "coordinates": [-114.57262,48.547036]}},
{ "type": "Feature", "properties": {"Name":"Opheim town","State":"Montana","State_Abbrev":"MT"},
"geometry":{ "type": "Point", "coordinates": [-106.40836,48.857055]}},
{ "type": "Feature", "properties": {"Name":"Orchard Homes CDP","State":"Montana","State_Abbrev":"MT"},
"geometry":{ "type": "Point", "coordinates": [-114.076756,46.854176]}},
{ "type": "Feature", "properties": {"Name":"Outlook town","State":"Montana","State_Abbrev":"MT"},
"geometry":{ "type": "Point", "coordinates": [-104.784914,48.888784]}},
{ "type": "Feature", "properties": {"Name":"Ovando CDP","State":"Montana","State_Abbrev":"MT"},
"geometry":{ "type": "Point", "coordinates": [-113.181749,47.022877]}},
{ "type": "Feature", "properties": {"Name":"Pablo CDP","State":"Montana","State_Abbrev":"MT"},
"geometry":{ "type": "Point", "coordinates": [-114.105684,47.604269]}},
{ "type": "Feature", "properties": {"Name":"Paradise CDP","State":"Montana","State_Abbrev":"MT"},
"geometry":{ "type": "Point", "coordinates": [-114.795285,47.384925]}},
{ "type": "Feature", "properties": {"Name":"Park City CDP","State":"Montana","State_Abbrev":"MT"},
"geometry":{ "type": "Point", "coordinates": [-108.925311,45.630946]}},
{ "type": "Feature", "properties": {"Name":"Parker School CDP","State":"Montana","State_Abbrev":"MT"},
"geometry":{ "type": "Point", "coordinates": [-109.734237,48.246797]}},
{ "type": "Feature", "properties": {"Name":"Peerless CDP","State":"Montana","State_Abbrev":"MT"},
"geometry":{ "type": "Point", "coordinates": [-105.830437,48.78226]}},
{ "type": "Feature", "properties": {"Name":"Pendroy CDP","State":"Montana","State_Abbrev":"MT"},
"geometry":{ "type": "Point", "coordinates": [-112.299202,48.073018]}},
{ "type": "Feature", "properties": {"Name":"Philipsburg town","State":"Montana","State_Abbrev":"MT"},
"geometry":{ "type": "Point", "coordinates": [-113.296002,46.332429]}},
{ "type": "Feature", "properties": {"Name":"Piltzville CDP","State":"Montana","State_Abbrev":"MT"},
"geometry":{ "type": "Point", "coordinates": [-113.852624,46.854704]}},
{ "type": "Feature", "properties": {"Name":"Pine Creek CDP","State":"Montana","State_Abbrev":"MT"},
"geometry":{ "type": "Point", "coordinates": [-110.572442,45.507834]}},
{ "type": "Feature", "properties": {"Name":"Pinesdale town","State":"Montana","State_Abbrev":"MT"},
"geometry":{ "type": "Point", "coordinates": [-114.222998,46.334211]}},
{ "type": "Feature", "properties": {"Name":"Pinnacle CDP","State":"Montana","State_Abbrev":"MT"},
"geometry":{ "type": "Point", "coordinates": [-113.648954,48.357878]}},
{ "type": "Feature", "properties": {"Name":"Pioneer Junction CDP","State":"Montana","State_Abbrev":"MT"},
"geometry":{ "type": "Point", "coordinates": [-115.518258,48.315795]}},
{ "type": "Feature", "properties": {"Name":"Plains town","State":"Montana","State_Abbrev":"MT"},
"geometry":{ "type": "Point", "coordinates": [-114.884201,47.460196]}},
{ "type": "Feature", "properties": {"Name":"Pleasant Valley Colony CDP","State":"Montana","State_Abbrev":"MT"},
"geometry":{ "type": "Point", "coordinates": [-111.044857,47.337882]}},
{ "type": "Feature", "properties": {"Name":"Plentywood city","State":"Montana","State_Abbrev":"MT"},
"geometry":{ "type": "Point", "coordinates": [-104.557296,48.77602]}},
{ "type": "Feature", "properties": {"Name":"Plevna town","State":"Montana","State_Abbrev":"MT"},
"geometry":{ "type": "Point", "coordinates": [-104.521067,46.421952]}},
{ "type": "Feature", "properties": {"Name":"Polebridge CDP","State":"Montana","State_Abbrev":"MT"},
"geometry":{ "type": "Point", "coordinates": [-114.281553,48.761455]}},
{ "type": "Feature", "properties": {"Name":"Polson city","State":"Montana","State_Abbrev":"MT"},
"geometry":{ "type": "Point", "coordinates": [-114.140791,47.688222]}},
{ "type": "Feature", "properties": {"Name":"Pompeys Pillar CDP","State":"Montana","State_Abbrev":"MT"},
"geometry":{ "type": "Point", "coordinates": [-107.950376,45.990644]}},
{ "type": "Feature", "properties": {"Name":"Pondera Colony CDP","State":"Montana","State_Abbrev":"MT"},
"geometry":{ "type": "Point", "coordinates": [-112.418099,48.239921]}},
{ "type": "Feature", "properties": {"Name":"Ponderosa Pines CDP","State":"Montana","State_Abbrev":"MT"},
"geometry":{ "type": "Point", "coordinates": [-111.367092,46.032146]}},
{ "type": "Feature", "properties": {"Name":"Pony CDP","State":"Montana","State_Abbrev":"MT"},
"geometry":{ "type": "Point", "coordinates": [-111.882579,45.662844]}},
{ "type": "Feature", "properties": {"Name":"Poplar city","State":"Montana","State_Abbrev":"MT"},
"geometry":{ "type": "Point", "coordinates": [-105.196887,48.110482]}},
{ "type": "Feature", "properties": {"Name":"Potomac CDP","State":"Montana","State_Abbrev":"MT"},
"geometry":{ "type": "Point", "coordinates": [-113.575135,46.881337]}},
{ "type": "Feature", "properties": {"Name":"Power CDP","State":"Montana","State_Abbrev":"MT"},
"geometry":{ "type": "Point", "coordinates": [-111.700277,47.721263]}},
{ "type": "Feature", "properties": {"Name":"Prairie Elk Colony CDP","State":"Montana","State_Abbrev":"MT"},
"geometry":{ "type": "Point", "coordinates": [-105.798182,48.014748]}},
{ "type": "Feature", "properties": {"Name":"Pray CDP","State":"Montana","State_Abbrev":"MT"},
"geometry":{ "type": "Point", "coordinates": [-110.648144,45.416908]}},
{ "type": "Feature", "properties": {"Name":"Pryor CDP","State":"Montana","State_Abbrev":"MT"},
"geometry":{ "type": "Point", "coordinates": [-108.529992,45.411419]}},
{ "type": "Feature", "properties": {"Name":"Racetrack CDP","State":"Montana","State_Abbrev":"MT"},
"geometry":{ "type": "Point", "coordinates": [-112.743631,46.277036]}},
{ "type": "Feature", "properties": {"Name":"Rader Creek CDP","State":"Montana","State_Abbrev":"MT"},
"geometry":{ "type": "Point", "coordinates": [-112.316034,45.845548]}},
{ "type": "Feature", "properties": {"Name":"Radersburg CDP","State":"Montana","State_Abbrev":"MT"},
"geometry":{ "type": "Point", "coordinates": [-111.631355,46.196366]}},
{ "type": "Feature", "properties": {"Name":"Rapelje CDP","State":"Montana","State_Abbrev":"MT"},
"geometry":{ "type": "Point", "coordinates": [-109.257959,45.971984]}},
{ "type": "Feature", "properties": {"Name":"Ravalli CDP","State":"Montana","State_Abbrev":"MT"},
"geometry":{ "type": "Point", "coordinates": [-114.164365,47.281299]}},
{ "type": "Feature", "properties": {"Name":"Raynesford CDP","State":"Montana","State_Abbrev":"MT"},
"geometry":{ "type": "Point", "coordinates": [-110.731923,47.270066]}},
{ "type": "Feature", "properties": {"Name":"Red Lodge city","State":"Montana","State_Abbrev":"MT"},
"geometry":{ "type": "Point", "coordinates": [-109.250143,45.193337]}},
{ "type": "Feature", "properties": {"Name":"Redstone CDP","State":"Montana","State_Abbrev":"MT"},
"geometry":{ "type": "Point", "coordinates": [-104.943259,48.821657]}},
{ "type": "Feature", "properties": {"Name":"Reed Point CDP","State":"Montana","State_Abbrev":"MT"},
"geometry":{ "type": "Point", "coordinates": [-109.547281,45.707085]}},
{ "type": "Feature", "properties": {"Name":"Reserve CDP","State":"Montana","State_Abbrev":"MT"},
"geometry":{ "type": "Point", "coordinates": [-104.467609,48.602365]}},
{ "type": "Feature", "properties": {"Name":"Rexford town","State":"Montana","State_Abbrev":"MT"},
"geometry":{ "type": "Point", "coordinates": [-115.171431,48.899792]}},
{ "type": "Feature", "properties": {"Name":"Rhodes CDP","State":"Montana","State_Abbrev":"MT"},
"geometry":{ "type": "Point", "coordinates": [-114.470993,48.280673]}},
{ "type": "Feature", "properties": {"Name":"Riceville CDP","State":"Montana","State_Abbrev":"MT"},
"geometry":{ "type": "Point", "coordinates": [-110.926266,47.220206]}},
{ "type": "Feature", "properties": {"Name":"Richey town","State":"Montana","State_Abbrev":"MT"},
"geometry":{ "type": "Point", "coordinates": [-105.069598,47.643903]}},
{ "type": "Feature", "properties": {"Name":"Rimini CDP","State":"Montana","State_Abbrev":"MT"},
"geometry":{ "type": "Point", "coordinates": [-112.249756,46.492152]}},
{ "type": "Feature", "properties": {"Name":"Rimrock Colony CDP","State":"Montana","State_Abbrev":"MT"},
"geometry":{ "type": "Point", "coordinates": [-112.095177,48.895374]}},
{ "type": "Feature", "properties": {"Name":"Riverbend CDP","State":"Montana","State_Abbrev":"MT"},
"geometry":{ "type": "Point", "coordinates": [-114.832423,47.145272]}},
{ "type": "Feature", "properties": {"Name":"Riverview Colony CDP","State":"Montana","State_Abbrev":"MT"},
"geometry":{ "type": "Point", "coordinates": [-111.031907,48.182668]}},
{ "type": "Feature", "properties": {"Name":"Roberts CDP","State":"Montana","State_Abbrev":"MT"},
"geometry":{ "type": "Point", "coordinates": [-109.181754,45.343612]}},
{ "type": "Feature", "properties": {"Name":"Rockport Colony CDP","State":"Montana","State_Abbrev":"MT"},
"geometry":{ "type": "Point", "coordinates": [-112.476118,48.067347]}},
{ "type": "Feature", "properties": {"Name":"Rockvale CDP","State":"Montana","State_Abbrev":"MT"},
"geometry":{ "type": "Point", "coordinates": [-108.871298,45.518668]}},
{ "type": "Feature", "properties": {"Name":"Rocky Boy's Agency CDP","State":"Montana","State_Abbrev":"MT"},
"geometry":{ "type": "Point", "coordinates": [-109.774804,48.261028]}},
{ "type": "Feature", "properties": {"Name":"Rocky Boy West CDP","State":"Montana","State_Abbrev":"MT"},
"geometry":{ "type": "Point", "coordinates": [-109.991837,48.297151]}},
{ "type": "Feature", "properties": {"Name":"Rocky Point CDP","State":"Montana","State_Abbrev":"MT"},
"geometry":{ "type": "Point", "coordinates": [-114.185477,47.732327]}},
{ "type": "Feature", "properties": {"Name":"Rollins CDP","State":"Montana","State_Abbrev":"MT"},
"geometry":{ "type": "Point", "coordinates": [-114.194869,47.910529]}},
{ "type": "Feature", "properties": {"Name":"Ronan city","State":"Montana","State_Abbrev":"MT"},
"geometry":{ "type": "Point", "coordinates": [-114.100908,47.528992]}},
{ "type": "Feature", "properties": {"Name":"Roscoe CDP","State":"Montana","State_Abbrev":"MT"},
"geometry":{ "type": "Point", "coordinates": [-109.493346,45.351813]}},
{ "type": "Feature", "properties": {"Name":"Rosebud CDP","State":"Montana","State_Abbrev":"MT"},
"geometry":{ "type": "Point", "coordinates": [-106.454091,46.269792]}},
{ "type": "Feature", "properties": {"Name":"Roundup city","State":"Montana","State_Abbrev":"MT"},
"geometry":{ "type": "Point", "coordinates": [-108.539687,46.448335]}},
{ "type": "Feature", "properties": {"Name":"Roy CDP","State":"Montana","State_Abbrev":"MT"},
"geometry":{ "type": "Point", "coordinates": [-108.959994,47.334299]}},
{ "type": "Feature", "properties": {"Name":"Rudyard CDP","State":"Montana","State_Abbrev":"MT"},
"geometry":{ "type": "Point", "coordinates": [-110.550061,48.559872]}},
{ "type": "Feature", "properties": {"Name":"Ryegate town","State":"Montana","State_Abbrev":"MT"},
"geometry":{ "type": "Point", "coordinates": [-109.253747,46.298439]}},
{ "type": "Feature", "properties": {"Name":"Saco town","State":"Montana","State_Abbrev":"MT"},
"geometry":{ "type": "Point", "coordinates": [-107.341334,48.45707]}},
{ "type": "Feature", "properties": {"Name":"Saddle Butte CDP","State":"Montana","State_Abbrev":"MT"},
"geometry":{ "type": "Point", "coordinates": [-109.64488,48.523446]}},
{ "type": "Feature", "properties": {"Name":"Sage Creek Colony CDP","State":"Montana","State_Abbrev":"MT"},
"geometry":{ "type": "Point", "coordinates": [-110.972238,48.92883]}},
{ "type": "Feature", "properties": {"Name":"St. Ignatius town","State":"Montana","State_Abbrev":"MT"},
"geometry":{ "type": "Point", "coordinates": [-114.095399,47.318259]}},
{ "type": "Feature", "properties": {"Name":"St. Marie CDP","State":"Montana","State_Abbrev":"MT"},
"geometry":{ "type": "Point", "coordinates": [-106.49855,48.405291]}},
{ "type": "Feature", "properties": {"Name":"St. Mary CDP","State":"Montana","State_Abbrev":"MT"},
"geometry":{ "type": "Point", "coordinates": [-113.427496,48.742911]}},
{ "type": "Feature", "properties": {"Name":"St. Pierre CDP","State":"Montana","State_Abbrev":"MT"},
"geometry":{ "type": "Point", "coordinates": [-109.816094,48.243926]}},
{ "type": "Feature", "properties": {"Name":"St. Regis CDP","State":"Montana","State_Abbrev":"MT"},
"geometry":{ "type": "Point", "coordinates": [-115.103912,47.30489]}},
{ "type": "Feature", "properties": {"Name":"St. Xavier CDP","State":"Montana","State_Abbrev":"MT"},
"geometry":{ "type": "Point", "coordinates": [-107.725022,45.456956]}},
{ "type": "Feature", "properties": {"Name":"Saltese CDP","State":"Montana","State_Abbrev":"MT"},
"geometry":{ "type": "Point", "coordinates": [-115.512056,47.411399]}},
{ "type": "Feature", "properties": {"Name":"Sand Coulee CDP","State":"Montana","State_Abbrev":"MT"},
"geometry":{ "type": "Point", "coordinates": [-111.172615,47.402409]}},
{ "type": "Feature", "properties": {"Name":"Sangrey CDP","State":"Montana","State_Abbrev":"MT"},
"geometry":{ "type": "Point", "coordinates": [-109.816621,48.281643]}},
{ "type": "Feature", "properties": {"Name":"Santa Rita CDP","State":"Montana","State_Abbrev":"MT"},
"geometry":{ "type": "Point", "coordinates": [-112.318766,48.698468]}},
{ "type": "Feature", "properties": {"Name":"Sapphire Ridge CDP","State":"Montana","State_Abbrev":"MT"},
"geometry":{ "type": "Point", "coordinates": [-110.252208,46.886582]}},
{ "type": "Feature", "properties": {"Name":"Savage CDP","State":"Montana","State_Abbrev":"MT"},
"geometry":{ "type": "Point", "coordinates": [-104.34135,47.453646]}},
{ "type": "Feature", "properties": {"Name":"Scobey city","State":"Montana","State_Abbrev":"MT"},
"geometry":{ "type": "Point", "coordinates": [-105.420627,48.790389]}},
{ "type": "Feature", "properties": {"Name":"Sedan CDP","State":"Montana","State_Abbrev":"MT"},
"geometry":{ "type": "Point", "coordinates": [-110.879303,45.963337]}},
{ "type": "Feature", "properties": {"Name":"Seeley Lake CDP","State":"Montana","State_Abbrev":"MT"},
"geometry":{ "type": "Point", "coordinates": [-113.458553,47.170519]}},
{ "type": "Feature", "properties": {"Name":"Seville Colony CDP","State":"Montana","State_Abbrev":"MT"},
"geometry":{ "type": "Point", "coordinates": [-112.592883,48.705805]}},
{ "type": "Feature", "properties": {"Name":"Shawmut CDP","State":"Montana","State_Abbrev":"MT"},
"geometry":{ "type": "Point", "coordinates": [-109.512152,46.344663]}},
{ "type": "Feature", "properties": {"Name":"Shelby city","State":"Montana","State_Abbrev":"MT"},
"geometry":{ "type": "Point", "coordinates": [-111.862036,48.502129]}},
{ "type": "Feature", "properties": {"Name":"Shepherd CDP","State":"Montana","State_Abbrev":"MT"},
"geometry":{ "type": "Point", "coordinates": [-108.346348,45.946804]}},
{ "type": "Feature", "properties": {"Name":"Sheridan town","State":"Montana","State_Abbrev":"MT"},
"geometry":{ "type": "Point", "coordinates": [-112.194618,45.458822]}},
{ "type": "Feature", "properties": {"Name":"Sidney city","State":"Montana","State_Abbrev":"MT"},
"geometry":{ "type": "Point", "coordinates": [-104.167161,47.715456]}},
{ "type": "Feature", "properties": {"Name":"Silesia CDP","State":"Montana","State_Abbrev":"MT"},
"geometry":{ "type": "Point", "coordinates": [-108.83759,45.548983]}},
{ "type": "Feature", "properties": {"Name":"Silver Gate CDP","State":"Montana","State_Abbrev":"MT"},
"geometry":{ "type": "Point", "coordinates": [-109.982939,45.019784]}},
{ "type": "Feature", "properties": {"Name":"Silver Star CDP","State":"Montana","State_Abbrev":"MT"},
"geometry":{ "type": "Point", "coordinates": [-112.285069,45.687424]}},
{ "type": "Feature", "properties": {"Name":"Simms CDP","State":"Montana","State_Abbrev":"MT"},
"geometry":{ "type": "Point", "coordinates": [-111.953585,47.492537]}},
{ "type": "Feature", "properties": {"Name":"Sleeping Buffalo CDP","State":"Montana","State_Abbrev":"MT"},
"geometry":{ "type": "Point", "coordinates": [-107.534931,48.482181]}},
{ "type": "Feature", "properties": {"Name":"Snowslip CDP","State":"Montana","State_Abbrev":"MT"},
"geometry":{ "type": "Point", "coordinates": [-113.445941,48.264789]}},
{ "type": "Feature", "properties": {"Name":"Somers CDP","State":"Montana","State_Abbrev":"MT"},
"geometry":{ "type": "Point", "coordinates": [-114.231948,48.082446]}},
{ "type": "Feature", "properties": {"Name":"South Browning CDP","State":"Montana","State_Abbrev":"MT"},
"geometry":{ "type": "Point", "coordinates": [-113.011629,48.545794]}},
{ "type": "Feature", "properties": {"Name":"South Glastonbury CDP","State":"Montana","State_Abbrev":"MT"},
"geometry":{ "type": "Point", "coordinates": [-110.808008,45.312137]}},
{ "type": "Feature", "properties": {"Name":"South Hills CDP","State":"Montana","State_Abbrev":"MT"},
"geometry":{ "type": "Point", "coordinates": [-111.997543,46.556408]}},
{ "type": "Feature", "properties": {"Name":"Spokane Creek CDP","State":"Montana","State_Abbrev":"MT"},
"geometry":{ "type": "Point", "coordinates": [-111.739126,46.534304]}},
{ "type": "Feature", "properties": {"Name":"Spring Creek Colony CDP","State":"Montana","State_Abbrev":"MT"},
"geometry":{ "type": "Point", "coordinates": [-109.620749,47.153964]}},
{ "type": "Feature", "properties": {"Name":"Springdale CDP","State":"Montana","State_Abbrev":"MT"},
"geometry":{ "type": "Point", "coordinates": [-110.223542,45.738115]}},
{ "type": "Feature", "properties": {"Name":"Springdale Colony CDP","State":"Montana","State_Abbrev":"MT"},
"geometry":{ "type": "Point", "coordinates": [-111.019111,46.46181]}},
{ "type": "Feature", "properties": {"Name":"Springhill CDP","State":"Montana","State_Abbrev":"MT"},
"geometry":{ "type": "Point", "coordinates": [-111.081733,45.88418]}},
{ "type": "Feature", "properties": {"Name":"Springwater Colony CDP","State":"Montana","State_Abbrev":"MT"},
"geometry":{ "type": "Point", "coordinates": [-109.753238,46.45689]}},
{ "type": "Feature", "properties": {"Name":"Square Butte CDP","State":"Montana","State_Abbrev":"MT"},
"geometry":{ "type": "Point", "coordinates": [-110.199081,47.514179]}},
{ "type": "Feature", "properties": {"Name":"Stanford town","State":"Montana","State_Abbrev":"MT"},
"geometry":{ "type": "Point", "coordinates": [-110.219016,47.152078]}},
{ "type": "Feature", "properties": {"Name":"Starr School CDP","State":"Montana","State_Abbrev":"MT"},
"geometry":{ "type": "Point", "coordinates": [-113.142221,48.604804]}},
{ "type": "Feature", "properties": {"Name":"Stevensville town","State":"Montana","State_Abbrev":"MT"},
"geometry":{ "type": "Point", "coordinates": [-114.088663,46.507087]}},
{ "type": "Feature", "properties": {"Name":"Stockett CDP","State":"Montana","State_Abbrev":"MT"},
"geometry":{ "type": "Point", "coordinates": [-111.169624,47.354264]}},
{ "type": "Feature", "properties": {"Name":"Stryker CDP","State":"Montana","State_Abbrev":"MT"},
"geometry":{ "type": "Point", "coordinates": [-114.767801,48.672889]}},
{ "type": "Feature", "properties": {"Name":"Sula CDP","State":"Montana","State_Abbrev":"MT"},
"geometry":{ "type": "Point", "coordinates": [-113.957482,45.846186]}},
{ "type": "Feature", "properties": {"Name":"Sunburst town","State":"Montana","State_Abbrev":"MT"},
"geometry":{ "type": "Point", "coordinates": [-111.901248,48.873993]}},
{ "type": "Feature", "properties": {"Name":"Sunnybrook Colony CDP","State":"Montana","State_Abbrev":"MT"},
"geometry":{ "type": "Point", "coordinates": [-110.727032,48.157311]}},
{ "type": "Feature", "properties": {"Name":"Sun Prairie CDP","State":"Montana","State_Abbrev":"MT"},
"geometry":{ "type": "Point", "coordinates": [-111.488366,47.534591]}},
{ "type": "Feature", "properties": {"Name":"Sun River CDP","State":"Montana","State_Abbrev":"MT"},
"geometry":{ "type": "Point", "coordinates": [-111.723988,47.53054]}},
{ "type": "Feature", "properties": {"Name":"Superior town","State":"Montana","State_Abbrev":"MT"},
"geometry":{ "type": "Point", "coordinates": [-114.901363,47.19512]}},
{ "type": "Feature", "properties": {"Name":"Surprise Creek Colony CDP","State":"Montana","State_Abbrev":"MT"},
"geometry":{ "type": "Point", "coordinates": [-110.33959,47.170543]}},
{ "type": "Feature", "properties": {"Name":"Swan Lake CDP","State":"Montana","State_Abbrev":"MT"},
"geometry":{ "type": "Point", "coordinates": [-113.799697,47.936114]}},
{ "type": "Feature", "properties": {"Name":"Sweet Grass CDP","State":"Montana","State_Abbrev":"MT"},
"geometry":{ "type": "Point", "coordinates": [-111.966816,48.992761]}},
{ "type": "Feature", "properties": {"Name":"Sylvanite CDP","State":"Montana","State_Abbrev":"MT"},
"geometry":{ "type": "Point", "coordinates": [-115.874027,48.706255]}},
{ "type": "Feature", "properties": {"Name":"Terry town","State":"Montana","State_Abbrev":"MT"},
"geometry":{ "type": "Point", "coordinates": [-105.312483,46.792224]}},
{ "type": "Feature", "properties": {"Name":"The Silos CDP","State":"Montana","State_Abbrev":"MT"},
"geometry":{ "type": "Point", "coordinates": [-111.586567,46.398457]}},
{ "type": "Feature", "properties": {"Name":"Thompson Falls city","State":"Montana","State_Abbrev":"MT"},
"geometry":{ "type": "Point", "coordinates": [-115.342626,47.599362]}},
{ "type": "Feature", "properties": {"Name":"Three Forks city","State":"Montana","State_Abbrev":"MT"},
"geometry":{ "type": "Point", "coordinates": [-111.552748,45.889568]}},
{ "type": "Feature", "properties": {"Name":"Toston CDP","State":"Montana","State_Abbrev":"MT"},
"geometry":{ "type": "Point", "coordinates": [-111.447869,46.16078]}},
{ "type": "Feature", "properties": {"Name":"Townsend city","State":"Montana","State_Abbrev":"MT"},
"geometry":{ "type": "Point", "coordinates": [-111.519649,46.319185]}},
{ "type": "Feature", "properties": {"Name":"Tracy CDP","State":"Montana","State_Abbrev":"MT"},
"geometry":{ "type": "Point", "coordinates": [-111.151132,47.413227]}},
{ "type": "Feature", "properties": {"Name":"Trego CDP","State":"Montana","State_Abbrev":"MT"},
"geometry":{ "type": "Point", "coordinates": [-114.927968,48.652724]}},
{ "type": "Feature", "properties": {"Name":"Trout Creek CDP","State":"Montana","State_Abbrev":"MT"},
"geometry":{ "type": "Point", "coordinates": [-115.583667,47.834182]}},
{ "type": "Feature", "properties": {"Name":"Troy city","State":"Montana","State_Abbrev":"MT"},
"geometry":{ "type": "Point", "coordinates": [-115.890787,48.460077]}},
{ "type": "Feature", "properties": {"Name":"Turah CDP","State":"Montana","State_Abbrev":"MT"},
"geometry":{ "type": "Point", "coordinates": [-113.825123,46.83972]}},
{ "type": "Feature", "properties": {"Name":"Turner CDP","State":"Montana","State_Abbrev":"MT"},
"geometry":{ "type": "Point", "coordinates": [-108.400522,48.846932]}},
{ "type": "Feature", "properties": {"Name":"Turner Colony CDP","State":"Montana","State_Abbrev":"MT"},
"geometry":{ "type": "Point", "coordinates": [-108.430074,48.763091]}},
{ "type": "Feature", "properties": {"Name":"Turtle Lake CDP","State":"Montana","State_Abbrev":"MT"},
"geometry":{ "type": "Point", "coordinates": [-114.085697,47.670093]}},
{ "type": "Feature", "properties": {"Name":"Twin Bridges town","State":"Montana","State_Abbrev":"MT"},
"geometry":{ "type": "Point", "coordinates": [-112.334091,45.542889]}},
{ "type": "Feature", "properties": {"Name":"Twin Creeks CDP","State":"Montana","State_Abbrev":"MT"},
"geometry":{ "type": "Point", "coordinates": [-113.726649,46.910597]}},
{ "type": "Feature", "properties": {"Name":"Twin Hills Colony CDP","State":"Montana","State_Abbrev":"MT"},
"geometry":{ "type": "Point", "coordinates": [-111.069779,48.016847]}},
{ "type": "Feature", "properties": {"Name":"Twodot CDP","State":"Montana","State_Abbrev":"MT"},
"geometry":{ "type": "Point", "coordinates": [-110.072719,46.422263]}},
{ "type": "Feature", "properties": {"Name":"Ulm CDP","State":"Montana","State_Abbrev":"MT"},
"geometry":{ "type": "Point", "coordinates": [-111.523324,47.421366]}},
{ "type": "Feature", "properties": {"Name":"Unionville CDP","State":"Montana","State_Abbrev":"MT"},
"geometry":{ "type": "Point", "coordinates": [-112.085235,46.546447]}},
{ "type": "Feature", "properties": {"Name":"Utica CDP","State":"Montana","State_Abbrev":"MT"},
"geometry":{ "type": "Point", "coordinates": [-110.093499,46.96781]}},
{ "type": "Feature", "properties": {"Name":"Valier town","State":"Montana","State_Abbrev":"MT"},
"geometry":{ "type": "Point", "coordinates": [-112.252221,48.305542]}},
{ "type": "Feature", "properties": {"Name":"Vaughn CDP","State":"Montana","State_Abbrev":"MT"},
"geometry":{ "type": "Point", "coordinates": [-111.560861,47.552324]}},
{ "type": "Feature", "properties": {"Name":"Victor CDP","State":"Montana","State_Abbrev":"MT"},
"geometry":{ "type": "Point", "coordinates": [-114.149243,46.416122]}},
{ "type": "Feature", "properties": {"Name":"Vida CDP","State":"Montana","State_Abbrev":"MT"},
"geometry":{ "type": "Point", "coordinates": [-105.492532,47.833906]}},
{ "type": "Feature", "properties": {"Name":"Virginia City town","State":"Montana","State_Abbrev":"MT"},
"geometry":{ "type": "Point", "coordinates": [-111.936889,45.296201]}},
{ "type": "Feature", "properties": {"Name":"Walkerville town","State":"Montana","State_Abbrev":"MT"},
"geometry":{ "type": "Point", "coordinates": [-112.539545,46.03659]}},
{ "type": "Feature", "properties": {"Name":"Warm Spring Creek CDP","State":"Montana","State_Abbrev":"MT"},
"geometry":{ "type": "Point", "coordinates": [-109.282617,47.184749]}},
{ "type": "Feature", "properties": {"Name":"Weeksville CDP","State":"Montana","State_Abbrev":"MT"},
"geometry":{ "type": "Point", "coordinates": [-115.008233,47.530883]}},
{ "type": "Feature", "properties": {"Name":"Westby town","State":"Montana","State_Abbrev":"MT"},
"geometry":{ "type": "Point", "coordinates": [-104.057061,48.87049]}},
{ "type": "Feature", "properties": {"Name":"West Glacier CDP","State":"Montana","State_Abbrev":"MT"},
"geometry":{ "type": "Point", "coordinates": [-113.991866,48.49442]}},
{ "type": "Feature", "properties": {"Name":"West Glendive CDP","State":"Montana","State_Abbrev":"MT"},
"geometry":{ "type": "Point", "coordinates": [-104.753267,47.106098]}},
{ "type": "Feature", "properties": {"Name":"West Havre CDP","State":"Montana","State_Abbrev":"MT"},
"geometry":{ "type": "Point", "coordinates": [-109.731014,48.547012]}},
{ "type": "Feature", "properties": {"Name":"West Kootenai CDP","State":"Montana","State_Abbrev":"MT"},
"geometry":{ "type": "Point", "coordinates": [-115.219266,48.963166]}},
{ "type": "Feature", "properties": {"Name":"West Yellowstone town","State":"Montana","State_Abbrev":"MT"},
"geometry":{ "type": "Point", "coordinates": [-111.107022,44.662183]}},
{ "type": "Feature", "properties": {"Name":"Wheatland CDP","State":"Montana","State_Abbrev":"MT"},
"geometry":{ "type": "Point", "coordinates": [-111.576998,45.962449]}},
{ "type": "Feature", "properties": {"Name":"Whitefish city","State":"Montana","State_Abbrev":"MT"},
"geometry":{ "type": "Point", "coordinates": [-114.368879,48.456153]}},
{ "type": "Feature", "properties": {"Name":"Whitehall town","State":"Montana","State_Abbrev":"MT"},
"geometry":{ "type": "Point", "coordinates": [-112.097584,45.870987]}},
{ "type": "Feature", "properties": {"Name":"White Haven CDP","State":"Montana","State_Abbrev":"MT"},
"geometry":{ "type": "Point", "coordinates": [-115.515999,48.347765]}},
{ "type": "Feature", "properties": {"Name":"White Sulphur Springs city","State":"Montana","State_Abbrev":"MT"},
"geometry":{ "type": "Point", "coordinates": [-110.903887,46.545302]}},
{ "type": "Feature", "properties": {"Name":"Whitetail CDP","State":"Montana","State_Abbrev":"MT"},
"geometry":{ "type": "Point", "coordinates": [-105.161391,48.896517]}},
{ "type": "Feature", "properties": {"Name":"Whitewater CDP","State":"Montana","State_Abbrev":"MT"},
"geometry":{ "type": "Point", "coordinates": [-107.630245,48.763471]}},
{ "type": "Feature", "properties": {"Name":"Whitlash CDP","State":"Montana","State_Abbrev":"MT"},
"geometry":{ "type": "Point", "coordinates": [-111.251946,48.908931]}},
{ "type": "Feature", "properties": {"Name":"Wibaux town","State":"Montana","State_Abbrev":"MT"},
"geometry":{ "type": "Point", "coordinates": [-104.190043,46.986574]}},
{ "type": "Feature", "properties": {"Name":"Willow Creek CDP","State":"Montana","State_Abbrev":"MT"},
"geometry":{ "type": "Point", "coordinates": [-111.648915,45.80967]}},
{ "type": "Feature", "properties": {"Name":"Wilsall CDP","State":"Montana","State_Abbrev":"MT"},
"geometry":{ "type": "Point", "coordinates": [-110.660395,45.984326]}},
{ "type": "Feature", "properties": {"Name":"Windham CDP","State":"Montana","State_Abbrev":"MT"},
"geometry":{ "type": "Point", "coordinates": [-110.138656,47.078119]}},
{ "type": "Feature", "properties": {"Name":"Wineglass CDP","State":"Montana","State_Abbrev":"MT"},
"geometry":{ "type": "Point", "coordinates": [-110.62334,45.628015]}},
{ "type": "Feature", "properties": {"Name":"Winifred town","State":"Montana","State_Abbrev":"MT"},
"geometry":{ "type": "Point", "coordinates": [-109.377281,47.562101]}},
{ "type": "Feature", "properties": {"Name":"Winnett town","State":"Montana","State_Abbrev":"MT"},
"geometry":{ "type": "Point", "coordinates": [-108.346612,47.004301]}},
{ "type": "Feature", "properties": {"Name":"Winston CDP","State":"Montana","State_Abbrev":"MT"},
"geometry":{ "type": "Point", "coordinates": [-111.665223,46.468431]}},
{ "type": "Feature", "properties": {"Name":"Wisdom CDP","State":"Montana","State_Abbrev":"MT"},
"geometry":{ "type": "Point", "coordinates": [-113.445749,45.609988]}},
{ "type": "Feature", "properties": {"Name":"Wise River CDP","State":"Montana","State_Abbrev":"MT"},
"geometry":{ "type": "Point", "coordinates": [-112.943837,45.794399]}},
{ "type": "Feature", "properties": {"Name":"Wolf Creek CDP","State":"Montana","State_Abbrev":"MT"},
"geometry":{ "type": "Point", "coordinates": [-112.070061,47.005884]}},
{ "type": "Feature", "properties": {"Name":"Wolf Point city","State":"Montana","State_Abbrev":"MT"},
"geometry":{ "type": "Point", "coordinates": [-105.641353,48.0931]}},
{ "type": "Feature", "properties": {"Name":"Woods Bay CDP","State":"Montana","State_Abbrev":"MT"},
"geometry":{ "type": "Point", "coordinates": [-114.066875,48.014171]}},
{ "type": "Feature", "properties": {"Name":"Worden CDP","State":"Montana","State_Abbrev":"MT"},
"geometry":{ "type": "Point", "coordinates": [-108.162267,45.962302]}},
{ "type": "Feature", "properties": {"Name":"Wye CDP","State":"Montana","State_Abbrev":"MT"},
"geometry":{ "type": "Point", "coordinates": [-114.13309,46.952297]}},
{ "type": "Feature", "properties": {"Name":"Wyola CDP","State":"Montana","State_Abbrev":"MT"},
"geometry":{ "type": "Point", "coordinates": [-107.373805,45.115344]}},
{ "type": "Feature", "properties": {"Name":"Yaak CDP","State":"Montana","State_Abbrev":"MT"},
"geometry":{ "type": "Point", "coordinates": [-115.686413,48.829879]}},
{ "type": "Feature", "properties": {"Name":"York CDP","State":"Montana","State_Abbrev":"MT"},
"geometry":{ "type": "Point", "coordinates": [-111.752901,46.718035]}},
{ "type": "Feature", "properties": {"Name":"Zenith Colony CDP","State":"Montana","State_Abbrev":"MT"},
"geometry":{ "type": "Point", "coordinates": [-112.342327,48.868798]}},
{ "type": "Feature", "properties": {"Name":"Zortman CDP","State":"Montana","State_Abbrev":"MT"},
"geometry":{ "type": "Point", "coordinates": [-108.509021,47.916736]}},
{ "type": "Feature", "properties": {"Name":"Zurich CDP","State":"Montana","State_Abbrev":"MT"},
"geometry":{ "type": "Point", "coordinates": [-109.030243,48.586011]}}]}
