{"type":"FeatureCollection","features":[
{ "type": "Feature", "properties": {"Abie village":"Adams village","Nebraska":"Nebraska","NE":"NE"},
"geometry":{ "type": "Point", "coordinates": [-96.507363,40.459011]}},
{ "type": "Feature", "properties": {"Abie village":"Agnew CDP","Nebraska":"Nebraska","NE":"NE"},
"geometry":{ "type": "Point", "coordinates": [-96.81427,41.014234]}},
{ "type": "Feature", "properties": {"Abie village":"Ainsworth city","Nebraska":"Nebraska","NE":"NE"},
"geometry":{ "type": "Point", "coordinates": [-99.857522,42.548439]}},
{ "type": "Feature", "properties": {"Abie village":"Albion city","Nebraska":"Nebraska","NE":"NE"},
"geometry":{ "type": "Point", "coordinates": [-97.998748,41.687245]}},
{ "type": "Feature", "properties": {"Abie village":"Alda village","Nebraska":"Nebraska","NE":"NE"},
"geometry":{ "type": "Point", "coordinates": [-98.467992,40.86655]}},
{ "type": "Feature", "properties": {"Abie village":"Alexandria village","Nebraska":"Nebraska","NE":"NE"},
"geometry":{ "type": "Point", "coordinates": [-97.387837,40.247547]}},
{ "type": "Feature", "properties": {"Abie village":"Allen village","Nebraska":"Nebraska","NE":"NE"},
"geometry":{ "type": "Point", "coordinates": [-96.843209,42.414434]}},
{ "type": "Feature", "properties": {"Abie village":"Alliance city","Nebraska":"Nebraska","NE":"NE"},
"geometry":{ "type": "Point", "coordinates": [-102.876188,42.102567]}},
{ "type": "Feature", "properties": {"Abie village":"Alma city","Nebraska":"Nebraska","NE":"NE"},
"geometry":{ "type": "Point", "coordinates": [-99.365693,40.103565]}},
{ "type": "Feature", "properties": {"Abie village":"Alvo village","Nebraska":"Nebraska","NE":"NE"},
"geometry":{ "type": "Point", "coordinates": [-96.386524,40.872264]}},
{ "type": "Feature", "properties": {"Abie village":"Ames CDP","Nebraska":"Nebraska","NE":"NE"},
"geometry":{ "type": "Point", "coordinates": [-96.626339,41.448457]}},
{ "type": "Feature", "properties": {"Abie village":"Amherst village","Nebraska":"Nebraska","NE":"NE"},
"geometry":{ "type": "Point", "coordinates": [-99.269509,40.838372]}},
{ "type": "Feature", "properties": {"Abie village":"Anoka village","Nebraska":"Nebraska","NE":"NE"},
"geometry":{ "type": "Point", "coordinates": [-98.828529,42.946]}},
{ "type": "Feature", "properties": {"Abie village":"Anselmo village","Nebraska":"Nebraska","NE":"NE"},
"geometry":{ "type": "Point", "coordinates": [-99.864577,41.618581]}},
{ "type": "Feature", "properties": {"Abie village":"Ansley village","Nebraska":"Nebraska","NE":"NE"},
"geometry":{ "type": "Point", "coordinates": [-99.382547,41.286338]}},
{ "type": "Feature", "properties": {"Abie village":"Arapahoe city","Nebraska":"Nebraska","NE":"NE"},
"geometry":{ "type": "Point", "coordinates": [-99.897977,40.305124]}},
{ "type": "Feature", "properties": {"Abie village":"Arcadia village","Nebraska":"Nebraska","NE":"NE"},
"geometry":{ "type": "Point", "coordinates": [-99.126062,41.424823]}},
{ "type": "Feature", "properties": {"Abie village":"Archer CDP","Nebraska":"Nebraska","NE":"NE"},
"geometry":{ "type": "Point", "coordinates": [-98.138864,41.166629]}},
{ "type": "Feature", "properties": {"Abie village":"Arlington village","Nebraska":"Nebraska","NE":"NE"},
"geometry":{ "type": "Point", "coordinates": [-96.356527,41.454855]}},
{ "type": "Feature", "properties": {"Abie village":"Arnold village","Nebraska":"Nebraska","NE":"NE"},
"geometry":{ "type": "Point", "coordinates": [-100.193561,41.423244]}},
{ "type": "Feature", "properties": {"Abie village":"Arthur village","Nebraska":"Nebraska","NE":"NE"},
"geometry":{ "type": "Point", "coordinates": [-101.692263,41.571866]}},
{ "type": "Feature", "properties": {"Abie village":"Ashland city","Nebraska":"Nebraska","NE":"NE"},
"geometry":{ "type": "Point", "coordinates": [-96.37254,41.039852]}},
{ "type": "Feature", "properties": {"Abie village":"Ashton village","Nebraska":"Nebraska","NE":"NE"},
"geometry":{ "type": "Point", "coordinates": [-98.795147,41.247748]}},
{ "type": "Feature", "properties": {"Abie village":"Aten CDP","Nebraska":"Nebraska","NE":"NE"},
"geometry":{ "type": "Point", "coordinates": [-97.44081,42.836736]}},
{ "type": "Feature", "properties": {"Abie village":"Atkinson city","Nebraska":"Nebraska","NE":"NE"},
"geometry":{ "type": "Point", "coordinates": [-98.974728,42.530868]}},
{ "type": "Feature", "properties": {"Abie village":"Atlanta village","Nebraska":"Nebraska","NE":"NE"},
"geometry":{ "type": "Point", "coordinates": [-99.473223,40.368409]}},
{ "type": "Feature", "properties": {"Abie village":"Auburn city","Nebraska":"Nebraska","NE":"NE"},
"geometry":{ "type": "Point", "coordinates": [-95.843566,40.389377]}},
{ "type": "Feature", "properties": {"Abie village":"Aurora city","Nebraska":"Nebraska","NE":"NE"},
"geometry":{ "type": "Point", "coordinates": [-98.008069,40.864656]}},
{ "type": "Feature", "properties": {"Abie village":"Avoca village","Nebraska":"Nebraska","NE":"NE"},
"geometry":{ "type": "Point", "coordinates": [-96.119161,40.796505]}},
{ "type": "Feature", "properties": {"Abie village":"Axtell village","Nebraska":"Nebraska","NE":"NE"},
"geometry":{ "type": "Point", "coordinates": [-99.129248,40.479845]}},
{ "type": "Feature", "properties": {"Abie village":"Ayr village","Nebraska":"Nebraska","NE":"NE"},
"geometry":{ "type": "Point", "coordinates": [-98.440943,40.437809]}},
{ "type": "Feature", "properties": {"Abie village":"Bancroft village","Nebraska":"Nebraska","NE":"NE"},
"geometry":{ "type": "Point", "coordinates": [-96.573265,42.010522]}},
{ "type": "Feature", "properties": {"Abie village":"Barada village","Nebraska":"Nebraska","NE":"NE"},
"geometry":{ "type": "Point", "coordinates": [-95.5778,40.21846]}},
{ "type": "Feature", "properties": {"Abie village":"Barneston village","Nebraska":"Nebraska","NE":"NE"},
"geometry":{ "type": "Point", "coordinates": [-96.573597,40.048951]}},
{ "type": "Feature", "properties": {"Abie village":"Bartlett village","Nebraska":"Nebraska","NE":"NE"},
"geometry":{ "type": "Point", "coordinates": [-98.552565,41.883933]}},
{ "type": "Feature", "properties": {"Abie village":"Bartley village","Nebraska":"Nebraska","NE":"NE"},
"geometry":{ "type": "Point", "coordinates": [-100.310428,40.251122]}},
{ "type": "Feature", "properties": {"Abie village":"Bassett city","Nebraska":"Nebraska","NE":"NE"},
"geometry":{ "type": "Point", "coordinates": [-99.536625,42.582541]}},
{ "type": "Feature", "properties": {"Abie village":"Battle Creek city","Nebraska":"Nebraska","NE":"NE"},
"geometry":{ "type": "Point", "coordinates": [-97.599465,41.998119]}},
{ "type": "Feature", "properties": {"Abie village":"Bayard city","Nebraska":"Nebraska","NE":"NE"},
"geometry":{ "type": "Point", "coordinates": [-103.323015,41.757193]}},
{ "type": "Feature", "properties": {"Abie village":"Bazile Mills village","Nebraska":"Nebraska","NE":"NE"},
"geometry":{ "type": "Point", "coordinates": [-97.908329,42.512436]}},
{ "type": "Feature", "properties": {"Abie village":"Beacon View CDP","Nebraska":"Nebraska","NE":"NE"},
"geometry":{ "type": "Point", "coordinates": [-96.326474,41.071193]}},
{ "type": "Feature", "properties": {"Abie village":"Beatrice city","Nebraska":"Nebraska","NE":"NE"},
"geometry":{ "type": "Point", "coordinates": [-96.745954,40.273281]}},
{ "type": "Feature", "properties": {"Abie village":"Beaver City city","Nebraska":"Nebraska","NE":"NE"},
"geometry":{ "type": "Point", "coordinates": [-99.827615,40.138332]}},
{ "type": "Feature", "properties": {"Abie village":"Beaver Crossing village","Nebraska":"Nebraska","NE":"NE"},
"geometry":{ "type": "Point", "coordinates": [-97.282465,40.777916]}},
{ "type": "Feature", "properties": {"Abie village":"Bee village","Nebraska":"Nebraska","NE":"NE"},
"geometry":{ "type": "Point", "coordinates": [-97.058268,41.00641]}},
{ "type": "Feature", "properties": {"Abie village":"Beemer village","Nebraska":"Nebraska","NE":"NE"},
"geometry":{ "type": "Point", "coordinates": [-96.809167,41.9299]}},
{ "type": "Feature", "properties": {"Abie village":"Belden village","Nebraska":"Nebraska","NE":"NE"},
"geometry":{ "type": "Point", "coordinates": [-97.207407,42.41172]}},
{ "type": "Feature", "properties": {"Abie village":"Belgrade village","Nebraska":"Nebraska","NE":"NE"},
"geometry":{ "type": "Point", "coordinates": [-98.067784,41.470955]}},
{ "type": "Feature", "properties": {"Abie village":"Bellevue city","Nebraska":"Nebraska","NE":"NE"},
"geometry":{ "type": "Point", "coordinates": [-95.943363,41.154416]}},
{ "type": "Feature", "properties": {"Abie village":"Bellwood village","Nebraska":"Nebraska","NE":"NE"},
"geometry":{ "type": "Point", "coordinates": [-97.239858,41.34191]}},
{ "type": "Feature", "properties": {"Abie village":"Belmar CDP","Nebraska":"Nebraska","NE":"NE"},
"geometry":{ "type": "Point", "coordinates": [-101.934626,41.305457]}},
{ "type": "Feature", "properties": {"Abie village":"Belvidere village","Nebraska":"Nebraska","NE":"NE"},
"geometry":{ "type": "Point", "coordinates": [-97.557415,40.254696]}},
{ "type": "Feature", "properties": {"Abie village":"Benedict village","Nebraska":"Nebraska","NE":"NE"},
"geometry":{ "type": "Point", "coordinates": [-97.607136,41.006259]}},
{ "type": "Feature", "properties": {"Abie village":"Benkelman city","Nebraska":"Nebraska","NE":"NE"},
"geometry":{ "type": "Point", "coordinates": [-101.540193,40.046826]}},
{ "type": "Feature", "properties": {"Abie village":"Bennet village","Nebraska":"Nebraska","NE":"NE"},
"geometry":{ "type": "Point", "coordinates": [-96.503952,40.681753]}},
{ "type": "Feature", "properties": {"Abie village":"Bennington city","Nebraska":"Nebraska","NE":"NE"},
"geometry":{ "type": "Point", "coordinates": [-96.161684,41.367632]}},
{ "type": "Feature", "properties": {"Abie village":"Berea CDP","Nebraska":"Nebraska","NE":"NE"},
"geometry":{ "type": "Point", "coordinates": [-102.982984,42.212279]}},
{ "type": "Feature", "properties": {"Abie village":"Bertrand village","Nebraska":"Nebraska","NE":"NE"},
"geometry":{ "type": "Point", "coordinates": [-99.632385,40.526299]}},
{ "type": "Feature", "properties": {"Abie village":"Berwyn village","Nebraska":"Nebraska","NE":"NE"},
"geometry":{ "type": "Point", "coordinates": [-99.500611,41.350852]}},
{ "type": "Feature", "properties": {"Abie village":"Big Springs village","Nebraska":"Nebraska","NE":"NE"},
"geometry":{ "type": "Point", "coordinates": [-102.074466,41.060902]}},
{ "type": "Feature", "properties": {"Abie village":"Bladen village","Nebraska":"Nebraska","NE":"NE"},
"geometry":{ "type": "Point", "coordinates": [-98.59588,40.323444]}},
{ "type": "Feature", "properties": {"Abie village":"Blair city","Nebraska":"Nebraska","NE":"NE"},
"geometry":{ "type": "Point", "coordinates": [-96.135287,41.541555]}},
{ "type": "Feature", "properties": {"Abie village":"Bloomfield city","Nebraska":"Nebraska","NE":"NE"},
"geometry":{ "type": "Point", "coordinates": [-97.648138,42.598412]}},
{ "type": "Feature", "properties": {"Abie village":"Bloomington village","Nebraska":"Nebraska","NE":"NE"},
"geometry":{ "type": "Point", "coordinates": [-99.038389,40.093791]}},
{ "type": "Feature", "properties": {"Abie village":"Blue Hill city","Nebraska":"Nebraska","NE":"NE"},
"geometry":{ "type": "Point", "coordinates": [-98.448377,40.332917]}},
{ "type": "Feature", "properties": {"Abie village":"Blue Springs city","Nebraska":"Nebraska","NE":"NE"},
"geometry":{ "type": "Point", "coordinates": [-96.662835,40.137192]}},
{ "type": "Feature", "properties": {"Abie village":"Bow Valley CDP","Nebraska":"Nebraska","NE":"NE"},
"geometry":{ "type": "Point", "coordinates": [-97.252206,42.715424]}},
{ "type": "Feature", "properties": {"Abie village":"Boys Town village","Nebraska":"Nebraska","NE":"NE"},
"geometry":{ "type": "Point", "coordinates": [-96.128438,41.255981]}},
{ "type": "Feature", "properties": {"Abie village":"Bradshaw village","Nebraska":"Nebraska","NE":"NE"},
"geometry":{ "type": "Point", "coordinates": [-97.746818,40.883475]}},
{ "type": "Feature", "properties": {"Abie village":"Brady village","Nebraska":"Nebraska","NE":"NE"},
"geometry":{ "type": "Point", "coordinates": [-100.367563,41.02229]}},
{ "type": "Feature", "properties": {"Abie village":"Brainard village","Nebraska":"Nebraska","NE":"NE"},
"geometry":{ "type": "Point", "coordinates": [-97.002257,41.181699]}},
{ "type": "Feature", "properties": {"Abie village":"Brewster village","Nebraska":"Nebraska","NE":"NE"},
"geometry":{ "type": "Point", "coordinates": [-99.864985,41.938271]}},
{ "type": "Feature", "properties": {"Abie village":"Bridgeport city","Nebraska":"Nebraska","NE":"NE"},
"geometry":{ "type": "Point", "coordinates": [-103.097142,41.664707]}},
{ "type": "Feature", "properties": {"Abie village":"Bristow village","Nebraska":"Nebraska","NE":"NE"},
"geometry":{ "type": "Point", "coordinates": [-98.583307,42.840777]}},
{ "type": "Feature", "properties": {"Abie village":"Broadwater village","Nebraska":"Nebraska","NE":"NE"},
"geometry":{ "type": "Point", "coordinates": [-102.852454,41.597982]}},
{ "type": "Feature", "properties": {"Abie village":"Brock village","Nebraska":"Nebraska","NE":"NE"},
"geometry":{ "type": "Point", "coordinates": [-95.960053,40.480475]}},
{ "type": "Feature", "properties": {"Abie village":"Broken Bow city","Nebraska":"Nebraska","NE":"NE"},
"geometry":{ "type": "Point", "coordinates": [-99.640869,41.40508]}},
{ "type": "Feature", "properties": {"Abie village":"Brownlee CDP","Nebraska":"Nebraska","NE":"NE"},
"geometry":{ "type": "Point", "coordinates": [-100.624178,42.289207]}},
{ "type": "Feature", "properties": {"Abie village":"Brownville village","Nebraska":"Nebraska","NE":"NE"},
"geometry":{ "type": "Point", "coordinates": [-95.661086,40.397617]}},
{ "type": "Feature", "properties": {"Abie village":"Brule village","Nebraska":"Nebraska","NE":"NE"},
"geometry":{ "type": "Point", "coordinates": [-101.888506,41.094699]}},
{ "type": "Feature", "properties": {"Abie village":"Bruning village","Nebraska":"Nebraska","NE":"NE"},
"geometry":{ "type": "Point", "coordinates": [-97.564877,40.335734]}},
{ "type": "Feature", "properties": {"Abie village":"Bruno village","Nebraska":"Nebraska","NE":"NE"},
"geometry":{ "type": "Point", "coordinates": [-96.960927,41.28304]}},
{ "type": "Feature", "properties": {"Abie village":"Brunswick village","Nebraska":"Nebraska","NE":"NE"},
"geometry":{ "type": "Point", "coordinates": [-97.971756,42.337704]}},
{ "type": "Feature", "properties": {"Abie village":"Burchard village","Nebraska":"Nebraska","NE":"NE"},
"geometry":{ "type": "Point", "coordinates": [-96.348837,40.149315]}},
{ "type": "Feature", "properties": {"Abie village":"Burr village","Nebraska":"Nebraska","NE":"NE"},
"geometry":{ "type": "Point", "coordinates": [-96.299775,40.535947]}},
{ "type": "Feature", "properties": {"Abie village":"Burton village","Nebraska":"Nebraska","NE":"NE"},
"geometry":{ "type": "Point", "coordinates": [-99.591852,42.911927]}},
{ "type": "Feature", "properties": {"Abie village":"Burwell city","Nebraska":"Nebraska","NE":"NE"},
"geometry":{ "type": "Point", "coordinates": [-99.134214,41.780044]}},
{ "type": "Feature", "properties": {"Abie village":"Bushnell village","Nebraska":"Nebraska","NE":"NE"},
"geometry":{ "type": "Point", "coordinates": [-103.891125,41.232729]}},
{ "type": "Feature", "properties": {"Abie village":"Butte village","Nebraska":"Nebraska","NE":"NE"},
"geometry":{ "type": "Point", "coordinates": [-98.847362,42.91298]}},
{ "type": "Feature", "properties": {"Abie village":"Byron village","Nebraska":"Nebraska","NE":"NE"},
"geometry":{ "type": "Point", "coordinates": [-97.768771,40.004717]}},
{ "type": "Feature", "properties": {"Abie village":"Cairo village","Nebraska":"Nebraska","NE":"NE"},
"geometry":{ "type": "Point", "coordinates": [-98.600677,41.004672]}},
{ "type": "Feature", "properties": {"Abie village":"Callaway village","Nebraska":"Nebraska","NE":"NE"},
"geometry":{ "type": "Point", "coordinates": [-99.920312,41.291446]}},
{ "type": "Feature", "properties": {"Abie village":"Cambridge city","Nebraska":"Nebraska","NE":"NE"},
"geometry":{ "type": "Point", "coordinates": [-100.165389,40.284279]}},
{ "type": "Feature", "properties": {"Abie village":"Campbell village","Nebraska":"Nebraska","NE":"NE"},
"geometry":{ "type": "Point", "coordinates": [-98.731522,40.296339]}},
{ "type": "Feature", "properties": {"Abie village":"Carleton village","Nebraska":"Nebraska","NE":"NE"},
"geometry":{ "type": "Point", "coordinates": [-97.68364,40.30328]}},
{ "type": "Feature", "properties": {"Abie village":"Carroll village","Nebraska":"Nebraska","NE":"NE"},
"geometry":{ "type": "Point", "coordinates": [-97.190902,42.275777]}},
{ "type": "Feature", "properties": {"Abie village":"Cedar Bluffs village","Nebraska":"Nebraska","NE":"NE"},
"geometry":{ "type": "Point", "coordinates": [-96.609756,41.397119]}},
{ "type": "Feature", "properties": {"Abie village":"Cedar Creek village","Nebraska":"Nebraska","NE":"NE"},
"geometry":{ "type": "Point", "coordinates": [-96.101748,41.045564]}},
{ "type": "Feature", "properties": {"Abie village":"Cedar Rapids village","Nebraska":"Nebraska","NE":"NE"},
"geometry":{ "type": "Point", "coordinates": [-98.1493,41.558908]}},
{ "type": "Feature", "properties": {"Abie village":"Center village","Nebraska":"Nebraska","NE":"NE"},
"geometry":{ "type": "Point", "coordinates": [-97.876225,42.608974]}},
{ "type": "Feature", "properties": {"Abie village":"Central City city","Nebraska":"Nebraska","NE":"NE"},
"geometry":{ "type": "Point", "coordinates": [-98.000323,41.113116]}},
{ "type": "Feature", "properties": {"Abie village":"Ceresco village","Nebraska":"Nebraska","NE":"NE"},
"geometry":{ "type": "Point", "coordinates": [-96.645739,41.057704]}},
{ "type": "Feature", "properties": {"Abie village":"Chadron city","Nebraska":"Nebraska","NE":"NE"},
"geometry":{ "type": "Point", "coordinates": [-103.002478,42.825976]}},
{ "type": "Feature", "properties": {"Abie village":"Chalco CDP","Nebraska":"Nebraska","NE":"NE"},
"geometry":{ "type": "Point", "coordinates": [-96.135367,41.181645]}},
{ "type": "Feature", "properties": {"Abie village":"Chambers village","Nebraska":"Nebraska","NE":"NE"},
"geometry":{ "type": "Point", "coordinates": [-98.748606,42.204733]}},
{ "type": "Feature", "properties": {"Abie village":"Champion CDP","Nebraska":"Nebraska","NE":"NE"},
"geometry":{ "type": "Point", "coordinates": [-101.744895,40.470854]}},
{ "type": "Feature", "properties": {"Abie village":"Chapman village","Nebraska":"Nebraska","NE":"NE"},
"geometry":{ "type": "Point", "coordinates": [-98.159385,41.023278]}},
{ "type": "Feature", "properties": {"Abie village":"Chappell city","Nebraska":"Nebraska","NE":"NE"},
"geometry":{ "type": "Point", "coordinates": [-102.469938,41.0913]}},
{ "type": "Feature", "properties": {"Abie village":"Cheney CDP","Nebraska":"Nebraska","NE":"NE"},
"geometry":{ "type": "Point", "coordinates": [-96.593604,40.726041]}},
{ "type": "Feature", "properties": {"Abie village":"Chester village","Nebraska":"Nebraska","NE":"NE"},
"geometry":{ "type": "Point", "coordinates": [-97.618092,40.010215]}},
{ "type": "Feature", "properties": {"Abie village":"Clarks village","Nebraska":"Nebraska","NE":"NE"},
"geometry":{ "type": "Point", "coordinates": [-97.839488,41.216269]}},
{ "type": "Feature", "properties": {"Abie village":"Clarkson city","Nebraska":"Nebraska","NE":"NE"},
"geometry":{ "type": "Point", "coordinates": [-97.12152,41.723424]}},
{ "type": "Feature", "properties": {"Abie village":"Clatonia village","Nebraska":"Nebraska","NE":"NE"},
"geometry":{ "type": "Point", "coordinates": [-96.851208,40.465369]}},
{ "type": "Feature", "properties": {"Abie village":"Clay Center city","Nebraska":"Nebraska","NE":"NE"},
"geometry":{ "type": "Point", "coordinates": [-98.054996,40.525471]}},
{ "type": "Feature", "properties": {"Abie village":"Clearwater village","Nebraska":"Nebraska","NE":"NE"},
"geometry":{ "type": "Point", "coordinates": [-98.189531,42.170819]}},
{ "type": "Feature", "properties": {"Abie village":"Clinton village","Nebraska":"Nebraska","NE":"NE"},
"geometry":{ "type": "Point", "coordinates": [-102.347883,42.75972]}},
{ "type": "Feature", "properties": {"Abie village":"Cody village","Nebraska":"Nebraska","NE":"NE"},
"geometry":{ "type": "Point", "coordinates": [-101.248928,42.937746]}},
{ "type": "Feature", "properties": {"Abie village":"Coleridge village","Nebraska":"Nebraska","NE":"NE"},
"geometry":{ "type": "Point", "coordinates": [-97.202825,42.506458]}},
{ "type": "Feature", "properties": {"Abie village":"Colon village","Nebraska":"Nebraska","NE":"NE"},
"geometry":{ "type": "Point", "coordinates": [-96.607335,41.298119]}},
{ "type": "Feature", "properties": {"Abie village":"Columbus city","Nebraska":"Nebraska","NE":"NE"},
"geometry":{ "type": "Point", "coordinates": [-97.356067,41.436409]}},
{ "type": "Feature", "properties": {"Abie village":"Comstock village","Nebraska":"Nebraska","NE":"NE"},
"geometry":{ "type": "Point", "coordinates": [-99.242977,41.557204]}},
{ "type": "Feature", "properties": {"Abie village":"Concord village","Nebraska":"Nebraska","NE":"NE"},
"geometry":{ "type": "Point", "coordinates": [-96.989293,42.384172]}},
{ "type": "Feature", "properties": {"Abie village":"Cook village","Nebraska":"Nebraska","NE":"NE"},
"geometry":{ "type": "Point", "coordinates": [-96.161637,40.510575]}},
{ "type": "Feature", "properties": {"Abie village":"Cordova village","Nebraska":"Nebraska","NE":"NE"},
"geometry":{ "type": "Point", "coordinates": [-97.351602,40.716373]}},
{ "type": "Feature", "properties": {"Abie village":"Cornlea village","Nebraska":"Nebraska","NE":"NE"},
"geometry":{ "type": "Point", "coordinates": [-97.566904,41.680049]}},
{ "type": "Feature", "properties": {"Abie village":"Cortland village","Nebraska":"Nebraska","NE":"NE"},
"geometry":{ "type": "Point", "coordinates": [-96.706111,40.505935]}},
{ "type": "Feature", "properties": {"Abie village":"Cotesfield village","Nebraska":"Nebraska","NE":"NE"},
"geometry":{ "type": "Point", "coordinates": [-98.633605,41.357571]}},
{ "type": "Feature", "properties": {"Abie village":"Cowles village","Nebraska":"Nebraska","NE":"NE"},
"geometry":{ "type": "Point", "coordinates": [-98.449019,40.1714]}},
{ "type": "Feature", "properties": {"Abie village":"Cozad city","Nebraska":"Nebraska","NE":"NE"},
"geometry":{ "type": "Point", "coordinates": [-99.986366,40.861301]}},
{ "type": "Feature", "properties": {"Abie village":"Crab Orchard village","Nebraska":"Nebraska","NE":"NE"},
"geometry":{ "type": "Point", "coordinates": [-96.422437,40.334652]}},
{ "type": "Feature", "properties": {"Abie village":"Craig village","Nebraska":"Nebraska","NE":"NE"},
"geometry":{ "type": "Point", "coordinates": [-96.362433,41.785262]}},
{ "type": "Feature", "properties": {"Abie village":"Crawford city","Nebraska":"Nebraska","NE":"NE"},
"geometry":{ "type": "Point", "coordinates": [-103.415996,42.684566]}},
{ "type": "Feature", "properties": {"Abie village":"Creighton city","Nebraska":"Nebraska","NE":"NE"},
"geometry":{ "type": "Point", "coordinates": [-97.907146,42.464857]}},
{ "type": "Feature", "properties": {"Abie village":"Creston village","Nebraska":"Nebraska","NE":"NE"},
"geometry":{ "type": "Point", "coordinates": [-97.362655,41.707979]}},
{ "type": "Feature", "properties": {"Abie village":"Crete city","Nebraska":"Nebraska","NE":"NE"},
"geometry":{ "type": "Point", "coordinates": [-96.953694,40.624769]}},
{ "type": "Feature", "properties": {"Abie village":"Crofton city","Nebraska":"Nebraska","NE":"NE"},
"geometry":{ "type": "Point", "coordinates": [-97.498608,42.731613]}},
{ "type": "Feature", "properties": {"Abie village":"Crookston village","Nebraska":"Nebraska","NE":"NE"},
"geometry":{ "type": "Point", "coordinates": [-100.753436,42.926311]}},
{ "type": "Feature", "properties": {"Abie village":"Culbertson village","Nebraska":"Nebraska","NE":"NE"},
"geometry":{ "type": "Point", "coordinates": [-100.83964,40.2242]}},
{ "type": "Feature", "properties": {"Abie village":"Curtis city","Nebraska":"Nebraska","NE":"NE"},
"geometry":{ "type": "Point", "coordinates": [-100.511262,40.633562]}},
{ "type": "Feature", "properties": {"Abie village":"Cushing village","Nebraska":"Nebraska","NE":"NE"},
"geometry":{ "type": "Point", "coordinates": [-98.369257,41.294827]}},
{ "type": "Feature", "properties": {"Abie village":"Dakota City city","Nebraska":"Nebraska","NE":"NE"},
"geometry":{ "type": "Point", "coordinates": [-96.420744,42.418115]}},
{ "type": "Feature", "properties": {"Abie village":"Dalton village","Nebraska":"Nebraska","NE":"NE"},
"geometry":{ "type": "Point", "coordinates": [-102.970777,41.408231]}},
{ "type": "Feature", "properties": {"Abie village":"Danbury village","Nebraska":"Nebraska","NE":"NE"},
"geometry":{ "type": "Point", "coordinates": [-100.405108,40.037706]}},
{ "type": "Feature", "properties": {"Abie village":"Dannebrog village","Nebraska":"Nebraska","NE":"NE"},
"geometry":{ "type": "Point", "coordinates": [-98.545735,41.118605]}},
{ "type": "Feature", "properties": {"Abie village":"Davenport village","Nebraska":"Nebraska","NE":"NE"},
"geometry":{ "type": "Point", "coordinates": [-97.811514,40.312312]}},
{ "type": "Feature", "properties": {"Abie village":"Davey village","Nebraska":"Nebraska","NE":"NE"},
"geometry":{ "type": "Point", "coordinates": [-96.669193,40.983759]}},
{ "type": "Feature", "properties": {"Abie village":"David City city","Nebraska":"Nebraska","NE":"NE"},
"geometry":{ "type": "Point", "coordinates": [-97.127829,41.257653]}},
{ "type": "Feature", "properties": {"Abie village":"Dawson village","Nebraska":"Nebraska","NE":"NE"},
"geometry":{ "type": "Point", "coordinates": [-95.830079,40.130886]}},
{ "type": "Feature", "properties": {"Abie village":"Daykin village","Nebraska":"Nebraska","NE":"NE"},
"geometry":{ "type": "Point", "coordinates": [-97.298328,40.32172]}},
{ "type": "Feature", "properties": {"Abie village":"Decatur village","Nebraska":"Nebraska","NE":"NE"},
"geometry":{ "type": "Point", "coordinates": [-96.248312,42.005886]}},
{ "type": "Feature", "properties": {"Abie village":"Denton village","Nebraska":"Nebraska","NE":"NE"},
"geometry":{ "type": "Point", "coordinates": [-96.845973,40.739248]}},
{ "type": "Feature", "properties": {"Abie village":"Deshler city","Nebraska":"Nebraska","NE":"NE"},
"geometry":{ "type": "Point", "coordinates": [-97.723422,40.139627]}},
{ "type": "Feature", "properties": {"Abie village":"Deweese village","Nebraska":"Nebraska","NE":"NE"},
"geometry":{ "type": "Point", "coordinates": [-98.13916,40.354731]}},
{ "type": "Feature", "properties": {"Abie village":"De Witt village","Nebraska":"Nebraska","NE":"NE"},
"geometry":{ "type": "Point", "coordinates": [-96.922209,40.395311]}},
{ "type": "Feature", "properties": {"Abie village":"Diller village","Nebraska":"Nebraska","NE":"NE"},
"geometry":{ "type": "Point", "coordinates": [-96.93783,40.108765]}},
{ "type": "Feature", "properties": {"Abie village":"Dix village","Nebraska":"Nebraska","NE":"NE"},
"geometry":{ "type": "Point", "coordinates": [-103.486672,41.23428]}},
{ "type": "Feature", "properties": {"Abie village":"Dixon village","Nebraska":"Nebraska","NE":"NE"},
"geometry":{ "type": "Point", "coordinates": [-96.994833,42.415408]}},
{ "type": "Feature", "properties": {"Abie village":"Dodge village","Nebraska":"Nebraska","NE":"NE"},
"geometry":{ "type": "Point", "coordinates": [-96.880385,41.721815]}},
{ "type": "Feature", "properties": {"Abie village":"Doniphan village","Nebraska":"Nebraska","NE":"NE"},
"geometry":{ "type": "Point", "coordinates": [-98.371365,40.774316]}},
{ "type": "Feature", "properties": {"Abie village":"Dorchester village","Nebraska":"Nebraska","NE":"NE"},
"geometry":{ "type": "Point", "coordinates": [-97.115171,40.647703]}},
{ "type": "Feature", "properties": {"Abie village":"Douglas village","Nebraska":"Nebraska","NE":"NE"},
"geometry":{ "type": "Point", "coordinates": [-96.38823,40.593182]}},
{ "type": "Feature", "properties": {"Abie village":"Du Bois village","Nebraska":"Nebraska","NE":"NE"},
"geometry":{ "type": "Point", "coordinates": [-96.046672,40.034538]}},
{ "type": "Feature", "properties": {"Abie village":"Dunbar village","Nebraska":"Nebraska","NE":"NE"},
"geometry":{ "type": "Point", "coordinates": [-96.030868,40.668679]}},
{ "type": "Feature", "properties": {"Abie village":"Duncan village","Nebraska":"Nebraska","NE":"NE"},
"geometry":{ "type": "Point", "coordinates": [-97.492714,41.390436]}},
{ "type": "Feature", "properties": {"Abie village":"Dunning village","Nebraska":"Nebraska","NE":"NE"},
"geometry":{ "type": "Point", "coordinates": [-100.104499,41.827078]}},
{ "type": "Feature", "properties": {"Abie village":"Dwight village","Nebraska":"Nebraska","NE":"NE"},
"geometry":{ "type": "Point", "coordinates": [-97.019096,41.082747]}},
{ "type": "Feature", "properties": {"Abie village":"Eagle village","Nebraska":"Nebraska","NE":"NE"},
"geometry":{ "type": "Point", "coordinates": [-96.432508,40.815664]}},
{ "type": "Feature", "properties": {"Abie village":"Eddyville village","Nebraska":"Nebraska","NE":"NE"},
"geometry":{ "type": "Point", "coordinates": [-99.623996,41.012213]}},
{ "type": "Feature", "properties": {"Abie village":"Edgar city","Nebraska":"Nebraska","NE":"NE"},
"geometry":{ "type": "Point", "coordinates": [-97.970973,40.368263]}},
{ "type": "Feature", "properties": {"Abie village":"Edison village","Nebraska":"Nebraska","NE":"NE"},
"geometry":{ "type": "Point", "coordinates": [-99.775808,40.279237]}},
{ "type": "Feature", "properties": {"Abie village":"Elba village","Nebraska":"Nebraska","NE":"NE"},
"geometry":{ "type": "Point", "coordinates": [-98.569262,41.285311]}},
{ "type": "Feature", "properties": {"Abie village":"Elgin city","Nebraska":"Nebraska","NE":"NE"},
"geometry":{ "type": "Point", "coordinates": [-98.082773,41.983115]}},
{ "type": "Feature", "properties": {"Abie village":"Elk Creek village","Nebraska":"Nebraska","NE":"NE"},
"geometry":{ "type": "Point", "coordinates": [-96.126943,40.288253]}},
{ "type": "Feature", "properties": {"Abie village":"Elm Creek village","Nebraska":"Nebraska","NE":"NE"},
"geometry":{ "type": "Point", "coordinates": [-99.37559,40.720084]}},
{ "type": "Feature", "properties": {"Abie village":"Elmwood village","Nebraska":"Nebraska","NE":"NE"},
"geometry":{ "type": "Point", "coordinates": [-96.294643,40.842533]}},
{ "type": "Feature", "properties": {"Abie village":"Elsie village","Nebraska":"Nebraska","NE":"NE"},
"geometry":{ "type": "Point", "coordinates": [-101.389155,40.847168]}},
{ "type": "Feature", "properties": {"Abie village":"Elwood village","Nebraska":"Nebraska","NE":"NE"},
"geometry":{ "type": "Point", "coordinates": [-99.861978,40.590133]}},
{ "type": "Feature", "properties": {"Abie village":"Elyria village","Nebraska":"Nebraska","NE":"NE"},
"geometry":{ "type": "Point", "coordinates": [-99.005316,41.680064]}},
{ "type": "Feature", "properties": {"Abie village":"Emerald CDP","Nebraska":"Nebraska","NE":"NE"},
"geometry":{ "type": "Point", "coordinates": [-96.835371,40.81313]}},
{ "type": "Feature", "properties": {"Abie village":"Emerson village","Nebraska":"Nebraska","NE":"NE"},
"geometry":{ "type": "Point", "coordinates": [-96.72629,42.278205]}},
{ "type": "Feature", "properties": {"Abie village":"Emmet village","Nebraska":"Nebraska","NE":"NE"},
"geometry":{ "type": "Point", "coordinates": [-98.809302,42.475698]}},
{ "type": "Feature", "properties": {"Abie village":"Enders CDP","Nebraska":"Nebraska","NE":"NE"},
"geometry":{ "type": "Point", "coordinates": [-101.535567,40.454919]}},
{ "type": "Feature", "properties": {"Abie village":"Endicott village","Nebraska":"Nebraska","NE":"NE"},
"geometry":{ "type": "Point", "coordinates": [-97.095385,40.082198]}},
{ "type": "Feature", "properties": {"Abie village":"Ericson village","Nebraska":"Nebraska","NE":"NE"},
"geometry":{ "type": "Point", "coordinates": [-98.678576,41.780442]}},
{ "type": "Feature", "properties": {"Abie village":"Eustis village","Nebraska":"Nebraska","NE":"NE"},
"geometry":{ "type": "Point", "coordinates": [-100.029551,40.664527]}},
{ "type": "Feature", "properties": {"Abie village":"Ewing village","Nebraska":"Nebraska","NE":"NE"},
"geometry":{ "type": "Point", "coordinates": [-98.343746,42.259359]}},
{ "type": "Feature", "properties": {"Abie village":"Exeter village","Nebraska":"Nebraska","NE":"NE"},
"geometry":{ "type": "Point", "coordinates": [-97.448793,40.64454]}},
{ "type": "Feature", "properties": {"Abie village":"Fairbury city","Nebraska":"Nebraska","NE":"NE"},
"geometry":{ "type": "Point", "coordinates": [-97.176504,40.144738]}},
{ "type": "Feature", "properties": {"Abie village":"Fairfield city","Nebraska":"Nebraska","NE":"NE"},
"geometry":{ "type": "Point", "coordinates": [-98.103204,40.432309]}},
{ "type": "Feature", "properties": {"Abie village":"Fairmont village","Nebraska":"Nebraska","NE":"NE"},
"geometry":{ "type": "Point", "coordinates": [-97.584954,40.633554]}},
{ "type": "Feature", "properties": {"Abie village":"Falls City city","Nebraska":"Nebraska","NE":"NE"},
"geometry":{ "type": "Point", "coordinates": [-95.599013,40.062208]}},
{ "type": "Feature", "properties": {"Abie village":"Farnam village","Nebraska":"Nebraska","NE":"NE"},
"geometry":{ "type": "Point", "coordinates": [-100.215492,40.706496]}},
{ "type": "Feature", "properties": {"Abie village":"Farwell village","Nebraska":"Nebraska","NE":"NE"},
"geometry":{ "type": "Point", "coordinates": [-98.628055,41.215623]}},
{ "type": "Feature", "properties": {"Abie village":"Filley village","Nebraska":"Nebraska","NE":"NE"},
"geometry":{ "type": "Point", "coordinates": [-96.533935,40.285202]}},
{ "type": "Feature", "properties": {"Abie village":"Firth village","Nebraska":"Nebraska","NE":"NE"},
"geometry":{ "type": "Point", "coordinates": [-96.604176,40.536572]}},
{ "type": "Feature", "properties": {"Abie village":"Fontanelle CDP","Nebraska":"Nebraska","NE":"NE"},
"geometry":{ "type": "Point", "coordinates": [-96.427187,41.538255]}},
{ "type": "Feature", "properties": {"Abie village":"Fordyce village","Nebraska":"Nebraska","NE":"NE"},
"geometry":{ "type": "Point", "coordinates": [-97.362773,42.698217]}},
{ "type": "Feature", "properties": {"Abie village":"Fort Calhoun city","Nebraska":"Nebraska","NE":"NE"},
"geometry":{ "type": "Point", "coordinates": [-96.026273,41.456237]}},
{ "type": "Feature", "properties": {"Abie village":"Foster village","Nebraska":"Nebraska","NE":"NE"},
"geometry":{ "type": "Point", "coordinates": [-97.665093,42.274699]}},
{ "type": "Feature", "properties": {"Abie village":"Franklin city","Nebraska":"Nebraska","NE":"NE"},
"geometry":{ "type": "Point", "coordinates": [-98.951425,40.096549]}},
{ "type": "Feature", "properties": {"Abie village":"Fremont city","Nebraska":"Nebraska","NE":"NE"},
"geometry":{ "type": "Point", "coordinates": [-96.487,41.439842]}},
{ "type": "Feature", "properties": {"Abie village":"Friend city","Nebraska":"Nebraska","NE":"NE"},
"geometry":{ "type": "Point", "coordinates": [-97.283795,40.650513]}},
{ "type": "Feature", "properties": {"Abie village":"Fullerton city","Nebraska":"Nebraska","NE":"NE"},
"geometry":{ "type": "Point", "coordinates": [-97.972261,41.364988]}},
{ "type": "Feature", "properties": {"Abie village":"Funk village","Nebraska":"Nebraska","NE":"NE"},
"geometry":{ "type": "Point", "coordinates": [-99.250756,40.463134]}},
{ "type": "Feature", "properties": {"Abie village":"Gandy village","Nebraska":"Nebraska","NE":"NE"},
"geometry":{ "type": "Point", "coordinates": [-100.458337,41.469749]}},
{ "type": "Feature", "properties": {"Abie village":"Garland village","Nebraska":"Nebraska","NE":"NE"},
"geometry":{ "type": "Point", "coordinates": [-96.985292,40.944587]}},
{ "type": "Feature", "properties": {"Abie village":"Garrison village","Nebraska":"Nebraska","NE":"NE"},
"geometry":{ "type": "Point", "coordinates": [-97.163426,41.175505]}},
{ "type": "Feature", "properties": {"Abie village":"Geneva city","Nebraska":"Nebraska","NE":"NE"},
"geometry":{ "type": "Point", "coordinates": [-97.597394,40.530613]}},
{ "type": "Feature", "properties": {"Abie village":"Genoa city","Nebraska":"Nebraska","NE":"NE"},
"geometry":{ "type": "Point", "coordinates": [-97.733271,41.445874]}},
{ "type": "Feature", "properties": {"Abie village":"Gering city","Nebraska":"Nebraska","NE":"NE"},
"geometry":{ "type": "Point", "coordinates": [-103.662524,41.826961]}},
{ "type": "Feature", "properties": {"Abie village":"Gibbon city","Nebraska":"Nebraska","NE":"NE"},
"geometry":{ "type": "Point", "coordinates": [-98.845814,40.746067]}},
{ "type": "Feature", "properties": {"Abie village":"Gilead village","Nebraska":"Nebraska","NE":"NE"},
"geometry":{ "type": "Point", "coordinates": [-97.415052,40.146093]}},
{ "type": "Feature", "properties": {"Abie village":"Giltner village","Nebraska":"Nebraska","NE":"NE"},
"geometry":{ "type": "Point", "coordinates": [-98.154284,40.775355]}},
{ "type": "Feature", "properties": {"Abie village":"Glenvil village","Nebraska":"Nebraska","NE":"NE"},
"geometry":{ "type": "Point", "coordinates": [-98.254545,40.502682]}},
{ "type": "Feature", "properties": {"Abie village":"Glenwood CDP","Nebraska":"Nebraska","NE":"NE"},
"geometry":{ "type": "Point", "coordinates": [-99.081007,40.755459]}},
{ "type": "Feature", "properties": {"Abie village":"Goehner village","Nebraska":"Nebraska","NE":"NE"},
"geometry":{ "type": "Point", "coordinates": [-97.219574,40.832732]}},
{ "type": "Feature", "properties": {"Abie village":"Gordon city","Nebraska":"Nebraska","NE":"NE"},
"geometry":{ "type": "Point", "coordinates": [-102.203938,42.806432]}},
{ "type": "Feature", "properties": {"Abie village":"Gothenburg city","Nebraska":"Nebraska","NE":"NE"},
"geometry":{ "type": "Point", "coordinates": [-100.153929,40.924676]}},
{ "type": "Feature", "properties": {"Abie village":"Grafton village","Nebraska":"Nebraska","NE":"NE"},
"geometry":{ "type": "Point", "coordinates": [-97.714629,40.629777]}},
{ "type": "Feature", "properties": {"Abie village":"Grand Island city","Nebraska":"Nebraska","NE":"NE"},
"geometry":{ "type": "Point", "coordinates": [-98.358735,40.921868]}},
{ "type": "Feature", "properties": {"Abie village":"Grant city","Nebraska":"Nebraska","NE":"NE"},
"geometry":{ "type": "Point", "coordinates": [-101.725576,40.844679]}},
{ "type": "Feature", "properties": {"Abie village":"Greeley Center village","Nebraska":"Nebraska","NE":"NE"},
"geometry":{ "type": "Point", "coordinates": [-98.530517,41.548344]}},
{ "type": "Feature", "properties": {"Abie village":"Greenwood village","Nebraska":"Nebraska","NE":"NE"},
"geometry":{ "type": "Point", "coordinates": [-96.443051,40.961818]}},
{ "type": "Feature", "properties": {"Abie village":"Gresham village","Nebraska":"Nebraska","NE":"NE"},
"geometry":{ "type": "Point", "coordinates": [-97.401093,41.02842]}},
{ "type": "Feature", "properties": {"Abie village":"Gretna city","Nebraska":"Nebraska","NE":"NE"},
"geometry":{ "type": "Point", "coordinates": [-96.200416,41.128515]}},
{ "type": "Feature", "properties": {"Abie village":"Gross village","Nebraska":"Nebraska","NE":"NE"},
"geometry":{ "type": "Point", "coordinates": [-98.569735,42.94608]}},
{ "type": "Feature", "properties": {"Abie village":"Guide Rock village","Nebraska":"Nebraska","NE":"NE"},
"geometry":{ "type": "Point", "coordinates": [-98.328803,40.073711]}},
{ "type": "Feature", "properties": {"Abie village":"Gurley village","Nebraska":"Nebraska","NE":"NE"},
"geometry":{ "type": "Point", "coordinates": [-102.974419,41.321393]}},
{ "type": "Feature", "properties": {"Abie village":"Hadar village","Nebraska":"Nebraska","NE":"NE"},
"geometry":{ "type": "Point", "coordinates": [-97.450972,42.107221]}},
{ "type": "Feature", "properties": {"Abie village":"Haigler village","Nebraska":"Nebraska","NE":"NE"},
"geometry":{ "type": "Point", "coordinates": [-101.938559,40.012142]}},
{ "type": "Feature", "properties": {"Abie village":"Hallam village","Nebraska":"Nebraska","NE":"NE"},
"geometry":{ "type": "Point", "coordinates": [-96.786792,40.5365]}},
{ "type": "Feature", "properties": {"Abie village":"Halsey village","Nebraska":"Nebraska","NE":"NE"},
"geometry":{ "type": "Point", "coordinates": [-100.269793,41.903319]}},
{ "type": "Feature", "properties": {"Abie village":"Hamlet village","Nebraska":"Nebraska","NE":"NE"},
"geometry":{ "type": "Point", "coordinates": [-101.234549,40.38445]}},
{ "type": "Feature", "properties": {"Abie village":"Hampton village","Nebraska":"Nebraska","NE":"NE"},
"geometry":{ "type": "Point", "coordinates": [-97.887535,40.881115]}},
{ "type": "Feature", "properties": {"Abie village":"Harbine village","Nebraska":"Nebraska","NE":"NE"},
"geometry":{ "type": "Point", "coordinates": [-96.974149,40.191627]}},
{ "type": "Feature", "properties": {"Abie village":"Hardy village","Nebraska":"Nebraska","NE":"NE"},
"geometry":{ "type": "Point", "coordinates": [-97.923808,40.011351]}},
{ "type": "Feature", "properties": {"Abie village":"Harrisburg CDP","Nebraska":"Nebraska","NE":"NE"},
"geometry":{ "type": "Point", "coordinates": [-103.726684,41.550529]}},
{ "type": "Feature", "properties": {"Abie village":"Harrison village","Nebraska":"Nebraska","NE":"NE"},
"geometry":{ "type": "Point", "coordinates": [-103.882471,42.688085]}},
{ "type": "Feature", "properties": {"Abie village":"Hartington city","Nebraska":"Nebraska","NE":"NE"},
"geometry":{ "type": "Point", "coordinates": [-97.267266,42.620392]}},
{ "type": "Feature", "properties": {"Abie village":"Harvard city","Nebraska":"Nebraska","NE":"NE"},
"geometry":{ "type": "Point", "coordinates": [-98.096122,40.620076]}},
{ "type": "Feature", "properties": {"Abie village":"Hastings city","Nebraska":"Nebraska","NE":"NE"},
"geometry":{ "type": "Point", "coordinates": [-98.39032,40.596264]}},
{ "type": "Feature", "properties": {"Abie village":"Hayes Center village","Nebraska":"Nebraska","NE":"NE"},
"geometry":{ "type": "Point", "coordinates": [-101.020397,40.511024]}},
{ "type": "Feature", "properties": {"Abie village":"Hay Springs village","Nebraska":"Nebraska","NE":"NE"},
"geometry":{ "type": "Point", "coordinates": [-102.689593,42.68329]}},
{ "type": "Feature", "properties": {"Abie village":"Hazard village","Nebraska":"Nebraska","NE":"NE"},
"geometry":{ "type": "Point", "coordinates": [-99.077263,41.091581]}},
{ "type": "Feature", "properties": {"Abie village":"Heartwell village","Nebraska":"Nebraska","NE":"NE"},
"geometry":{ "type": "Point", "coordinates": [-98.789077,40.569907]}},
{ "type": "Feature", "properties": {"Abie village":"Hebron city","Nebraska":"Nebraska","NE":"NE"},
"geometry":{ "type": "Point", "coordinates": [-97.586454,40.168713]}},
{ "type": "Feature", "properties": {"Abie village":"Hemingford village","Nebraska":"Nebraska","NE":"NE"},
"geometry":{ "type": "Point", "coordinates": [-103.075357,42.321263]}},
{ "type": "Feature", "properties": {"Abie village":"Henderson city","Nebraska":"Nebraska","NE":"NE"},
"geometry":{ "type": "Point", "coordinates": [-97.812209,40.78025]}},
{ "type": "Feature", "properties": {"Abie village":"Hendley village","Nebraska":"Nebraska","NE":"NE"},
"geometry":{ "type": "Point", "coordinates": [-99.971192,40.131315]}},
{ "type": "Feature", "properties": {"Abie village":"Henry village","Nebraska":"Nebraska","NE":"NE"},
"geometry":{ "type": "Point", "coordinates": [-104.045696,41.997856]}},
{ "type": "Feature", "properties": {"Abie village":"Herman village","Nebraska":"Nebraska","NE":"NE"},
"geometry":{ "type": "Point", "coordinates": [-96.216718,41.673825]}},
{ "type": "Feature", "properties": {"Abie village":"Hershey village","Nebraska":"Nebraska","NE":"NE"},
"geometry":{ "type": "Point", "coordinates": [-100.998528,41.160187]}},
{ "type": "Feature", "properties": {"Abie village":"Hickman city","Nebraska":"Nebraska","NE":"NE"},
"geometry":{ "type": "Point", "coordinates": [-96.629633,40.624991]}},
{ "type": "Feature", "properties": {"Abie village":"Hildreth village","Nebraska":"Nebraska","NE":"NE"},
"geometry":{ "type": "Point", "coordinates": [-99.045751,40.337832]}},
{ "type": "Feature", "properties": {"Abie village":"Holbrook village","Nebraska":"Nebraska","NE":"NE"},
"geometry":{ "type": "Point", "coordinates": [-100.009989,40.30474]}},
{ "type": "Feature", "properties": {"Abie village":"Holdrege city","Nebraska":"Nebraska","NE":"NE"},
"geometry":{ "type": "Point", "coordinates": [-99.377037,40.439441]}},
{ "type": "Feature", "properties": {"Abie village":"Holmesville CDP","Nebraska":"Nebraska","NE":"NE"},
"geometry":{ "type": "Point", "coordinates": [-96.65885,40.201426]}},
{ "type": "Feature", "properties": {"Abie village":"Holstein village","Nebraska":"Nebraska","NE":"NE"},
"geometry":{ "type": "Point", "coordinates": [-98.651043,40.465224]}},
{ "type": "Feature", "properties": {"Abie village":"Homer village","Nebraska":"Nebraska","NE":"NE"},
"geometry":{ "type": "Point", "coordinates": [-96.49121,42.322495]}},
{ "type": "Feature", "properties": {"Abie village":"Hooper city","Nebraska":"Nebraska","NE":"NE"},
"geometry":{ "type": "Point", "coordinates": [-96.548627,41.611373]}},
{ "type": "Feature", "properties": {"Abie village":"Hordville village","Nebraska":"Nebraska","NE":"NE"},
"geometry":{ "type": "Point", "coordinates": [-97.890349,41.079361]}},
{ "type": "Feature", "properties": {"Abie village":"Hoskins village","Nebraska":"Nebraska","NE":"NE"},
"geometry":{ "type": "Point", "coordinates": [-97.304384,42.112636]}},
{ "type": "Feature", "properties": {"Abie village":"Howard City (Boelus) village","Nebraska":"Nebraska","NE":"NE"},
"geometry":{ "type": "Point", "coordinates": [-98.715322,41.075411]}},
{ "type": "Feature", "properties": {"Abie village":"Howells village","Nebraska":"Nebraska","NE":"NE"},
"geometry":{ "type": "Point", "coordinates": [-97.004645,41.724232]}},
{ "type": "Feature", "properties": {"Abie village":"Hubbard village","Nebraska":"Nebraska","NE":"NE"},
"geometry":{ "type": "Point", "coordinates": [-96.591487,42.385901]}},
{ "type": "Feature", "properties": {"Abie village":"Hubbell village","Nebraska":"Nebraska","NE":"NE"},
"geometry":{ "type": "Point", "coordinates": [-97.497006,40.008741]}},
{ "type": "Feature", "properties": {"Abie village":"Humboldt city","Nebraska":"Nebraska","NE":"NE"},
"geometry":{ "type": "Point", "coordinates": [-95.944319,40.165819]}},
{ "type": "Feature", "properties": {"Abie village":"Humphrey city","Nebraska":"Nebraska","NE":"NE"},
"geometry":{ "type": "Point", "coordinates": [-97.485148,41.688506]}},
{ "type": "Feature", "properties": {"Abie village":"Huntley village","Nebraska":"Nebraska","NE":"NE"},
"geometry":{ "type": "Point", "coordinates": [-99.290134,40.210522]}},
{ "type": "Feature", "properties": {"Abie village":"Hyannis village","Nebraska":"Nebraska","NE":"NE"},
"geometry":{ "type": "Point", "coordinates": [-101.762228,42.000496]}},
{ "type": "Feature", "properties": {"Abie village":"Imperial city","Nebraska":"Nebraska","NE":"NE"},
"geometry":{ "type": "Point", "coordinates": [-101.637245,40.51442]}},
{ "type": "Feature", "properties": {"Abie village":"Inavale CDP","Nebraska":"Nebraska","NE":"NE"},
"geometry":{ "type": "Point", "coordinates": [-98.648391,40.092266]}},
{ "type": "Feature", "properties": {"Abie village":"Indianola city","Nebraska":"Nebraska","NE":"NE"},
"geometry":{ "type": "Point", "coordinates": [-100.419843,40.234629]}},
{ "type": "Feature", "properties": {"Abie village":"Inglewood village","Nebraska":"Nebraska","NE":"NE"},
"geometry":{ "type": "Point", "coordinates": [-96.502424,41.415965]}},
{ "type": "Feature", "properties": {"Abie village":"Inland CDP","Nebraska":"Nebraska","NE":"NE"},
"geometry":{ "type": "Point", "coordinates": [-98.223076,40.595297]}},
{ "type": "Feature", "properties": {"Abie village":"Inman village","Nebraska":"Nebraska","NE":"NE"},
"geometry":{ "type": "Point", "coordinates": [-98.529814,42.381915]}},
{ "type": "Feature", "properties": {"Abie village":"Ithaca village","Nebraska":"Nebraska","NE":"NE"},
"geometry":{ "type": "Point", "coordinates": [-96.539495,41.159339]}},
{ "type": "Feature", "properties": {"Abie village":"Jackson village","Nebraska":"Nebraska","NE":"NE"},
"geometry":{ "type": "Point", "coordinates": [-96.571302,42.448167]}},
{ "type": "Feature", "properties": {"Abie village":"Jansen village","Nebraska":"Nebraska","NE":"NE"},
"geometry":{ "type": "Point", "coordinates": [-97.084783,40.18395]}},
{ "type": "Feature", "properties": {"Abie village":"Johnson village","Nebraska":"Nebraska","NE":"NE"},
"geometry":{ "type": "Point", "coordinates": [-95.999865,40.410459]}},
{ "type": "Feature", "properties": {"Abie village":"Johnstown village","Nebraska":"Nebraska","NE":"NE"},
"geometry":{ "type": "Point", "coordinates": [-100.056289,42.572103]}},
{ "type": "Feature", "properties": {"Abie village":"Julian village","Nebraska":"Nebraska","NE":"NE"},
"geometry":{ "type": "Point", "coordinates": [-95.867366,40.519885]}},
{ "type": "Feature", "properties": {"Abie village":"Juniata village","Nebraska":"Nebraska","NE":"NE"},
"geometry":{ "type": "Point", "coordinates": [-98.506963,40.590167]}},
{ "type": "Feature", "properties": {"Abie village":"Kearney city","Nebraska":"Nebraska","NE":"NE"},
"geometry":{ "type": "Point", "coordinates": [-99.082312,40.701745]}},
{ "type": "Feature", "properties": {"Abie village":"Kenesaw village","Nebraska":"Nebraska","NE":"NE"},
"geometry":{ "type": "Point", "coordinates": [-98.657585,40.618944]}},
{ "type": "Feature", "properties": {"Abie village":"Kennard village","Nebraska":"Nebraska","NE":"NE"},
"geometry":{ "type": "Point", "coordinates": [-96.203696,41.474697]}},
{ "type": "Feature", "properties": {"Abie village":"Keystone CDP","Nebraska":"Nebraska","NE":"NE"},
"geometry":{ "type": "Point", "coordinates": [-101.584122,41.21874]}},
{ "type": "Feature", "properties": {"Abie village":"Kilgore village","Nebraska":"Nebraska","NE":"NE"},
"geometry":{ "type": "Point", "coordinates": [-100.957305,42.939097]}},
{ "type": "Feature", "properties": {"Abie village":"Kimball city","Nebraska":"Nebraska","NE":"NE"},
"geometry":{ "type": "Point", "coordinates": [-103.651304,41.233511]}},
{ "type": "Feature", "properties": {"Abie village":"King Lake CDP","Nebraska":"Nebraska","NE":"NE"},
"geometry":{ "type": "Point", "coordinates": [-96.302285,41.309669]}},
{ "type": "Feature", "properties": {"Abie village":"Kramer CDP","Nebraska":"Nebraska","NE":"NE"},
"geometry":{ "type": "Point", "coordinates": [-96.873283,40.591319]}},
{ "type": "Feature", "properties": {"Abie village":"Lakeview CDP","Nebraska":"Nebraska","NE":"NE"},
"geometry":{ "type": "Point", "coordinates": [-97.377516,41.499721]}},
{ "type": "Feature", "properties": {"Abie village":"Lamar village","Nebraska":"Nebraska","NE":"NE"},
"geometry":{ "type": "Point", "coordinates": [-101.979284,40.572468]}},
{ "type": "Feature", "properties": {"Abie village":"La Platte CDP","Nebraska":"Nebraska","NE":"NE"},
"geometry":{ "type": "Point", "coordinates": [-95.926508,41.072261]}},
{ "type": "Feature", "properties": {"Abie village":"Laurel city","Nebraska":"Nebraska","NE":"NE"},
"geometry":{ "type": "Point", "coordinates": [-97.096948,42.428757]}},
{ "type": "Feature", "properties": {"Abie village":"La Vista city","Nebraska":"Nebraska","NE":"NE"},
"geometry":{ "type": "Point", "coordinates": [-96.068244,41.181836]}},
{ "type": "Feature", "properties": {"Abie village":"Lawrence village","Nebraska":"Nebraska","NE":"NE"},
"geometry":{ "type": "Point", "coordinates": [-98.259675,40.290167]}},
{ "type": "Feature", "properties": {"Abie village":"Lebanon village","Nebraska":"Nebraska","NE":"NE"},
"geometry":{ "type": "Point", "coordinates": [-100.275944,40.048793]}},
{ "type": "Feature", "properties": {"Abie village":"Leigh village","Nebraska":"Nebraska","NE":"NE"},
"geometry":{ "type": "Point", "coordinates": [-97.240679,41.703261]}},
{ "type": "Feature", "properties": {"Abie village":"Lemoyne CDP","Nebraska":"Nebraska","NE":"NE"},
"geometry":{ "type": "Point", "coordinates": [-101.813356,41.276644]}},
{ "type": "Feature", "properties": {"Abie village":"Leshara village","Nebraska":"Nebraska","NE":"NE"},
"geometry":{ "type": "Point", "coordinates": [-96.429203,41.32979]}},
{ "type": "Feature", "properties": {"Abie village":"Lewellen village","Nebraska":"Nebraska","NE":"NE"},
"geometry":{ "type": "Point", "coordinates": [-102.143702,41.330531]}},
{ "type": "Feature", "properties": {"Abie village":"Lewiston village","Nebraska":"Nebraska","NE":"NE"},
"geometry":{ "type": "Point", "coordinates": [-96.407448,40.242871]}},
{ "type": "Feature", "properties": {"Abie village":"Lexington city","Nebraska":"Nebraska","NE":"NE"},
"geometry":{ "type": "Point", "coordinates": [-99.746616,40.777323]}},
{ "type": "Feature", "properties": {"Abie village":"Liberty village","Nebraska":"Nebraska","NE":"NE"},
"geometry":{ "type": "Point", "coordinates": [-96.483009,40.085507]}},
{ "type": "Feature", "properties": {"Abie village":"Lincoln city","Nebraska":"Nebraska","NE":"NE"},
"geometry":{ "type": "Point", "coordinates": [-96.677895,40.808943]}},
{ "type": "Feature", "properties": {"Abie village":"Lindsay village","Nebraska":"Nebraska","NE":"NE"},
"geometry":{ "type": "Point", "coordinates": [-97.69412,41.699278]}},
{ "type": "Feature", "properties": {"Abie village":"Lindy CDP","Nebraska":"Nebraska","NE":"NE"},
"geometry":{ "type": "Point", "coordinates": [-97.749951,42.735114]}},
{ "type": "Feature", "properties": {"Abie village":"Linoma Beach CDP","Nebraska":"Nebraska","NE":"NE"},
"geometry":{ "type": "Point", "coordinates": [-96.314066,41.057297]}},
{ "type": "Feature", "properties": {"Abie village":"Linwood village","Nebraska":"Nebraska","NE":"NE"},
"geometry":{ "type": "Point", "coordinates": [-96.932347,41.412341]}},
{ "type": "Feature", "properties": {"Abie village":"Lisco CDP","Nebraska":"Nebraska","NE":"NE"},
"geometry":{ "type": "Point", "coordinates": [-102.623647,41.498669]}},
{ "type": "Feature", "properties": {"Abie village":"Litchfield village","Nebraska":"Nebraska","NE":"NE"},
"geometry":{ "type": "Point", "coordinates": [-99.153053,41.156047]}},
{ "type": "Feature", "properties": {"Abie village":"Lodgepole village","Nebraska":"Nebraska","NE":"NE"},
"geometry":{ "type": "Point", "coordinates": [-102.638635,41.148929]}},
{ "type": "Feature", "properties": {"Abie village":"Long Pine city","Nebraska":"Nebraska","NE":"NE"},
"geometry":{ "type": "Point", "coordinates": [-99.702698,42.535252]}},
{ "type": "Feature", "properties": {"Abie village":"Loomis village","Nebraska":"Nebraska","NE":"NE"},
"geometry":{ "type": "Point", "coordinates": [-99.507684,40.478284]}},
{ "type": "Feature", "properties": {"Abie village":"Lorenzo CDP","Nebraska":"Nebraska","NE":"NE"},
"geometry":{ "type": "Point", "coordinates": [-103.082098,41.057574]}},
{ "type": "Feature", "properties": {"Abie village":"Loretto CDP","Nebraska":"Nebraska","NE":"NE"},
"geometry":{ "type": "Point", "coordinates": [-98.081721,41.763444]}},
{ "type": "Feature", "properties": {"Abie village":"Lorton village","Nebraska":"Nebraska","NE":"NE"},
"geometry":{ "type": "Point", "coordinates": [-96.024177,40.59722]}},
{ "type": "Feature", "properties": {"Abie village":"Louisville city","Nebraska":"Nebraska","NE":"NE"},
"geometry":{ "type": "Point", "coordinates": [-96.161233,40.996473]}},
{ "type": "Feature", "properties": {"Abie village":"Loup City city","Nebraska":"Nebraska","NE":"NE"},
"geometry":{ "type": "Point", "coordinates": [-98.967727,41.276683]}},
{ "type": "Feature", "properties": {"Abie village":"Lushton village","Nebraska":"Nebraska","NE":"NE"},
"geometry":{ "type": "Point", "coordinates": [-97.723648,40.72403]}},
{ "type": "Feature", "properties": {"Abie village":"Lyman village","Nebraska":"Nebraska","NE":"NE"},
"geometry":{ "type": "Point", "coordinates": [-104.038119,41.916986]}},
{ "type": "Feature", "properties": {"Abie village":"Lynch village","Nebraska":"Nebraska","NE":"NE"},
"geometry":{ "type": "Point", "coordinates": [-98.466854,42.831216]}},
{ "type": "Feature", "properties": {"Abie village":"Lyons city","Nebraska":"Nebraska","NE":"NE"},
"geometry":{ "type": "Point", "coordinates": [-96.472338,41.93588]}},
{ "type": "Feature", "properties": {"Abie village":"McCook city","Nebraska":"Nebraska","NE":"NE"},
"geometry":{ "type": "Point", "coordinates": [-100.621563,40.204534]}},
{ "type": "Feature", "properties": {"Abie village":"McCool Junction village","Nebraska":"Nebraska","NE":"NE"},
"geometry":{ "type": "Point", "coordinates": [-97.600794,40.743858]}},
{ "type": "Feature", "properties": {"Abie village":"McGrew village","Nebraska":"Nebraska","NE":"NE"},
"geometry":{ "type": "Point", "coordinates": [-103.417167,41.747668]}},
{ "type": "Feature", "properties": {"Abie village":"McLean village","Nebraska":"Nebraska","NE":"NE"},
"geometry":{ "type": "Point", "coordinates": [-97.468177,42.386341]}},
{ "type": "Feature", "properties": {"Abie village":"Macy CDP","Nebraska":"Nebraska","NE":"NE"},
"geometry":{ "type": "Point", "coordinates": [-96.366599,42.115881]}},
{ "type": "Feature", "properties": {"Abie village":"Madison city","Nebraska":"Nebraska","NE":"NE"},
"geometry":{ "type": "Point", "coordinates": [-97.456719,41.828292]}},
{ "type": "Feature", "properties": {"Abie village":"Madrid village","Nebraska":"Nebraska","NE":"NE"},
"geometry":{ "type": "Point", "coordinates": [-101.527891,40.852426]}},
{ "type": "Feature", "properties": {"Abie village":"Magnet village","Nebraska":"Nebraska","NE":"NE"},
"geometry":{ "type": "Point", "coordinates": [-97.469294,42.45612]}},
{ "type": "Feature", "properties": {"Abie village":"Malcolm village","Nebraska":"Nebraska","NE":"NE"},
"geometry":{ "type": "Point", "coordinates": [-96.866053,40.909045]}},
{ "type": "Feature", "properties": {"Abie village":"Malmo village","Nebraska":"Nebraska","NE":"NE"},
"geometry":{ "type": "Point", "coordinates": [-96.720922,41.266455]}},
{ "type": "Feature", "properties": {"Abie village":"Manley village","Nebraska":"Nebraska","NE":"NE"},
"geometry":{ "type": "Point", "coordinates": [-96.165698,40.918337]}},
{ "type": "Feature", "properties": {"Abie village":"Marquette village","Nebraska":"Nebraska","NE":"NE"},
"geometry":{ "type": "Point", "coordinates": [-98.009751,41.006335]}},
{ "type": "Feature", "properties": {"Abie village":"Martell CDP","Nebraska":"Nebraska","NE":"NE"},
"geometry":{ "type": "Point", "coordinates": [-96.758794,40.638942]}},
{ "type": "Feature", "properties": {"Abie village":"Martin CDP","Nebraska":"Nebraska","NE":"NE"},
"geometry":{ "type": "Point", "coordinates": [-101.709005,41.258135]}},
{ "type": "Feature", "properties": {"Abie village":"Martinsburg village","Nebraska":"Nebraska","NE":"NE"},
"geometry":{ "type": "Point", "coordinates": [-96.832,42.508573]}},
{ "type": "Feature", "properties": {"Abie village":"Maskell village","Nebraska":"Nebraska","NE":"NE"},
"geometry":{ "type": "Point", "coordinates": [-96.9809,42.690418]}},
{ "type": "Feature", "properties": {"Abie village":"Mason City village","Nebraska":"Nebraska","NE":"NE"},
"geometry":{ "type": "Point", "coordinates": [-99.298766,41.22219]}},
{ "type": "Feature", "properties": {"Abie village":"Max CDP","Nebraska":"Nebraska","NE":"NE"},
"geometry":{ "type": "Point", "coordinates": [-101.404489,40.11432]}},
{ "type": "Feature", "properties": {"Abie village":"Maxwell village","Nebraska":"Nebraska","NE":"NE"},
"geometry":{ "type": "Point", "coordinates": [-100.526314,41.077114]}},
{ "type": "Feature", "properties": {"Abie village":"Maywood village","Nebraska":"Nebraska","NE":"NE"},
"geometry":{ "type": "Point", "coordinates": [-100.622233,40.658698]}},
{ "type": "Feature", "properties": {"Abie village":"Mead village","Nebraska":"Nebraska","NE":"NE"},
"geometry":{ "type": "Point", "coordinates": [-96.487187,41.224402]}},
{ "type": "Feature", "properties": {"Abie village":"Meadow Grove village","Nebraska":"Nebraska","NE":"NE"},
"geometry":{ "type": "Point", "coordinates": [-97.73604,42.029007]}},
{ "type": "Feature", "properties": {"Abie village":"Melbeta village","Nebraska":"Nebraska","NE":"NE"},
"geometry":{ "type": "Point", "coordinates": [-103.516935,41.781972]}},
{ "type": "Feature", "properties": {"Abie village":"Melia CDP","Nebraska":"Nebraska","NE":"NE"},
"geometry":{ "type": "Point", "coordinates": [-96.276438,41.097166]}},
{ "type": "Feature", "properties": {"Abie village":"Memphis village","Nebraska":"Nebraska","NE":"NE"},
"geometry":{ "type": "Point", "coordinates": [-96.433137,41.094564]}},
{ "type": "Feature", "properties": {"Abie village":"Merna village","Nebraska":"Nebraska","NE":"NE"},
"geometry":{ "type": "Point", "coordinates": [-99.761063,41.485159]}},
{ "type": "Feature", "properties": {"Abie village":"Merriman village","Nebraska":"Nebraska","NE":"NE"},
"geometry":{ "type": "Point", "coordinates": [-101.699732,42.922998]}},
{ "type": "Feature", "properties": {"Abie village":"Milford city","Nebraska":"Nebraska","NE":"NE"},
"geometry":{ "type": "Point", "coordinates": [-97.054119,40.772568]}},
{ "type": "Feature", "properties": {"Abie village":"Miller village","Nebraska":"Nebraska","NE":"NE"},
"geometry":{ "type": "Point", "coordinates": [-99.39012,40.927611]}},
{ "type": "Feature", "properties": {"Abie village":"Milligan village","Nebraska":"Nebraska","NE":"NE"},
"geometry":{ "type": "Point", "coordinates": [-97.388394,40.500018]}},
{ "type": "Feature", "properties": {"Abie village":"Minatare city","Nebraska":"Nebraska","NE":"NE"},
"geometry":{ "type": "Point", "coordinates": [-103.500899,41.811507]}},
{ "type": "Feature", "properties": {"Abie village":"Minden city","Nebraska":"Nebraska","NE":"NE"},
"geometry":{ "type": "Point", "coordinates": [-98.967005,40.498186]}},
{ "type": "Feature", "properties": {"Abie village":"Mitchell city","Nebraska":"Nebraska","NE":"NE"},
"geometry":{ "type": "Point", "coordinates": [-103.809845,41.942661]}},
{ "type": "Feature", "properties": {"Abie village":"Monowi village","Nebraska":"Nebraska","NE":"NE"},
"geometry":{ "type": "Point", "coordinates": [-98.32956,42.830705]}},
{ "type": "Feature", "properties": {"Abie village":"Monroe village","Nebraska":"Nebraska","NE":"NE"},
"geometry":{ "type": "Point", "coordinates": [-97.599088,41.474054]}},
{ "type": "Feature", "properties": {"Abie village":"Moorefield village","Nebraska":"Nebraska","NE":"NE"},
"geometry":{ "type": "Point", "coordinates": [-100.400327,40.689917]}},
{ "type": "Feature", "properties": {"Abie village":"Morrill village","Nebraska":"Nebraska","NE":"NE"},
"geometry":{ "type": "Point", "coordinates": [-103.924875,41.964065]}},
{ "type": "Feature", "properties": {"Abie village":"Morse Bluff village","Nebraska":"Nebraska","NE":"NE"},
"geometry":{ "type": "Point", "coordinates": [-96.766514,41.430946]}},
{ "type": "Feature", "properties": {"Abie village":"Mullen village","Nebraska":"Nebraska","NE":"NE"},
"geometry":{ "type": "Point", "coordinates": [-101.044553,42.042962]}},
{ "type": "Feature", "properties": {"Abie village":"Murdock village","Nebraska":"Nebraska","NE":"NE"},
"geometry":{ "type": "Point", "coordinates": [-96.280879,40.926106]}},
{ "type": "Feature", "properties": {"Abie village":"Murray village","Nebraska":"Nebraska","NE":"NE"},
"geometry":{ "type": "Point", "coordinates": [-95.926786,40.916309]}},
{ "type": "Feature", "properties": {"Abie village":"Naper village","Nebraska":"Nebraska","NE":"NE"},
"geometry":{ "type": "Point", "coordinates": [-99.097,42.964168]}},
{ "type": "Feature", "properties": {"Abie village":"Naponee village","Nebraska":"Nebraska","NE":"NE"},
"geometry":{ "type": "Point", "coordinates": [-99.138629,40.074733]}},
{ "type": "Feature", "properties": {"Abie village":"Nebraska City city","Nebraska":"Nebraska","NE":"NE"},
"geometry":{ "type": "Point", "coordinates": [-95.861631,40.675907]}},
{ "type": "Feature", "properties": {"Abie village":"Nehawka village","Nebraska":"Nebraska","NE":"NE"},
"geometry":{ "type": "Point", "coordinates": [-95.990007,40.82961]}},
{ "type": "Feature", "properties": {"Abie village":"Neligh city","Nebraska":"Nebraska","NE":"NE"},
"geometry":{ "type": "Point", "coordinates": [-98.029229,42.129093]}},
{ "type": "Feature", "properties": {"Abie village":"Nelson city","Nebraska":"Nebraska","NE":"NE"},
"geometry":{ "type": "Point", "coordinates": [-98.06863,40.201167]}},
{ "type": "Feature", "properties": {"Abie village":"Nemaha village","Nebraska":"Nebraska","NE":"NE"},
"geometry":{ "type": "Point", "coordinates": [-95.675965,40.338801]}},
{ "type": "Feature", "properties": {"Abie village":"Nenzel village","Nebraska":"Nebraska","NE":"NE"},
"geometry":{ "type": "Point", "coordinates": [-101.101804,42.927354]}},
{ "type": "Feature", "properties": {"Abie village":"Newcastle village","Nebraska":"Nebraska","NE":"NE"},
"geometry":{ "type": "Point", "coordinates": [-96.87403,42.652413]}},
{ "type": "Feature", "properties": {"Abie village":"Newman Grove city","Nebraska":"Nebraska","NE":"NE"},
"geometry":{ "type": "Point", "coordinates": [-97.776702,41.746892]}},
{ "type": "Feature", "properties": {"Abie village":"Newport village","Nebraska":"Nebraska","NE":"NE"},
"geometry":{ "type": "Point", "coordinates": [-99.328302,42.600218]}},
{ "type": "Feature", "properties": {"Abie village":"Nickerson village","Nebraska":"Nebraska","NE":"NE"},
"geometry":{ "type": "Point", "coordinates": [-96.47085,41.534723]}},
{ "type": "Feature", "properties": {"Abie village":"Niobrara village","Nebraska":"Nebraska","NE":"NE"},
"geometry":{ "type": "Point", "coordinates": [-98.031505,42.74995]}},
{ "type": "Feature", "properties": {"Abie village":"Nora village","Nebraska":"Nebraska","NE":"NE"},
"geometry":{ "type": "Point", "coordinates": [-97.973788,40.164141]}},
{ "type": "Feature", "properties": {"Abie village":"Norfolk city","Nebraska":"Nebraska","NE":"NE"},
"geometry":{ "type": "Point", "coordinates": [-97.429604,42.028425]}},
{ "type": "Feature", "properties": {"Abie village":"Norman village","Nebraska":"Nebraska","NE":"NE"},
"geometry":{ "type": "Point", "coordinates": [-98.792102,40.479154]}},
{ "type": "Feature", "properties": {"Abie village":"North Bend city","Nebraska":"Nebraska","NE":"NE"},
"geometry":{ "type": "Point", "coordinates": [-96.785754,41.461968]}},
{ "type": "Feature", "properties": {"Abie village":"North Loup village","Nebraska":"Nebraska","NE":"NE"},
"geometry":{ "type": "Point", "coordinates": [-98.772677,41.495451]}},
{ "type": "Feature", "properties": {"Abie village":"North Platte city","Nebraska":"Nebraska","NE":"NE"},
"geometry":{ "type": "Point", "coordinates": [-100.76427,41.127117]}},
{ "type": "Feature", "properties": {"Abie village":"Oak village","Nebraska":"Nebraska","NE":"NE"},
"geometry":{ "type": "Point", "coordinates": [-97.903649,40.238155]}},
{ "type": "Feature", "properties": {"Abie village":"Oakdale village","Nebraska":"Nebraska","NE":"NE"},
"geometry":{ "type": "Point", "coordinates": [-97.967159,42.070084]}},
{ "type": "Feature", "properties": {"Abie village":"Oakland city","Nebraska":"Nebraska","NE":"NE"},
"geometry":{ "type": "Point", "coordinates": [-96.467051,41.835081]}},
{ "type": "Feature", "properties": {"Abie village":"Obert village","Nebraska":"Nebraska","NE":"NE"},
"geometry":{ "type": "Point", "coordinates": [-97.027222,42.689511]}},
{ "type": "Feature", "properties": {"Abie village":"Oconto village","Nebraska":"Nebraska","NE":"NE"},
"geometry":{ "type": "Point", "coordinates": [-99.761938,41.141659]}},
{ "type": "Feature", "properties": {"Abie village":"Octavia village","Nebraska":"Nebraska","NE":"NE"},
"geometry":{ "type": "Point", "coordinates": [-97.058953,41.347373]}},
{ "type": "Feature", "properties": {"Abie village":"Odell village","Nebraska":"Nebraska","NE":"NE"},
"geometry":{ "type": "Point", "coordinates": [-96.801673,40.050377]}},
{ "type": "Feature", "properties": {"Abie village":"Odessa CDP","Nebraska":"Nebraska","NE":"NE"},
"geometry":{ "type": "Point", "coordinates": [-99.25441,40.699108]}},
{ "type": "Feature", "properties": {"Abie village":"Offutt AFB CDP","Nebraska":"Nebraska","NE":"NE"},
"geometry":{ "type": "Point", "coordinates": [-95.921108,41.120993]}},
{ "type": "Feature", "properties": {"Abie village":"Ogallala city","Nebraska":"Nebraska","NE":"NE"},
"geometry":{ "type": "Point", "coordinates": [-101.720677,41.129595]}},
{ "type": "Feature", "properties": {"Abie village":"Ohiowa village","Nebraska":"Nebraska","NE":"NE"},
"geometry":{ "type": "Point", "coordinates": [-97.452375,40.413641]}},
{ "type": "Feature", "properties": {"Abie village":"Omaha city","Nebraska":"Nebraska","NE":"NE"},
"geometry":{ "type": "Point", "coordinates": [-96.053475,41.262705]}},
{ "type": "Feature", "properties": {"Abie village":"O'Neill city","Nebraska":"Nebraska","NE":"NE"},
"geometry":{ "type": "Point", "coordinates": [-98.646493,42.461019]}},
{ "type": "Feature", "properties": {"Abie village":"Ong village","Nebraska":"Nebraska","NE":"NE"},
"geometry":{ "type": "Point", "coordinates": [-97.83923,40.398332]}},
{ "type": "Feature", "properties": {"Abie village":"Orchard village","Nebraska":"Nebraska","NE":"NE"},
"geometry":{ "type": "Point", "coordinates": [-98.240919,42.336475]}},
{ "type": "Feature", "properties": {"Abie village":"Ord city","Nebraska":"Nebraska","NE":"NE"},
"geometry":{ "type": "Point", "coordinates": [-98.919257,41.602781]}},
{ "type": "Feature", "properties": {"Abie village":"Orleans village","Nebraska":"Nebraska","NE":"NE"},
"geometry":{ "type": "Point", "coordinates": [-99.455099,40.131722]}},
{ "type": "Feature", "properties": {"Abie village":"Osceola city","Nebraska":"Nebraska","NE":"NE"},
"geometry":{ "type": "Point", "coordinates": [-97.550044,41.178484]}},
{ "type": "Feature", "properties": {"Abie village":"Oshkosh city","Nebraska":"Nebraska","NE":"NE"},
"geometry":{ "type": "Point", "coordinates": [-102.345209,41.408005]}},
{ "type": "Feature", "properties": {"Abie village":"Osmond city","Nebraska":"Nebraska","NE":"NE"},
"geometry":{ "type": "Point", "coordinates": [-97.599135,42.358156]}},
{ "type": "Feature", "properties": {"Abie village":"Otoe village","Nebraska":"Nebraska","NE":"NE"},
"geometry":{ "type": "Point", "coordinates": [-96.12061,40.724075]}},
{ "type": "Feature", "properties": {"Abie village":"Overland CDP","Nebraska":"Nebraska","NE":"NE"},
"geometry":{ "type": "Point", "coordinates": [-97.978905,41.08024]}},
{ "type": "Feature", "properties": {"Abie village":"Overton village","Nebraska":"Nebraska","NE":"NE"},
"geometry":{ "type": "Point", "coordinates": [-99.53741,40.74057]}},
{ "type": "Feature", "properties": {"Abie village":"Oxford village","Nebraska":"Nebraska","NE":"NE"},
"geometry":{ "type": "Point", "coordinates": [-99.63221,40.253033]}},
{ "type": "Feature", "properties": {"Abie village":"Page village","Nebraska":"Nebraska","NE":"NE"},
"geometry":{ "type": "Point", "coordinates": [-98.417668,42.400011]}},
{ "type": "Feature", "properties": {"Abie village":"Palisade village","Nebraska":"Nebraska","NE":"NE"},
"geometry":{ "type": "Point", "coordinates": [-101.107462,40.348404]}},
{ "type": "Feature", "properties": {"Abie village":"Palmer village","Nebraska":"Nebraska","NE":"NE"},
"geometry":{ "type": "Point", "coordinates": [-98.259761,41.22241]}},
{ "type": "Feature", "properties": {"Abie village":"Palmyra village","Nebraska":"Nebraska","NE":"NE"},
"geometry":{ "type": "Point", "coordinates": [-96.392119,40.7057]}},
{ "type": "Feature", "properties": {"Abie village":"Panama village","Nebraska":"Nebraska","NE":"NE"},
"geometry":{ "type": "Point", "coordinates": [-96.511169,40.599804]}},
{ "type": "Feature", "properties": {"Abie village":"Papillion city","Nebraska":"Nebraska","NE":"NE"},
"geometry":{ "type": "Point", "coordinates": [-96.07809,41.143376]}},
{ "type": "Feature", "properties": {"Abie village":"Parks CDP","Nebraska":"Nebraska","NE":"NE"},
"geometry":{ "type": "Point", "coordinates": [-101.725113,40.04362]}},
{ "type": "Feature", "properties": {"Abie village":"Pawnee City city","Nebraska":"Nebraska","NE":"NE"},
"geometry":{ "type": "Point", "coordinates": [-96.152966,40.110621]}},
{ "type": "Feature", "properties": {"Abie village":"Paxton village","Nebraska":"Nebraska","NE":"NE"},
"geometry":{ "type": "Point", "coordinates": [-101.351957,41.123371]}},
{ "type": "Feature", "properties": {"Abie village":"Pender village","Nebraska":"Nebraska","NE":"NE"},
"geometry":{ "type": "Point", "coordinates": [-96.711515,42.110615]}},
{ "type": "Feature", "properties": {"Abie village":"Peru city","Nebraska":"Nebraska","NE":"NE"},
"geometry":{ "type": "Point", "coordinates": [-95.731392,40.478512]}},
{ "type": "Feature", "properties": {"Abie village":"Petersburg village","Nebraska":"Nebraska","NE":"NE"},
"geometry":{ "type": "Point", "coordinates": [-98.081198,41.853629]}},
{ "type": "Feature", "properties": {"Abie village":"Phillips village","Nebraska":"Nebraska","NE":"NE"},
"geometry":{ "type": "Point", "coordinates": [-98.214594,40.89767]}},
{ "type": "Feature", "properties": {"Abie village":"Pickrell village","Nebraska":"Nebraska","NE":"NE"},
"geometry":{ "type": "Point", "coordinates": [-96.729117,40.378319]}},
{ "type": "Feature", "properties": {"Abie village":"Pierce city","Nebraska":"Nebraska","NE":"NE"},
"geometry":{ "type": "Point", "coordinates": [-97.527952,42.199274]}},
{ "type": "Feature", "properties": {"Abie village":"Pilger village","Nebraska":"Nebraska","NE":"NE"},
"geometry":{ "type": "Point", "coordinates": [-97.054876,42.007495]}},
{ "type": "Feature", "properties": {"Abie village":"Plainview city","Nebraska":"Nebraska","NE":"NE"},
"geometry":{ "type": "Point", "coordinates": [-97.787145,42.353346]}},
{ "type": "Feature", "properties": {"Abie village":"Platte Center village","Nebraska":"Nebraska","NE":"NE"},
"geometry":{ "type": "Point", "coordinates": [-97.488475,41.537427]}},
{ "type": "Feature", "properties": {"Abie village":"Plattsmouth city","Nebraska":"Nebraska","NE":"NE"},
"geometry":{ "type": "Point", "coordinates": [-95.893088,41.006236]}},
{ "type": "Feature", "properties": {"Abie village":"Pleasant Dale village","Nebraska":"Nebraska","NE":"NE"},
"geometry":{ "type": "Point", "coordinates": [-96.932966,40.79121]}},
{ "type": "Feature", "properties": {"Abie village":"Pleasanton village","Nebraska":"Nebraska","NE":"NE"},
"geometry":{ "type": "Point", "coordinates": [-99.087826,40.969882]}},
{ "type": "Feature", "properties": {"Abie village":"Plymouth village","Nebraska":"Nebraska","NE":"NE"},
"geometry":{ "type": "Point", "coordinates": [-96.988492,40.302516]}},
{ "type": "Feature", "properties": {"Abie village":"Polk village","Nebraska":"Nebraska","NE":"NE"},
"geometry":{ "type": "Point", "coordinates": [-97.783774,41.075208]}},
{ "type": "Feature", "properties": {"Abie village":"Ponca city","Nebraska":"Nebraska","NE":"NE"},
"geometry":{ "type": "Point", "coordinates": [-96.709162,42.564953]}},
{ "type": "Feature", "properties": {"Abie village":"Poole CDP","Nebraska":"Nebraska","NE":"NE"},
"geometry":{ "type": "Point", "coordinates": [-98.960594,40.992269]}},
{ "type": "Feature", "properties": {"Abie village":"Potter village","Nebraska":"Nebraska","NE":"NE"},
"geometry":{ "type": "Point", "coordinates": [-103.307428,41.217308]}},
{ "type": "Feature", "properties": {"Abie village":"Prague village","Nebraska":"Nebraska","NE":"NE"},
"geometry":{ "type": "Point", "coordinates": [-96.808157,41.309512]}},
{ "type": "Feature", "properties": {"Abie village":"Prairie Home CDP","Nebraska":"Nebraska","NE":"NE"},
"geometry":{ "type": "Point", "coordinates": [-96.524538,40.862006]}},
{ "type": "Feature", "properties": {"Abie village":"Preston village","Nebraska":"Nebraska","NE":"NE"},
"geometry":{ "type": "Point", "coordinates": [-95.518106,40.034587]}},
{ "type": "Feature", "properties": {"Abie village":"Primrose village","Nebraska":"Nebraska","NE":"NE"},
"geometry":{ "type": "Point", "coordinates": [-98.237395,41.623798]}},
{ "type": "Feature", "properties": {"Abie village":"Princeton CDP","Nebraska":"Nebraska","NE":"NE"},
"geometry":{ "type": "Point", "coordinates": [-96.70595,40.576029]}},
{ "type": "Feature", "properties": {"Abie village":"Prosser village","Nebraska":"Nebraska","NE":"NE"},
"geometry":{ "type": "Point", "coordinates": [-98.577967,40.687385]}},
{ "type": "Feature", "properties": {"Abie village":"Raeville CDP","Nebraska":"Nebraska","NE":"NE"},
"geometry":{ "type": "Point", "coordinates": [-98.053616,41.895582]}},
{ "type": "Feature", "properties": {"Abie village":"Ragan village","Nebraska":"Nebraska","NE":"NE"},
"geometry":{ "type": "Point", "coordinates": [-99.289628,40.310771]}},
{ "type": "Feature", "properties": {"Abie village":"Ralston city","Nebraska":"Nebraska","NE":"NE"},
"geometry":{ "type": "Point", "coordinates": [-96.037825,41.20001]}},
{ "type": "Feature", "properties": {"Abie village":"Randolph city","Nebraska":"Nebraska","NE":"NE"},
"geometry":{ "type": "Point", "coordinates": [-97.357757,42.377909]}},
{ "type": "Feature", "properties": {"Abie village":"Ravenna city","Nebraska":"Nebraska","NE":"NE"},
"geometry":{ "type": "Point", "coordinates": [-98.907265,41.023598]}},
{ "type": "Feature", "properties": {"Abie village":"Raymond village","Nebraska":"Nebraska","NE":"NE"},
"geometry":{ "type": "Point", "coordinates": [-96.781452,40.956822]}},
{ "type": "Feature", "properties": {"Abie village":"Red Cloud city","Nebraska":"Nebraska","NE":"NE"},
"geometry":{ "type": "Point", "coordinates": [-98.522224,40.08642]}},
{ "type": "Feature", "properties": {"Abie village":"Republican City village","Nebraska":"Nebraska","NE":"NE"},
"geometry":{ "type": "Point", "coordinates": [-99.222254,40.098748]}},
{ "type": "Feature", "properties": {"Abie village":"Reynolds village","Nebraska":"Nebraska","NE":"NE"},
"geometry":{ "type": "Point", "coordinates": [-97.335947,40.059811]}},
{ "type": "Feature", "properties": {"Abie village":"Richfield CDP","Nebraska":"Nebraska","NE":"NE"},
"geometry":{ "type": "Point", "coordinates": [-96.076324,41.110763]}},
{ "type": "Feature", "properties": {"Abie village":"Richland village","Nebraska":"Nebraska","NE":"NE"},
"geometry":{ "type": "Point", "coordinates": [-97.214904,41.436862]}},
{ "type": "Feature", "properties": {"Abie village":"Rising City village","Nebraska":"Nebraska","NE":"NE"},
"geometry":{ "type": "Point", "coordinates": [-97.297122,41.198102]}},
{ "type": "Feature", "properties": {"Abie village":"Riverdale village","Nebraska":"Nebraska","NE":"NE"},
"geometry":{ "type": "Point", "coordinates": [-99.160459,40.783886]}},
{ "type": "Feature", "properties": {"Abie village":"Riverton village","Nebraska":"Nebraska","NE":"NE"},
"geometry":{ "type": "Point", "coordinates": [-98.759642,40.089715]}},
{ "type": "Feature", "properties": {"Abie village":"Roca village","Nebraska":"Nebraska","NE":"NE"},
"geometry":{ "type": "Point", "coordinates": [-96.661408,40.658465]}},
{ "type": "Feature", "properties": {"Abie village":"Rockville village","Nebraska":"Nebraska","NE":"NE"},
"geometry":{ "type": "Point", "coordinates": [-98.831076,41.118479]}},
{ "type": "Feature", "properties": {"Abie village":"Rogers village","Nebraska":"Nebraska","NE":"NE"},
"geometry":{ "type": "Point", "coordinates": [-96.915806,41.464272]}},
{ "type": "Feature", "properties": {"Abie village":"Rosalie village","Nebraska":"Nebraska","NE":"NE"},
"geometry":{ "type": "Point", "coordinates": [-96.512761,42.057348]}},
{ "type": "Feature", "properties": {"Abie village":"Roscoe CDP","Nebraska":"Nebraska","NE":"NE"},
"geometry":{ "type": "Point", "coordinates": [-101.585195,41.131613]}},
{ "type": "Feature", "properties": {"Abie village":"Roseland village","Nebraska":"Nebraska","NE":"NE"},
"geometry":{ "type": "Point", "coordinates": [-98.558704,40.469698]}},
{ "type": "Feature", "properties": {"Abie village":"Royal village","Nebraska":"Nebraska","NE":"NE"},
"geometry":{ "type": "Point", "coordinates": [-98.125047,42.332941]}},
{ "type": "Feature", "properties": {"Abie village":"Rulo village","Nebraska":"Nebraska","NE":"NE"},
"geometry":{ "type": "Point", "coordinates": [-95.430573,40.051659]}},
{ "type": "Feature", "properties": {"Abie village":"Rushville city","Nebraska":"Nebraska","NE":"NE"},
"geometry":{ "type": "Point", "coordinates": [-102.466563,42.71338]}},
{ "type": "Feature", "properties": {"Abie village":"Ruskin village","Nebraska":"Nebraska","NE":"NE"},
"geometry":{ "type": "Point", "coordinates": [-97.86704,40.144007]}},
{ "type": "Feature", "properties": {"Abie village":"St. Edward city","Nebraska":"Nebraska","NE":"NE"},
"geometry":{ "type": "Point", "coordinates": [-97.861197,41.571449]}},
{ "type": "Feature", "properties": {"Abie village":"St. Helena village","Nebraska":"Nebraska","NE":"NE"},
"geometry":{ "type": "Point", "coordinates": [-97.248885,42.810655]}},
{ "type": "Feature", "properties": {"Abie village":"St. Libory CDP","Nebraska":"Nebraska","NE":"NE"},
"geometry":{ "type": "Point", "coordinates": [-98.359077,41.08214]}},
{ "type": "Feature", "properties": {"Abie village":"St. Paul city","Nebraska":"Nebraska","NE":"NE"},
"geometry":{ "type": "Point", "coordinates": [-98.459477,41.213712]}},
{ "type": "Feature", "properties": {"Abie village":"Salem village","Nebraska":"Nebraska","NE":"NE"},
"geometry":{ "type": "Point", "coordinates": [-95.728522,40.076889]}},
{ "type": "Feature", "properties": {"Abie village":"Santee village","Nebraska":"Nebraska","NE":"NE"},
"geometry":{ "type": "Point", "coordinates": [-97.84945,42.838695]}},
{ "type": "Feature", "properties": {"Abie village":"Sarben CDP","Nebraska":"Nebraska","NE":"NE"},
"geometry":{ "type": "Point", "coordinates": [-101.304402,41.166277]}},
{ "type": "Feature", "properties": {"Abie village":"Sargent city","Nebraska":"Nebraska","NE":"NE"},
"geometry":{ "type": "Point", "coordinates": [-99.368723,41.639896]}},
{ "type": "Feature", "properties": {"Abie village":"Saronville village","Nebraska":"Nebraska","NE":"NE"},
"geometry":{ "type": "Point", "coordinates": [-97.938847,40.602841]}},
{ "type": "Feature", "properties": {"Abie village":"Schuyler city","Nebraska":"Nebraska","NE":"NE"},
"geometry":{ "type": "Point", "coordinates": [-97.061591,41.450134]}},
{ "type": "Feature", "properties": {"Abie village":"Scotia village","Nebraska":"Nebraska","NE":"NE"},
"geometry":{ "type": "Point", "coordinates": [-98.702415,41.467778]}},
{ "type": "Feature", "properties": {"Abie village":"Scottsbluff city","Nebraska":"Nebraska","NE":"NE"},
"geometry":{ "type": "Point", "coordinates": [-103.662035,41.868088]}},
{ "type": "Feature", "properties": {"Abie village":"Scribner city","Nebraska":"Nebraska","NE":"NE"},
"geometry":{ "type": "Point", "coordinates": [-96.665273,41.665244]}},
{ "type": "Feature", "properties": {"Abie village":"Seneca CDP","Nebraska":"Nebraska","NE":"NE"},
"geometry":{ "type": "Point", "coordinates": [-100.832055,42.043949]}},
{ "type": "Feature", "properties": {"Abie village":"Seward city","Nebraska":"Nebraska","NE":"NE"},
"geometry":{ "type": "Point", "coordinates": [-97.096092,40.910169]}},
{ "type": "Feature", "properties": {"Abie village":"Shelby village","Nebraska":"Nebraska","NE":"NE"},
"geometry":{ "type": "Point", "coordinates": [-97.426267,41.194247]}},
{ "type": "Feature", "properties": {"Abie village":"Shelton village","Nebraska":"Nebraska","NE":"NE"},
"geometry":{ "type": "Point", "coordinates": [-98.729387,40.778439]}},
{ "type": "Feature", "properties": {"Abie village":"Shickley village","Nebraska":"Nebraska","NE":"NE"},
"geometry":{ "type": "Point", "coordinates": [-97.724088,40.416519]}},
{ "type": "Feature", "properties": {"Abie village":"Sholes village","Nebraska":"Nebraska","NE":"NE"},
"geometry":{ "type": "Point", "coordinates": [-97.294619,42.334813]}},
{ "type": "Feature", "properties": {"Abie village":"Shubert village","Nebraska":"Nebraska","NE":"NE"},
"geometry":{ "type": "Point", "coordinates": [-95.683615,40.235914]}},
{ "type": "Feature", "properties": {"Abie village":"Sidney city","Nebraska":"Nebraska","NE":"NE"},
"geometry":{ "type": "Point", "coordinates": [-102.96954,41.133633]}},
{ "type": "Feature", "properties": {"Abie village":"Silver Creek village","Nebraska":"Nebraska","NE":"NE"},
"geometry":{ "type": "Point", "coordinates": [-97.667087,41.314413]}},
{ "type": "Feature", "properties": {"Abie village":"Smithfield village","Nebraska":"Nebraska","NE":"NE"},
"geometry":{ "type": "Point", "coordinates": [-99.740936,40.573302]}},
{ "type": "Feature", "properties": {"Abie village":"Snyder village","Nebraska":"Nebraska","NE":"NE"},
"geometry":{ "type": "Point", "coordinates": [-96.786835,41.704573]}},
{ "type": "Feature", "properties": {"Abie village":"South Bend village","Nebraska":"Nebraska","NE":"NE"},
"geometry":{ "type": "Point", "coordinates": [-96.248331,41.001959]}},
{ "type": "Feature", "properties": {"Abie village":"South Sioux City city","Nebraska":"Nebraska","NE":"NE"},
"geometry":{ "type": "Point", "coordinates": [-96.413248,42.463048]}},
{ "type": "Feature", "properties": {"Abie village":"Spalding village","Nebraska":"Nebraska","NE":"NE"},
"geometry":{ "type": "Point", "coordinates": [-98.362548,41.689281]}},
{ "type": "Feature", "properties": {"Abie village":"Spencer village","Nebraska":"Nebraska","NE":"NE"},
"geometry":{ "type": "Point", "coordinates": [-98.699878,42.875585]}},
{ "type": "Feature", "properties": {"Abie village":"Sprague village","Nebraska":"Nebraska","NE":"NE"},
"geometry":{ "type": "Point", "coordinates": [-96.744708,40.626563]}},
{ "type": "Feature", "properties": {"Abie village":"Springfield city","Nebraska":"Nebraska","NE":"NE"},
"geometry":{ "type": "Point", "coordinates": [-96.148539,41.107246]}},
{ "type": "Feature", "properties": {"Abie village":"Springview village","Nebraska":"Nebraska","NE":"NE"},
"geometry":{ "type": "Point", "coordinates": [-99.747541,42.824883]}},
{ "type": "Feature", "properties": {"Abie village":"Stamford village","Nebraska":"Nebraska","NE":"NE"},
"geometry":{ "type": "Point", "coordinates": [-99.594438,40.131243]}},
{ "type": "Feature", "properties": {"Abie village":"Stanton city","Nebraska":"Nebraska","NE":"NE"},
"geometry":{ "type": "Point", "coordinates": [-97.212275,41.948045]}},
{ "type": "Feature", "properties": {"Abie village":"Staplehurst village","Nebraska":"Nebraska","NE":"NE"},
"geometry":{ "type": "Point", "coordinates": [-97.173191,40.974663]}},
{ "type": "Feature", "properties": {"Abie village":"Stapleton village","Nebraska":"Nebraska","NE":"NE"},
"geometry":{ "type": "Point", "coordinates": [-100.51255,41.480198]}},
{ "type": "Feature", "properties": {"Abie village":"Steele City village","Nebraska":"Nebraska","NE":"NE"},
"geometry":{ "type": "Point", "coordinates": [-97.022994,40.036558]}},
{ "type": "Feature", "properties": {"Abie village":"Steinauer village","Nebraska":"Nebraska","NE":"NE"},
"geometry":{ "type": "Point", "coordinates": [-96.232901,40.207289]}},
{ "type": "Feature", "properties": {"Abie village":"Stella village","Nebraska":"Nebraska","NE":"NE"},
"geometry":{ "type": "Point", "coordinates": [-95.773414,40.232213]}},
{ "type": "Feature", "properties": {"Abie village":"Sterling village","Nebraska":"Nebraska","NE":"NE"},
"geometry":{ "type": "Point", "coordinates": [-96.377494,40.461216]}},
{ "type": "Feature", "properties": {"Abie village":"Stockham village","Nebraska":"Nebraska","NE":"NE"},
"geometry":{ "type": "Point", "coordinates": [-97.943365,40.71641]}},
{ "type": "Feature", "properties": {"Abie village":"Stockville village","Nebraska":"Nebraska","NE":"NE"},
"geometry":{ "type": "Point", "coordinates": [-100.384431,40.533628]}},
{ "type": "Feature", "properties": {"Abie village":"Strang village","Nebraska":"Nebraska","NE":"NE"},
"geometry":{ "type": "Point", "coordinates": [-97.587094,40.414858]}},
{ "type": "Feature", "properties": {"Abie village":"Stratton village","Nebraska":"Nebraska","NE":"NE"},
"geometry":{ "type": "Point", "coordinates": [-101.227937,40.15018]}},
{ "type": "Feature", "properties": {"Abie village":"Stromsburg city","Nebraska":"Nebraska","NE":"NE"},
"geometry":{ "type": "Point", "coordinates": [-97.590615,41.116416]}},
{ "type": "Feature", "properties": {"Abie village":"Stuart village","Nebraska":"Nebraska","NE":"NE"},
"geometry":{ "type": "Point", "coordinates": [-99.140459,42.600788]}},
{ "type": "Feature", "properties": {"Abie village":"Sumner village","Nebraska":"Nebraska","NE":"NE"},
"geometry":{ "type": "Point", "coordinates": [-99.508084,40.949024]}},
{ "type": "Feature", "properties": {"Abie village":"Sunol CDP","Nebraska":"Nebraska","NE":"NE"},
"geometry":{ "type": "Point", "coordinates": [-102.762746,41.154105]}},
{ "type": "Feature", "properties": {"Abie village":"Superior city","Nebraska":"Nebraska","NE":"NE"},
"geometry":{ "type": "Point", "coordinates": [-98.061739,40.021712]}},
{ "type": "Feature", "properties": {"Abie village":"Surprise village","Nebraska":"Nebraska","NE":"NE"},
"geometry":{ "type": "Point", "coordinates": [-97.309013,41.104445]}},
{ "type": "Feature", "properties": {"Abie village":"Sutherland village","Nebraska":"Nebraska","NE":"NE"},
"geometry":{ "type": "Point", "coordinates": [-101.122671,41.16013]}},
{ "type": "Feature", "properties": {"Abie village":"Sutton city","Nebraska":"Nebraska","NE":"NE"},
"geometry":{ "type": "Point", "coordinates": [-97.859129,40.60681]}},
{ "type": "Feature", "properties": {"Abie village":"Swanton village","Nebraska":"Nebraska","NE":"NE"},
"geometry":{ "type": "Point", "coordinates": [-97.079821,40.379603]}},
{ "type": "Feature", "properties": {"Abie village":"Syracuse city","Nebraska":"Nebraska","NE":"NE"},
"geometry":{ "type": "Point", "coordinates": [-96.182733,40.663504]}},
{ "type": "Feature", "properties": {"Abie village":"Table Rock village","Nebraska":"Nebraska","NE":"NE"},
"geometry":{ "type": "Point", "coordinates": [-96.088716,40.17828]}},
{ "type": "Feature", "properties": {"Abie village":"Talmage village","Nebraska":"Nebraska","NE":"NE"},
"geometry":{ "type": "Point", "coordinates": [-96.02385,40.531595]}},
{ "type": "Feature", "properties": {"Abie village":"Tamora CDP","Nebraska":"Nebraska","NE":"NE"},
"geometry":{ "type": "Point", "coordinates": [-97.22952,40.894442]}},
{ "type": "Feature", "properties": {"Abie village":"Tarnov village","Nebraska":"Nebraska","NE":"NE"},
"geometry":{ "type": "Point", "coordinates": [-97.502478,41.614799]}},
{ "type": "Feature", "properties": {"Abie village":"Taylor village","Nebraska":"Nebraska","NE":"NE"},
"geometry":{ "type": "Point", "coordinates": [-99.381384,41.769604]}},
{ "type": "Feature", "properties": {"Abie village":"Tecumseh city","Nebraska":"Nebraska","NE":"NE"},
"geometry":{ "type": "Point", "coordinates": [-96.188706,40.371816]}},
{ "type": "Feature", "properties": {"Abie village":"Tekamah city","Nebraska":"Nebraska","NE":"NE"},
"geometry":{ "type": "Point", "coordinates": [-96.224498,41.777803]}},
{ "type": "Feature", "properties": {"Abie village":"Terrytown city","Nebraska":"Nebraska","NE":"NE"},
"geometry":{ "type": "Point", "coordinates": [-103.670553,41.84713]}},
{ "type": "Feature", "properties": {"Abie village":"Thayer village","Nebraska":"Nebraska","NE":"NE"},
"geometry":{ "type": "Point", "coordinates": [-97.496759,40.970104]}},
{ "type": "Feature", "properties": {"Abie village":"Thedford village","Nebraska":"Nebraska","NE":"NE"},
"geometry":{ "type": "Point", "coordinates": [-100.574729,41.979172]}},
{ "type": "Feature", "properties": {"Abie village":"Thurston village","Nebraska":"Nebraska","NE":"NE"},
"geometry":{ "type": "Point", "coordinates": [-96.7016,42.174737]}},
{ "type": "Feature", "properties": {"Abie village":"Tilden city","Nebraska":"Nebraska","NE":"NE"},
"geometry":{ "type": "Point", "coordinates": [-97.831808,42.043494]}},
{ "type": "Feature", "properties": {"Abie village":"Tobias village","Nebraska":"Nebraska","NE":"NE"},
"geometry":{ "type": "Point", "coordinates": [-97.336621,40.418502]}},
{ "type": "Feature", "properties": {"Abie village":"Trenton village","Nebraska":"Nebraska","NE":"NE"},
"geometry":{ "type": "Point", "coordinates": [-101.013573,40.174733]}},
{ "type": "Feature", "properties": {"Abie village":"Trumbull village","Nebraska":"Nebraska","NE":"NE"},
"geometry":{ "type": "Point", "coordinates": [-98.273454,40.68004]}},
{ "type": "Feature", "properties": {"Abie village":"Tryon CDP","Nebraska":"Nebraska","NE":"NE"},
"geometry":{ "type": "Point", "coordinates": [-100.953594,41.558444]}},
{ "type": "Feature", "properties": {"Abie village":"Uehling village","Nebraska":"Nebraska","NE":"NE"},
"geometry":{ "type": "Point", "coordinates": [-96.505644,41.734704]}},
{ "type": "Feature", "properties": {"Abie village":"Ulysses village","Nebraska":"Nebraska","NE":"NE"},
"geometry":{ "type": "Point", "coordinates": [-97.203115,41.07208]}},
{ "type": "Feature", "properties": {"Abie village":"Unadilla village","Nebraska":"Nebraska","NE":"NE"},
"geometry":{ "type": "Point", "coordinates": [-96.269895,40.683]}},
{ "type": "Feature", "properties": {"Abie village":"Union village","Nebraska":"Nebraska","NE":"NE"},
"geometry":{ "type": "Point", "coordinates": [-95.921457,40.814362]}},
{ "type": "Feature", "properties": {"Abie village":"Upland village","Nebraska":"Nebraska","NE":"NE"},
"geometry":{ "type": "Point", "coordinates": [-98.902563,40.319558]}},
{ "type": "Feature", "properties": {"Abie village":"Utica village","Nebraska":"Nebraska","NE":"NE"},
"geometry":{ "type": "Point", "coordinates": [-97.345349,40.895279]}},
{ "type": "Feature", "properties": {"Abie village":"Valentine city","Nebraska":"Nebraska","NE":"NE"},
"geometry":{ "type": "Point", "coordinates": [-100.547067,42.875511]}},
{ "type": "Feature", "properties": {"Abie village":"Valley city","Nebraska":"Nebraska","NE":"NE"},
"geometry":{ "type": "Point", "coordinates": [-96.361576,41.317088]}},
{ "type": "Feature", "properties": {"Abie village":"Valparaiso village","Nebraska":"Nebraska","NE":"NE"},
"geometry":{ "type": "Point", "coordinates": [-96.833595,41.08006]}},
{ "type": "Feature", "properties": {"Abie village":"Venango village","Nebraska":"Nebraska","NE":"NE"},
"geometry":{ "type": "Point", "coordinates": [-102.044184,40.763664]}},
{ "type": "Feature", "properties": {"Abie village":"Venice CDP","Nebraska":"Nebraska","NE":"NE"},
"geometry":{ "type": "Point", "coordinates": [-96.351907,41.239266]}},
{ "type": "Feature", "properties": {"Abie village":"Verdel village","Nebraska":"Nebraska","NE":"NE"},
"geometry":{ "type": "Point", "coordinates": [-98.193296,42.811399]}},
{ "type": "Feature", "properties": {"Abie village":"Verdigre village","Nebraska":"Nebraska","NE":"NE"},
"geometry":{ "type": "Point", "coordinates": [-98.035599,42.597246]}},
{ "type": "Feature", "properties": {"Abie village":"Verdon village","Nebraska":"Nebraska","NE":"NE"},
"geometry":{ "type": "Point", "coordinates": [-95.711196,40.149086]}},
{ "type": "Feature", "properties": {"Abie village":"Virginia village","Nebraska":"Nebraska","NE":"NE"},
"geometry":{ "type": "Point", "coordinates": [-96.498824,40.245859]}},
{ "type": "Feature", "properties": {"Abie village":"Waco village","Nebraska":"Nebraska","NE":"NE"},
"geometry":{ "type": "Point", "coordinates": [-97.461837,40.897038]}},
{ "type": "Feature", "properties": {"Abie village":"Wahoo city","Nebraska":"Nebraska","NE":"NE"},
"geometry":{ "type": "Point", "coordinates": [-96.617844,41.21712]}},
{ "type": "Feature", "properties": {"Abie village":"Wakefield city","Nebraska":"Nebraska","NE":"NE"},
"geometry":{ "type": "Point", "coordinates": [-96.862925,42.266651]}},
{ "type": "Feature", "properties": {"Abie village":"Wallace village","Nebraska":"Nebraska","NE":"NE"},
"geometry":{ "type": "Point", "coordinates": [-101.164482,40.837579]}},
{ "type": "Feature", "properties": {"Abie village":"Walthill village","Nebraska":"Nebraska","NE":"NE"},
"geometry":{ "type": "Point", "coordinates": [-96.49287,42.148853]}},
{ "type": "Feature", "properties": {"Abie village":"Walton CDP","Nebraska":"Nebraska","NE":"NE"},
"geometry":{ "type": "Point", "coordinates": [-96.565292,40.796224]}},
{ "type": "Feature", "properties": {"Abie village":"Wann CDP","Nebraska":"Nebraska","NE":"NE"},
"geometry":{ "type": "Point", "coordinates": [-96.364161,41.141891]}},
{ "type": "Feature", "properties": {"Abie village":"Washington village","Nebraska":"Nebraska","NE":"NE"},
"geometry":{ "type": "Point", "coordinates": [-96.207454,41.397626]}},
{ "type": "Feature", "properties": {"Abie village":"Waterbury village","Nebraska":"Nebraska","NE":"NE"},
"geometry":{ "type": "Point", "coordinates": [-96.735582,42.45724]}},
{ "type": "Feature", "properties": {"Abie village":"Waterloo village","Nebraska":"Nebraska","NE":"NE"},
"geometry":{ "type": "Point", "coordinates": [-96.287979,41.286824]}},
{ "type": "Feature", "properties": {"Abie village":"Wauneta village","Nebraska":"Nebraska","NE":"NE"},
"geometry":{ "type": "Point", "coordinates": [-101.376611,40.416386]}},
{ "type": "Feature", "properties": {"Abie village":"Wausa village","Nebraska":"Nebraska","NE":"NE"},
"geometry":{ "type": "Point", "coordinates": [-97.539305,42.497827]}},
{ "type": "Feature", "properties": {"Abie village":"Waverly city","Nebraska":"Nebraska","NE":"NE"},
"geometry":{ "type": "Point", "coordinates": [-96.533911,40.911501]}},
{ "type": "Feature", "properties": {"Abie village":"Wayne city","Nebraska":"Nebraska","NE":"NE"},
"geometry":{ "type": "Point", "coordinates": [-97.01092,42.238349]}},
{ "type": "Feature", "properties": {"Abie village":"Weeping Water city","Nebraska":"Nebraska","NE":"NE"},
"geometry":{ "type": "Point", "coordinates": [-96.140302,40.869184]}},
{ "type": "Feature", "properties": {"Abie village":"Wellfleet village","Nebraska":"Nebraska","NE":"NE"},
"geometry":{ "type": "Point", "coordinates": [-100.731818,40.753912]}},
{ "type": "Feature", "properties": {"Abie village":"Western village","Nebraska":"Nebraska","NE":"NE"},
"geometry":{ "type": "Point", "coordinates": [-97.198396,40.393079]}},
{ "type": "Feature", "properties": {"Abie village":"Westerville CDP","Nebraska":"Nebraska","NE":"NE"},
"geometry":{ "type": "Point", "coordinates": [-99.381796,41.396196]}},
{ "type": "Feature", "properties": {"Abie village":"Weston village","Nebraska":"Nebraska","NE":"NE"},
"geometry":{ "type": "Point", "coordinates": [-96.741985,41.19314]}},
{ "type": "Feature", "properties": {"Abie village":"West Point city","Nebraska":"Nebraska","NE":"NE"},
"geometry":{ "type": "Point", "coordinates": [-96.705918,41.837741]}},
{ "type": "Feature", "properties": {"Abie village":"White Clay CDP","Nebraska":"Nebraska","NE":"NE"},
"geometry":{ "type": "Point", "coordinates": [-102.555017,42.997019]}},
{ "type": "Feature", "properties": {"Abie village":"Whitney village","Nebraska":"Nebraska","NE":"NE"},
"geometry":{ "type": "Point", "coordinates": [-103.256697,42.783759]}},
{ "type": "Feature", "properties": {"Abie village":"Wilber city","Nebraska":"Nebraska","NE":"NE"},
"geometry":{ "type": "Point", "coordinates": [-96.964863,40.480914]}},
{ "type": "Feature", "properties": {"Abie village":"Wilcox village","Nebraska":"Nebraska","NE":"NE"},
"geometry":{ "type": "Point", "coordinates": [-99.169257,40.3644]}},
{ "type": "Feature", "properties": {"Abie village":"Willow Island CDP","Nebraska":"Nebraska","NE":"NE"},
"geometry":{ "type": "Point", "coordinates": [-100.070711,40.890044]}},
{ "type": "Feature", "properties": {"Abie village":"Wilsonville village","Nebraska":"Nebraska","NE":"NE"},
"geometry":{ "type": "Point", "coordinates": [-100.106678,40.1119]}},
{ "type": "Feature", "properties": {"Abie village":"Winnebago village","Nebraska":"Nebraska","NE":"NE"},
"geometry":{ "type": "Point", "coordinates": [-96.471521,42.23838]}},
{ "type": "Feature", "properties": {"Abie village":"Winnetoon village","Nebraska":"Nebraska","NE":"NE"},
"geometry":{ "type": "Point", "coordinates": [-97.960134,42.513528]}},
{ "type": "Feature", "properties": {"Abie village":"Winside village","Nebraska":"Nebraska","NE":"NE"},
"geometry":{ "type": "Point", "coordinates": [-97.175392,42.177444]}},