{"type":"FeatureCollection","features":[
{ "type": "Feature", "properties": {"Name":"Abie village","State":"Nebraska","State_Abbrev":"NE"},
"geometry":{ "type": "Point", "coordinates": [-96.949747,41.334104]}},
{ "type": "Feature", "properties": {"Name":"Adams village","State":"Nebraska","State_Abbrev":"NE"},
"geometry":{ "type": "Point", "coordinates": [-96.507363,40.459011]}},
{ "type": "Feature", "properties": {"Name":"Agnew CDP","State":"Nebraska","State_Abbrev":"NE"},
"geometry":{ "type": "Point", "coordinates": [-96.81427,41.014234]}},
{ "type": "Feature", "properties": {"Name":"Ainsworth city","State":"Nebraska","State_Abbrev":"NE"},
"geometry":{ "type": "Point", "coordinates": [-99.857522,42.548439]}},
{ "type": "Feature", "properties": {"Name":"Albion city","State":"Nebraska","State_Abbrev":"NE"},
"geometry":{ "type": "Point", "coordinates": [-97.998748,41.687245]}},
{ "type": "Feature", "properties": {"Name":"Alda village","State":"Nebraska","State_Abbrev":"NE"},
"geometry":{ "type": "Point", "coordinates": [-98.467992,40.86655]}},
{ "type": "Feature", "properties": {"Name":"Alexandria village","State":"Nebraska","State_Abbrev":"NE"},
"geometry":{ "type": "Point", "coordinates": [-97.387837,40.247547]}},
{ "type": "Feature", "properties": {"Name":"Allen village","State":"Nebraska","State_Abbrev":"NE"},
"geometry":{ "type": "Point", "coordinates": [-96.843209,42.414434]}},
{ "type": "Feature", "properties": {"Name":"Alliance city","State":"Nebraska","State_Abbrev":"NE"},
"geometry":{ "type": "Point", "coordinates": [-102.876188,42.102567]}},
{ "type": "Feature", "properties": {"Name":"Alma city","State":"Nebraska","State_Abbrev":"NE"},
"geometry":{ "type": "Point", "coordinates": [-99.365693,40.103565]}},
{ "type": "Feature", "properties": {"Name":"Alvo village","State":"Nebraska","State_Abbrev":"NE"},
"geometry":{ "type": "Point", "coordinates": [-96.386524,40.872264]}},
{ "type": "Feature", "properties": {"Name":"Ames CDP","State":"Nebraska","State_Abbrev":"NE"},
"geometry":{ "type": "Point", "coordinates": [-96.626339,41.448457]}},
{ "type": "Feature", "properties": {"Name":"Amherst village","State":"Nebraska","State_Abbrev":"NE"},
"geometry":{ "type": "Point", "coordinates": [-99.269509,40.838372]}},
{ "type": "Feature", "properties": {"Name":"Anoka village","State":"Nebraska","State_Abbrev":"NE"},
"geometry":{ "type": "Point", "coordinates": [-98.828529,42.946]}},
{ "type": "Feature", "properties": {"Name":"Anselmo village","State":"Nebraska","State_Abbrev":"NE"},
"geometry":{ "type": "Point", "coordinates": [-99.864577,41.618581]}},
{ "type": "Feature", "properties": {"Name":"Ansley village","State":"Nebraska","State_Abbrev":"NE"},
"geometry":{ "type": "Point", "coordinates": [-99.382547,41.286338]}},
{ "type": "Feature", "properties": {"Name":"Arapahoe city","State":"Nebraska","State_Abbrev":"NE"},
"geometry":{ "type": "Point", "coordinates": [-99.897977,40.305124]}},
{ "type": "Feature", "properties": {"Name":"Arcadia village","State":"Nebraska","State_Abbrev":"NE"},
"geometry":{ "type": "Point", "coordinates": [-99.126062,41.424823]}},
{ "type": "Feature", "properties": {"Name":"Archer CDP","State":"Nebraska","State_Abbrev":"NE"},
"geometry":{ "type": "Point", "coordinates": [-98.138864,41.166629]}},
{ "type": "Feature", "properties": {"Name":"Arlington village","State":"Nebraska","State_Abbrev":"NE"},
"geometry":{ "type": "Point", "coordinates": [-96.356527,41.454855]}},
{ "type": "Feature", "properties": {"Name":"Arnold village","State":"Nebraska","State_Abbrev":"NE"},
"geometry":{ "type": "Point", "coordinates": [-100.193561,41.423244]}},
{ "type": "Feature", "properties": {"Name":"Arthur village","State":"Nebraska","State_Abbrev":"NE"},
"geometry":{ "type": "Point", "coordinates": [-101.692263,41.571866]}},
{ "type": "Feature", "properties": {"Name":"Ashland city","State":"Nebraska","State_Abbrev":"NE"},
"geometry":{ "type": "Point", "coordinates": [-96.37254,41.039852]}},
{ "type": "Feature", "properties": {"Name":"Ashton village","State":"Nebraska","State_Abbrev":"NE"},
"geometry":{ "type": "Point", "coordinates": [-98.795147,41.247748]}},
{ "type": "Feature", "properties": {"Name":"Aten CDP","State":"Nebraska","State_Abbrev":"NE"},
"geometry":{ "type": "Point", "coordinates": [-97.44081,42.836736]}},
{ "type": "Feature", "properties": {"Name":"Atkinson city","State":"Nebraska","State_Abbrev":"NE"},
"geometry":{ "type": "Point", "coordinates": [-98.974728,42.530868]}},
{ "type": "Feature", "properties": {"Name":"Atlanta village","State":"Nebraska","State_Abbrev":"NE"},
"geometry":{ "type": "Point", "coordinates": [-99.473223,40.368409]}},
{ "type": "Feature", "properties": {"Name":"Auburn city","State":"Nebraska","State_Abbrev":"NE"},
"geometry":{ "type": "Point", "coordinates": [-95.843566,40.389377]}},
{ "type": "Feature", "properties": {"Name":"Aurora city","State":"Nebraska","State_Abbrev":"NE"},
"geometry":{ "type": "Point", "coordinates": [-98.008069,40.864656]}},
{ "type": "Feature", "properties": {"Name":"Avoca village","State":"Nebraska","State_Abbrev":"NE"},
"geometry":{ "type": "Point", "coordinates": [-96.119161,40.796505]}},
{ "type": "Feature", "properties": {"Name":"Axtell village","State":"Nebraska","State_Abbrev":"NE"},
"geometry":{ "type": "Point", "coordinates": [-99.129248,40.479845]}},
{ "type": "Feature", "properties": {"Name":"Ayr village","State":"Nebraska","State_Abbrev":"NE"},
"geometry":{ "type": "Point", "coordinates": [-98.440943,40.437809]}},
{ "type": "Feature", "properties": {"Name":"Bancroft village","State":"Nebraska","State_Abbrev":"NE"},
"geometry":{ "type": "Point", "coordinates": [-96.573265,42.010522]}},
{ "type": "Feature", "properties": {"Name":"Barada village","State":"Nebraska","State_Abbrev":"NE"},
"geometry":{ "type": "Point", "coordinates": [-95.5778,40.21846]}},
{ "type": "Feature", "properties": {"Name":"Barneston village","State":"Nebraska","State_Abbrev":"NE"},
"geometry":{ "type": "Point", "coordinates": [-96.573597,40.048951]}},
{ "type": "Feature", "properties": {"Name":"Bartlett village","State":"Nebraska","State_Abbrev":"NE"},
"geometry":{ "type": "Point", "coordinates": [-98.552565,41.883933]}},
{ "type": "Feature", "properties": {"Name":"Bartley village","State":"Nebraska","State_Abbrev":"NE"},
"geometry":{ "type": "Point", "coordinates": [-100.310428,40.251122]}},
{ "type": "Feature", "properties": {"Name":"Bassett city","State":"Nebraska","State_Abbrev":"NE"},
"geometry":{ "type": "Point", "coordinates": [-99.536625,42.582541]}},
{ "type": "Feature", "properties": {"Name":"Battle Creek city","State":"Nebraska","State_Abbrev":"NE"},
"geometry":{ "type": "Point", "coordinates": [-97.599465,41.998119]}},
{ "type": "Feature", "properties": {"Name":"Bayard city","State":"Nebraska","State_Abbrev":"NE"},
"geometry":{ "type": "Point", "coordinates": [-103.323015,41.757193]}},
{ "type": "Feature", "properties": {"Name":"Bazile Mills village","State":"Nebraska","State_Abbrev":"NE"},
"geometry":{ "type": "Point", "coordinates": [-97.908329,42.512436]}},
{ "type": "Feature", "properties": {"Name":"Beacon View CDP","State":"Nebraska","State_Abbrev":"NE"},
"geometry":{ "type": "Point", "coordinates": [-96.326474,41.071193]}},
{ "type": "Feature", "properties": {"Name":"Beatrice city","State":"Nebraska","State_Abbrev":"NE"},
"geometry":{ "type": "Point", "coordinates": [-96.745954,40.273281]}},
{ "type": "Feature", "properties": {"Name":"Beaver City city","State":"Nebraska","State_Abbrev":"NE"},
"geometry":{ "type": "Point", "coordinates": [-99.827615,40.138332]}},
{ "type": "Feature", "properties": {"Name":"Beaver Crossing village","State":"Nebraska","State_Abbrev":"NE"},
"geometry":{ "type": "Point", "coordinates": [-97.282465,40.777916]}},
{ "type": "Feature", "properties": {"Name":"Bee village","State":"Nebraska","State_Abbrev":"NE"},
"geometry":{ "type": "Point", "coordinates": [-97.058268,41.00641]}},
{ "type": "Feature", "properties": {"Name":"Beemer village","State":"Nebraska","State_Abbrev":"NE"},
"geometry":{ "type": "Point", "coordinates": [-96.809167,41.9299]}},
{ "type": "Feature", "properties": {"Name":"Belden village","State":"Nebraska","State_Abbrev":"NE"},
"geometry":{ "type": "Point", "coordinates": [-97.207407,42.41172]}},
{ "type": "Feature", "properties": {"Name":"Belgrade village","State":"Nebraska","State_Abbrev":"NE"},
"geometry":{ "type": "Point", "coordinates": [-98.067784,41.470955]}},
{ "type": "Feature", "properties": {"Name":"Bellevue city","State":"Nebraska","State_Abbrev":"NE"},
"geometry":{ "type": "Point", "coordinates": [-95.943363,41.154416]}},
{ "type": "Feature", "properties": {"Name":"Bellwood village","State":"Nebraska","State_Abbrev":"NE"},
"geometry":{ "type": "Point", "coordinates": [-97.239858,41.34191]}},
{ "type": "Feature", "properties": {"Name":"Belmar CDP","State":"Nebraska","State_Abbrev":"NE"},
"geometry":{ "type": "Point", "coordinates": [-101.934626,41.305457]}},
{ "type": "Feature", "properties": {"Name":"Belvidere village","State":"Nebraska","State_Abbrev":"NE"},
"geometry":{ "type": "Point", "coordinates": [-97.557415,40.254696]}},
{ "type": "Feature", "properties": {"Name":"Benedict village","State":"Nebraska","State_Abbrev":"NE"},
"geometry":{ "type": "Point", "coordinates": [-97.607136,41.006259]}},
{ "type": "Feature", "properties": {"Name":"Benkelman city","State":"Nebraska","State_Abbrev":"NE"},
"geometry":{ "type": "Point", "coordinates": [-101.540193,40.046826]}},
{ "type": "Feature", "properties": {"Name":"Bennet village","State":"Nebraska","State_Abbrev":"NE"},
"geometry":{ "type": "Point", "coordinates": [-96.503952,40.681753]}},
{ "type": "Feature", "properties": {"Name":"Bennington city","State":"Nebraska","State_Abbrev":"NE"},
"geometry":{ "type": "Point", "coordinates": [-96.161684,41.367632]}},
{ "type": "Feature", "properties": {"Name":"Berea CDP","State":"Nebraska","State_Abbrev":"NE"},
"geometry":{ "type": "Point", "coordinates": [-102.982984,42.212279]}},
{ "type": "Feature", "properties": {"Name":"Bertrand village","State":"Nebraska","State_Abbrev":"NE"},
"geometry":{ "type": "Point", "coordinates": [-99.632385,40.526299]}},
{ "type": "Feature", "properties": {"Name":"Berwyn village","State":"Nebraska","State_Abbrev":"NE"},
"geometry":{ "type": "Point", "coordinates": [-99.500611,41.350852]}},
{ "type": "Feature", "properties": {"Name":"Big Springs village","State":"Nebraska","State_Abbrev":"NE"},
"geometry":{ "type": "Point", "coordinates": [-102.074466,41.060902]}},
{ "type": "Feature", "properties": {"Name":"Bladen village","State":"Nebraska","State_Abbrev":"NE"},
"geometry":{ "type": "Point", "coordinates": [-98.59588,40.323444]}},
{ "type": "Feature", "properties": {"Name":"Blair city","State":"Nebraska","State_Abbrev":"NE"},
"geometry":{ "type": "Point", "coordinates": [-96.135287,41.541555]}},
{ "type": "Feature", "properties": {"Name":"Bloomfield city","State":"Nebraska","State_Abbrev":"NE"},
"geometry":{ "type": "Point", "coordinates": [-97.648138,42.598412]}},
{ "type": "Feature", "properties": {"Name":"Bloomington village","State":"Nebraska","State_Abbrev":"NE"},
"geometry":{ "type": "Point", "coordinates": [-99.038389,40.093791]}},
{ "type": "Feature", "properties": {"Name":"Blue Hill city","State":"Nebraska","State_Abbrev":"NE"},
"geometry":{ "type": "Point", "coordinates": [-98.448377,40.332917]}},
{ "type": "Feature", "properties": {"Name":"Blue Springs city","State":"Nebraska","State_Abbrev":"NE"},
"geometry":{ "type": "Point", "coordinates": [-96.662835,40.137192]}},
{ "type": "Feature", "properties": {"Name":"Bow Valley CDP","State":"Nebraska","State_Abbrev":"NE"},
"geometry":{ "type": "Point", "coordinates": [-97.252206,42.715424]}},
{ "type": "Feature", "properties": {"Name":"Boys Town village","State":"Nebraska","State_Abbrev":"NE"},
"geometry":{ "type": "Point", "coordinates": [-96.128438,41.255981]}},
{ "type": "Feature", "properties": {"Name":"Bradshaw village","State":"Nebraska","State_Abbrev":"NE"},
"geometry":{ "type": "Point", "coordinates": [-97.746818,40.883475]}},
{ "type": "Feature", "properties": {"Name":"Brady village","State":"Nebraska","State_Abbrev":"NE"},
"geometry":{ "type": "Point", "coordinates": [-100.367563,41.02229]}},
{ "type": "Feature", "properties": {"Name":"Brainard village","State":"Nebraska","State_Abbrev":"NE"},
"geometry":{ "type": "Point", "coordinates": [-97.002257,41.181699]}},
{ "type": "Feature", "properties": {"Name":"Brewster village","State":"Nebraska","State_Abbrev":"NE"},
"geometry":{ "type": "Point", "coordinates": [-99.864985,41.938271]}},
{ "type": "Feature", "properties": {"Name":"Bridgeport city","State":"Nebraska","State_Abbrev":"NE"},
"geometry":{ "type": "Point", "coordinates": [-103.097142,41.664707]}},
{ "type": "Feature", "properties": {"Name":"Bristow village","State":"Nebraska","State_Abbrev":"NE"},
"geometry":{ "type": "Point", "coordinates": [-98.583307,42.840777]}},
{ "type": "Feature", "properties": {"Name":"Broadwater village","State":"Nebraska","State_Abbrev":"NE"},
"geometry":{ "type": "Point", "coordinates": [-102.852454,41.597982]}},
{ "type": "Feature", "properties": {"Name":"Brock village","State":"Nebraska","State_Abbrev":"NE"},
"geometry":{ "type": "Point", "coordinates": [-95.960053,40.480475]}},
{ "type": "Feature", "properties": {"Name":"Broken Bow city","State":"Nebraska","State_Abbrev":"NE"},
"geometry":{ "type": "Point", "coordinates": [-99.640869,41.40508]}},
{ "type": "Feature", "properties": {"Name":"Brownlee CDP","State":"Nebraska","State_Abbrev":"NE"},
"geometry":{ "type": "Point", "coordinates": [-100.624178,42.289207]}},
{ "type": "Feature", "properties": {"Name":"Brownville village","State":"Nebraska","State_Abbrev":"NE"},
"geometry":{ "type": "Point", "coordinates": [-95.661086,40.397617]}},
{ "type": "Feature", "properties": {"Name":"Brule village","State":"Nebraska","State_Abbrev":"NE"},
"geometry":{ "type": "Point", "coordinates": [-101.888506,41.094699]}},
{ "type": "Feature", "properties": {"Name":"Bruning village","State":"Nebraska","State_Abbrev":"NE"},
"geometry":{ "type": "Point", "coordinates": [-97.564877,40.335734]}},
{ "type": "Feature", "properties": {"Name":"Bruno village","State":"Nebraska","State_Abbrev":"NE"},
"geometry":{ "type": "Point", "coordinates": [-96.960927,41.28304]}},
{ "type": "Feature", "properties": {"Name":"Brunswick village","State":"Nebraska","State_Abbrev":"NE"},
"geometry":{ "type": "Point", "coordinates": [-97.971756,42.337704]}},
{ "type": "Feature", "properties": {"Name":"Burchard village","State":"Nebraska","State_Abbrev":"NE"},
"geometry":{ "type": "Point", "coordinates": [-96.348837,40.149315]}},
{ "type": "Feature", "properties": {"Name":"Burr village","State":"Nebraska","State_Abbrev":"NE"},
"geometry":{ "type": "Point", "coordinates": [-96.299775,40.535947]}},
{ "type": "Feature", "properties": {"Name":"Burton village","State":"Nebraska","State_Abbrev":"NE"},
"geometry":{ "type": "Point", "coordinates": [-99.591852,42.911927]}},
{ "type": "Feature", "properties": {"Name":"Burwell city","State":"Nebraska","State_Abbrev":"NE"},
"geometry":{ "type": "Point", "coordinates": [-99.134214,41.780044]}},
{ "type": "Feature", "properties": {"Name":"Bushnell village","State":"Nebraska","State_Abbrev":"NE"},
"geometry":{ "type": "Point", "coordinates": [-103.891125,41.232729]}},
{ "type": "Feature", "properties": {"Name":"Butte village","State":"Nebraska","State_Abbrev":"NE"},
"geometry":{ "type": "Point", "coordinates": [-98.847362,42.91298]}},
{ "type": "Feature", "properties": {"Name":"Byron village","State":"Nebraska","State_Abbrev":"NE"},
"geometry":{ "type": "Point", "coordinates": [-97.768771,40.004717]}},
{ "type": "Feature", "properties": {"Name":"Cairo village","State":"Nebraska","State_Abbrev":"NE"},
"geometry":{ "type": "Point", "coordinates": [-98.600677,41.004672]}},
{ "type": "Feature", "properties": {"Name":"Callaway village","State":"Nebraska","State_Abbrev":"NE"},
"geometry":{ "type": "Point", "coordinates": [-99.920312,41.291446]}},
{ "type": "Feature", "properties": {"Name":"Cambridge city","State":"Nebraska","State_Abbrev":"NE"},
"geometry":{ "type": "Point", "coordinates": [-100.165389,40.284279]}},
{ "type": "Feature", "properties": {"Name":"Campbell village","State":"Nebraska","State_Abbrev":"NE"},
"geometry":{ "type": "Point", "coordinates": [-98.731522,40.296339]}},
{ "type": "Feature", "properties": {"Name":"Carleton village","State":"Nebraska","State_Abbrev":"NE"},
"geometry":{ "type": "Point", "coordinates": [-97.68364,40.30328]}},
{ "type": "Feature", "properties": {"Name":"Carroll village","State":"Nebraska","State_Abbrev":"NE"},
"geometry":{ "type": "Point", "coordinates": [-97.190902,42.275777]}},
{ "type": "Feature", "properties": {"Name":"Cedar Bluffs village","State":"Nebraska","State_Abbrev":"NE"},
"geometry":{ "type": "Point", "coordinates": [-96.609756,41.397119]}},
{ "type": "Feature", "properties": {"Name":"Cedar Creek village","State":"Nebraska","State_Abbrev":"NE"},
"geometry":{ "type": "Point", "coordinates": [-96.101748,41.045564]}},
{ "type": "Feature", "properties": {"Name":"Cedar Rapids village","State":"Nebraska","State_Abbrev":"NE"},
"geometry":{ "type": "Point", "coordinates": [-98.1493,41.558908]}},
{ "type": "Feature", "properties": {"Name":"Center village","State":"Nebraska","State_Abbrev":"NE"},
"geometry":{ "type": "Point", "coordinates": [-97.876225,42.608974]}},
{ "type": "Feature", "properties": {"Name":"Central City city","State":"Nebraska","State_Abbrev":"NE"},
"geometry":{ "type": "Point", "coordinates": [-98.000323,41.113116]}},
{ "type": "Feature", "properties": {"Name":"Ceresco village","State":"Nebraska","State_Abbrev":"NE"},
"geometry":{ "type": "Point", "coordinates": [-96.645739,41.057704]}},
{ "type": "Feature", "properties": {"Name":"Chadron city","State":"Nebraska","State_Abbrev":"NE"},
"geometry":{ "type": "Point", "coordinates": [-103.002478,42.825976]}},
{ "type": "Feature", "properties": {"Name":"Chalco CDP","State":"Nebraska","State_Abbrev":"NE"},
"geometry":{ "type": "Point", "coordinates": [-96.135367,41.181645]}},
{ "type": "Feature", "properties": {"Name":"Chambers village","State":"Nebraska","State_Abbrev":"NE"},
"geometry":{ "type": "Point", "coordinates": [-98.748606,42.204733]}},
{ "type": "Feature", "properties": {"Name":"Champion CDP","State":"Nebraska","State_Abbrev":"NE"},
"geometry":{ "type": "Point", "coordinates": [-101.744895,40.470854]}},
{ "type": "Feature", "properties": {"Name":"Chapman village","State":"Nebraska","State_Abbrev":"NE"},
"geometry":{ "type": "Point", "coordinates": [-98.159385,41.023278]}},
{ "type": "Feature", "properties": {"Name":"Chappell city","State":"Nebraska","State_Abbrev":"NE"},
"geometry":{ "type": "Point", "coordinates": [-102.469938,41.0913]}},
{ "type": "Feature", "properties": {"Name":"Cheney CDP","State":"Nebraska","State_Abbrev":"NE"},
"geometry":{ "type": "Point", "coordinates": [-96.593604,40.726041]}},
{ "type": "Feature", "properties": {"Name":"Chester village","State":"Nebraska","State_Abbrev":"NE"},
"geometry":{ "type": "Point", "coordinates": [-97.618092,40.010215]}},
{ "type": "Feature", "properties": {"Name":"Clarks village","State":"Nebraska","State_Abbrev":"NE"},
"geometry":{ "type": "Point", "coordinates": [-97.839488,41.216269]}},
{ "type": "Feature", "properties": {"Name":"Clarkson city","State":"Nebraska","State_Abbrev":"NE"},
"geometry":{ "type": "Point", "coordinates": [-97.12152,41.723424]}},
{ "type": "Feature", "properties": {"Name":"Clatonia village","State":"Nebraska","State_Abbrev":"NE"},
"geometry":{ "type": "Point", "coordinates": [-96.851208,40.465369]}},
{ "type": "Feature", "properties": {"Name":"Clay Center city","State":"Nebraska","State_Abbrev":"NE"},
"geometry":{ "type": "Point", "coordinates": [-98.054996,40.525471]}},
{ "type": "Feature", "properties": {"Name":"Clearwater village","State":"Nebraska","State_Abbrev":"NE"},
"geometry":{ "type": "Point", "coordinates": [-98.189531,42.170819]}},
{ "type": "Feature", "properties": {"Name":"Clinton village","State":"Nebraska","State_Abbrev":"NE"},
"geometry":{ "type": "Point", "coordinates": [-102.347883,42.75972]}},
{ "type": "Feature", "properties": {"Name":"Cody village","State":"Nebraska","State_Abbrev":"NE"},
"geometry":{ "type": "Point", "coordinates": [-101.248928,42.937746]}},
{ "type": "Feature", "properties": {"Name":"Coleridge village","State":"Nebraska","State_Abbrev":"NE"},
"geometry":{ "type": "Point", "coordinates": [-97.202825,42.506458]}},
{ "type": "Feature", "properties": {"Name":"Colon village","State":"Nebraska","State_Abbrev":"NE"},
"geometry":{ "type": "Point", "coordinates": [-96.607335,41.298119]}},
{ "type": "Feature", "properties": {"Name":"Columbus city","State":"Nebraska","State_Abbrev":"NE"},
"geometry":{ "type": "Point", "coordinates": [-97.356067,41.436409]}},
{ "type": "Feature", "properties": {"Name":"Comstock village","State":"Nebraska","State_Abbrev":"NE"},
"geometry":{ "type": "Point", "coordinates": [-99.242977,41.557204]}},
{ "type": "Feature", "properties": {"Name":"Concord village","State":"Nebraska","State_Abbrev":"NE"},
"geometry":{ "type": "Point", "coordinates": [-96.989293,42.384172]}},
{ "type": "Feature", "properties": {"Name":"Cook village","State":"Nebraska","State_Abbrev":"NE"},
"geometry":{ "type": "Point", "coordinates": [-96.161637,40.510575]}},
{ "type": "Feature", "properties": {"Name":"Cordova village","State":"Nebraska","State_Abbrev":"NE"},
"geometry":{ "type": "Point", "coordinates": [-97.351602,40.716373]}},
{ "type": "Feature", "properties": {"Name":"Cornlea village","State":"Nebraska","State_Abbrev":"NE"},
"geometry":{ "type": "Point", "coordinates": [-97.566904,41.680049]}},
{ "type": "Feature", "properties": {"Name":"Cortland village","State":"Nebraska","State_Abbrev":"NE"},
"geometry":{ "type": "Point", "coordinates": [-96.706111,40.505935]}},
{ "type": "Feature", "properties": {"Name":"Cotesfield village","State":"Nebraska","State_Abbrev":"NE"},
"geometry":{ "type": "Point", "coordinates": [-98.633605,41.357571]}},
{ "type": "Feature", "properties": {"Name":"Cowles village","State":"Nebraska","State_Abbrev":"NE"},
"geometry":{ "type": "Point", "coordinates": [-98.449019,40.1714]}},
{ "type": "Feature", "properties": {"Name":"Cozad city","State":"Nebraska","State_Abbrev":"NE"},
"geometry":{ "type": "Point", "coordinates": [-99.986366,40.861301]}},
{ "type": "Feature", "properties": {"Name":"Crab Orchard village","State":"Nebraska","State_Abbrev":"NE"},
"geometry":{ "type": "Point", "coordinates": [-96.422437,40.334652]}},
{ "type": "Feature", "properties": {"Name":"Craig village","State":"Nebraska","State_Abbrev":"NE"},
"geometry":{ "type": "Point", "coordinates": [-96.362433,41.785262]}},
{ "type": "Feature", "properties": {"Name":"Crawford city","State":"Nebraska","State_Abbrev":"NE"},
"geometry":{ "type": "Point", "coordinates": [-103.415996,42.684566]}},
{ "type": "Feature", "properties": {"Name":"Creighton city","State":"Nebraska","State_Abbrev":"NE"},
"geometry":{ "type": "Point", "coordinates": [-97.907146,42.464857]}},
{ "type": "Feature", "properties": {"Name":"Creston village","State":"Nebraska","State_Abbrev":"NE"},
"geometry":{ "type": "Point", "coordinates": [-97.362655,41.707979]}},
{ "type": "Feature", "properties": {"Name":"Crete city","State":"Nebraska","State_Abbrev":"NE"},
"geometry":{ "type": "Point", "coordinates": [-96.953694,40.624769]}},
{ "type": "Feature", "properties": {"Name":"Crofton city","State":"Nebraska","State_Abbrev":"NE"},
"geometry":{ "type": "Point", "coordinates": [-97.498608,42.731613]}},
{ "type": "Feature", "properties": {"Name":"Crookston village","State":"Nebraska","State_Abbrev":"NE"},
"geometry":{ "type": "Point", "coordinates": [-100.753436,42.926311]}},
{ "type": "Feature", "properties": {"Name":"Culbertson village","State":"Nebraska","State_Abbrev":"NE"},
"geometry":{ "type": "Point", "coordinates": [-100.83964,40.2242]}},
{ "type": "Feature", "properties": {"Name":"Curtis city","State":"Nebraska","State_Abbrev":"NE"},
"geometry":{ "type": "Point", "coordinates": [-100.511262,40.633562]}},
{ "type": "Feature", "properties": {"Name":"Cushing village","State":"Nebraska","State_Abbrev":"NE"},
"geometry":{ "type": "Point", "coordinates": [-98.369257,41.294827]}},
{ "type": "Feature", "properties": {"Name":"Dakota City city","State":"Nebraska","State_Abbrev":"NE"},
"geometry":{ "type": "Point", "coordinates": [-96.420744,42.418115]}},
{ "type": "Feature", "properties": {"Name":"Dalton village","State":"Nebraska","State_Abbrev":"NE"},
"geometry":{ "type": "Point", "coordinates": [-102.970777,41.408231]}},
{ "type": "Feature", "properties": {"Name":"Danbury village","State":"Nebraska","State_Abbrev":"NE"},
"geometry":{ "type": "Point", "coordinates": [-100.405108,40.037706]}},
{ "type": "Feature", "properties": {"Name":"Dannebrog village","State":"Nebraska","State_Abbrev":"NE"},
"geometry":{ "type": "Point", "coordinates": [-98.545735,41.118605]}},
{ "type": "Feature", "properties": {"Name":"Davenport village","State":"Nebraska","State_Abbrev":"NE"},
"geometry":{ "type": "Point", "coordinates": [-97.811514,40.312312]}},
{ "type": "Feature", "properties": {"Name":"Davey village","State":"Nebraska","State_Abbrev":"NE"},
"geometry":{ "type": "Point", "coordinates": [-96.669193,40.983759]}},
{ "type": "Feature", "properties": {"Name":"David City city","State":"Nebraska","State_Abbrev":"NE"},
"geometry":{ "type": "Point", "coordinates": [-97.127829,41.257653]}},
{ "type": "Feature", "properties": {"Name":"Dawson village","State":"Nebraska","State_Abbrev":"NE"},
"geometry":{ "type": "Point", "coordinates": [-95.830079,40.130886]}},
{ "type": "Feature", "properties": {"Name":"Daykin village","State":"Nebraska","State_Abbrev":"NE"},
"geometry":{ "type": "Point", "coordinates": [-97.298328,40.32172]}},
{ "type": "Feature", "properties": {"Name":"Decatur village","State":"Nebraska","State_Abbrev":"NE"},
"geometry":{ "type": "Point", "coordinates": [-96.248312,42.005886]}},
{ "type": "Feature", "properties": {"Name":"Denton village","State":"Nebraska","State_Abbrev":"NE"},
"geometry":{ "type": "Point", "coordinates": [-96.845973,40.739248]}},
{ "type": "Feature", "properties": {"Name":"Deshler city","State":"Nebraska","State_Abbrev":"NE"},
"geometry":{ "type": "Point", "coordinates": [-97.723422,40.139627]}},
{ "type": "Feature", "properties": {"Name":"Deweese village","State":"Nebraska","State_Abbrev":"NE"},
"geometry":{ "type": "Point", "coordinates": [-98.13916,40.354731]}},
{ "type": "Feature", "properties": {"Name":"De Witt village","State":"Nebraska","State_Abbrev":"NE"},
"geometry":{ "type": "Point", "coordinates": [-96.922209,40.395311]}},
{ "type": "Feature", "properties": {"Name":"Diller village","State":"Nebraska","State_Abbrev":"NE"},
"geometry":{ "type": "Point", "coordinates": [-96.93783,40.108765]}},
{ "type": "Feature", "properties": {"Name":"Dix village","State":"Nebraska","State_Abbrev":"NE"},
"geometry":{ "type": "Point", "coordinates": [-103.486672,41.23428]}},
{ "type": "Feature", "properties": {"Name":"Dixon village","State":"Nebraska","State_Abbrev":"NE"},
"geometry":{ "type": "Point", "coordinates": [-96.994833,42.415408]}},
{ "type": "Feature", "properties": {"Name":"Dodge village","State":"Nebraska","State_Abbrev":"NE"},
"geometry":{ "type": "Point", "coordinates": [-96.880385,41.721815]}},
{ "type": "Feature", "properties": {"Name":"Doniphan village","State":"Nebraska","State_Abbrev":"NE"},
"geometry":{ "type": "Point", "coordinates": [-98.371365,40.774316]}},
{ "type": "Feature", "properties": {"Name":"Dorchester village","State":"Nebraska","State_Abbrev":"NE"},
"geometry":{ "type": "Point", "coordinates": [-97.115171,40.647703]}},
{ "type": "Feature", "properties": {"Name":"Douglas village","State":"Nebraska","State_Abbrev":"NE"},
"geometry":{ "type": "Point", "coordinates": [-96.38823,40.593182]}},
{ "type": "Feature", "properties": {"Name":"Du Bois village","State":"Nebraska","State_Abbrev":"NE"},
"geometry":{ "type": "Point", "coordinates": [-96.046672,40.034538]}},
{ "type": "Feature", "properties": {"Name":"Dunbar village","State":"Nebraska","State_Abbrev":"NE"},
"geometry":{ "type": "Point", "coordinates": [-96.030868,40.668679]}},
{ "type": "Feature", "properties": {"Name":"Duncan village","State":"Nebraska","State_Abbrev":"NE"},
"geometry":{ "type": "Point", "coordinates": [-97.492714,41.390436]}},
{ "type": "Feature", "properties": {"Name":"Dunning village","State":"Nebraska","State_Abbrev":"NE"},
"geometry":{ "type": "Point", "coordinates": [-100.104499,41.827078]}},
{ "type": "Feature", "properties": {"Name":"Dwight village","State":"Nebraska","State_Abbrev":"NE"},
"geometry":{ "type": "Point", "coordinates": [-97.019096,41.082747]}},
{ "type": "Feature", "properties": {"Name":"Eagle village","State":"Nebraska","State_Abbrev":"NE"},
"geometry":{ "type": "Point", "coordinates": [-96.432508,40.815664]}},
{ "type": "Feature", "properties": {"Name":"Eddyville village","State":"Nebraska","State_Abbrev":"NE"},
"geometry":{ "type": "Point", "coordinates": [-99.623996,41.012213]}},
{ "type": "Feature", "properties": {"Name":"Edgar city","State":"Nebraska","State_Abbrev":"NE"},
"geometry":{ "type": "Point", "coordinates": [-97.970973,40.368263]}},
{ "type": "Feature", "properties": {"Name":"Edison village","State":"Nebraska","State_Abbrev":"NE"},
"geometry":{ "type": "Point", "coordinates": [-99.775808,40.279237]}},
{ "type": "Feature", "properties": {"Name":"Elba village","State":"Nebraska","State_Abbrev":"NE"},
"geometry":{ "type": "Point", "coordinates": [-98.569262,41.285311]}},
{ "type": "Feature", "properties": {"Name":"Elgin city","State":"Nebraska","State_Abbrev":"NE"},
"geometry":{ "type": "Point", "coordinates": [-98.082773,41.983115]}},
{ "type": "Feature", "properties": {"Name":"Elk Creek village","State":"Nebraska","State_Abbrev":"NE"},
"geometry":{ "type": "Point", "coordinates": [-96.126943,40.288253]}},
{ "type": "Feature", "properties": {"Name":"Elm Creek village","State":"Nebraska","State_Abbrev":"NE"},
"geometry":{ "type": "Point", "coordinates": [-99.37559,40.720084]}},
{ "type": "Feature", "properties": {"Name":"Elmwood village","State":"Nebraska","State_Abbrev":"NE"},
"geometry":{ "type": "Point", "coordinates": [-96.294643,40.842533]}},
{ "type": "Feature", "properties": {"Name":"Elsie village","State":"Nebraska","State_Abbrev":"NE"},
"geometry":{ "type": "Point", "coordinates": [-101.389155,40.847168]}},
{ "type": "Feature", "properties": {"Name":"Elwood village","State":"Nebraska","State_Abbrev":"NE"},
"geometry":{ "type": "Point", "coordinates": [-99.861978,40.590133]}},
{ "type": "Feature", "properties": {"Name":"Elyria village","State":"Nebraska","State_Abbrev":"NE"},
"geometry":{ "type": "Point", "coordinates": [-99.005316,41.680064]}},
{ "type": "Feature", "properties": {"Name":"Emerald CDP","State":"Nebraska","State_Abbrev":"NE"},
"geometry":{ "type": "Point", "coordinates": [-96.835371,40.81313]}},
{ "type": "Feature", "properties": {"Name":"Emerson village","State":"Nebraska","State_Abbrev":"NE"},
"geometry":{ "type": "Point", "coordinates": [-96.72629,42.278205]}},
{ "type": "Feature", "properties": {"Name":"Emmet village","State":"Nebraska","State_Abbrev":"NE"},
"geometry":{ "type": "Point", "coordinates": [-98.809302,42.475698]}},
{ "type": "Feature", "properties": {"Name":"Enders CDP","State":"Nebraska","State_Abbrev":"NE"},
"geometry":{ "type": "Point", "coordinates": [-101.535567,40.454919]}},
{ "type": "Feature", "properties": {"Name":"Endicott village","State":"Nebraska","State_Abbrev":"NE"},
"geometry":{ "type": "Point", "coordinates": [-97.095385,40.082198]}},
{ "type": "Feature", "properties": {"Name":"Ericson village","State":"Nebraska","State_Abbrev":"NE"},
"geometry":{ "type": "Point", "coordinates": [-98.678576,41.780442]}},
{ "type": "Feature", "properties": {"Name":"Eustis village","State":"Nebraska","State_Abbrev":"NE"},
"geometry":{ "type": "Point", "coordinates": [-100.029551,40.664527]}},
{ "type": "Feature", "properties": {"Name":"Ewing village","State":"Nebraska","State_Abbrev":"NE"},
"geometry":{ "type": "Point", "coordinates": [-98.343746,42.259359]}},
{ "type": "Feature", "properties": {"Name":"Exeter village","State":"Nebraska","State_Abbrev":"NE"},
"geometry":{ "type": "Point", "coordinates": [-97.448793,40.64454]}},
{ "type": "Feature", "properties": {"Name":"Fairbury city","State":"Nebraska","State_Abbrev":"NE"},
"geometry":{ "type": "Point", "coordinates": [-97.176504,40.144738]}},
{ "type": "Feature", "properties": {"Name":"Fairfield city","State":"Nebraska","State_Abbrev":"NE"},
"geometry":{ "type": "Point", "coordinates": [-98.103204,40.432309]}},
{ "type": "Feature", "properties": {"Name":"Fairmont village","State":"Nebraska","State_Abbrev":"NE"},
"geometry":{ "type": "Point", "coordinates": [-97.584954,40.633554]}},
{ "type": "Feature", "properties": {"Name":"Falls City city","State":"Nebraska","State_Abbrev":"NE"},
"geometry":{ "type": "Point", "coordinates": [-95.599013,40.062208]}},
{ "type": "Feature", "properties": {"Name":"Farnam village","State":"Nebraska","State_Abbrev":"NE"},
"geometry":{ "type": "Point", "coordinates": [-100.215492,40.706496]}},
{ "type": "Feature", "properties": {"Name":"Farwell village","State":"Nebraska","State_Abbrev":"NE"},
"geometry":{ "type": "Point", "coordinates": [-98.628055,41.215623]}},
{ "type": "Feature", "properties": {"Name":"Filley village","State":"Nebraska","State_Abbrev":"NE"},
"geometry":{ "type": "Point", "coordinates": [-96.533935,40.285202]}},
{ "type": "Feature", "properties": {"Name":"Firth village","State":"Nebraska","State_Abbrev":"NE"},
"geometry":{ "type": "Point", "coordinates": [-96.604176,40.536572]}},
{ "type": "Feature", "properties": {"Name":"Fontanelle CDP","State":"Nebraska","State_Abbrev":"NE"},
"geometry":{ "type": "Point", "coordinates": [-96.427187,41.538255]}},
{ "type": "Feature", "properties": {"Name":"Fordyce village","State":"Nebraska","State_Abbrev":"NE"},
"geometry":{ "type": "Point", "coordinates": [-97.362773,42.698217]}},
{ "type": "Feature", "properties": {"Name":"Fort Calhoun city","State":"Nebraska","State_Abbrev":"NE"},
"geometry":{ "type": "Point", "coordinates": [-96.026273,41.456237]}},
{ "type": "Feature", "properties": {"Name":"Foster village","State":"Nebraska","State_Abbrev":"NE"},
"geometry":{ "type": "Point", "coordinates": [-97.665093,42.274699]}},
{ "type": "Feature", "properties": {"Name":"Franklin city","State":"Nebraska","State_Abbrev":"NE"},
"geometry":{ "type": "Point", "coordinates": [-98.951425,40.096549]}},
{ "type": "Feature", "properties": {"Name":"Fremont city","State":"Nebraska","State_Abbrev":"NE"},
"geometry":{ "type": "Point", "coordinates": [-96.487,41.439842]}},
{ "type": "Feature", "properties": {"Name":"Friend city","State":"Nebraska","State_Abbrev":"NE"},
"geometry":{ "type": "Point", "coordinates": [-97.283795,40.650513]}},
{ "type": "Feature", "properties": {"Name":"Fullerton city","State":"Nebraska","State_Abbrev":"NE"},
"geometry":{ "type": "Point", "coordinates": [-97.972261,41.364988]}},
{ "type": "Feature", "properties": {"Name":"Funk village","State":"Nebraska","State_Abbrev":"NE"},
"geometry":{ "type": "Point", "coordinates": [-99.250756,40.463134]}},
{ "type": "Feature", "properties": {"Name":"Gandy village","State":"Nebraska","State_Abbrev":"NE"},
"geometry":{ "type": "Point", "coordinates": [-100.458337,41.469749]}},
{ "type": "Feature", "properties": {"Name":"Garland village","State":"Nebraska","State_Abbrev":"NE"},
"geometry":{ "type": "Point", "coordinates": [-96.985292,40.944587]}},
{ "type": "Feature", "properties": {"Name":"Garrison village","State":"Nebraska","State_Abbrev":"NE"},
"geometry":{ "type": "Point", "coordinates": [-97.163426,41.175505]}},
{ "type": "Feature", "properties": {"Name":"Geneva city","State":"Nebraska","State_Abbrev":"NE"},
"geometry":{ "type": "Point", "coordinates": [-97.597394,40.530613]}},
{ "type": "Feature", "properties": {"Name":"Genoa city","State":"Nebraska","State_Abbrev":"NE"},
"geometry":{ "type": "Point", "coordinates": [-97.733271,41.445874]}},
{ "type": "Feature", "properties": {"Name":"Gering city","State":"Nebraska","State_Abbrev":"NE"},
"geometry":{ "type": "Point", "coordinates": [-103.662524,41.826961]}},
{ "type": "Feature", "properties": {"Name":"Gibbon city","State":"Nebraska","State_Abbrev":"NE"},
"geometry":{ "type": "Point", "coordinates": [-98.845814,40.746067]}},
{ "type": "Feature", "properties": {"Name":"Gilead village","State":"Nebraska","State_Abbrev":"NE"},
"geometry":{ "type": "Point", "coordinates": [-97.415052,40.146093]}},
{ "type": "Feature", "properties": {"Name":"Giltner village","State":"Nebraska","State_Abbrev":"NE"},
"geometry":{ "type": "Point", "coordinates": [-98.154284,40.775355]}},
{ "type": "Feature", "properties": {"Name":"Glenvil village","State":"Nebraska","State_Abbrev":"NE"},
"geometry":{ "type": "Point", "coordinates": [-98.254545,40.502682]}},
{ "type": "Feature", "properties": {"Name":"Glenwood CDP","State":"Nebraska","State_Abbrev":"NE"},
"geometry":{ "type": "Point", "coordinates": [-99.081007,40.755459]}},
{ "type": "Feature", "properties": {"Name":"Goehner village","State":"Nebraska","State_Abbrev":"NE"},
"geometry":{ "type": "Point", "coordinates": [-97.219574,40.832732]}},
{ "type": "Feature", "properties": {"Name":"Gordon city","State":"Nebraska","State_Abbrev":"NE"},
"geometry":{ "type": "Point", "coordinates": [-102.203938,42.806432]}},
{ "type": "Feature", "properties": {"Name":"Gothenburg city","State":"Nebraska","State_Abbrev":"NE"},
"geometry":{ "type": "Point", "coordinates": [-100.153929,40.924676]}},
{ "type": "Feature", "properties": {"Name":"Grafton village","State":"Nebraska","State_Abbrev":"NE"},
"geometry":{ "type": "Point", "coordinates": [-97.714629,40.629777]}},
{ "type": "Feature", "properties": {"Name":"Grand Island city","State":"Nebraska","State_Abbrev":"NE"},
"geometry":{ "type": "Point", "coordinates": [-98.358735,40.921868]}},
{ "type": "Feature", "properties": {"Name":"Grant city","State":"Nebraska","State_Abbrev":"NE"},
"geometry":{ "type": "Point", "coordinates": [-101.725576,40.844679]}},
{ "type": "Feature", "properties": {"Name":"Greeley Center village","State":"Nebraska","State_Abbrev":"NE"},
"geometry":{ "type": "Point", "coordinates": [-98.530517,41.548344]}},
{ "type": "Feature", "properties": {"Name":"Greenwood village","State":"Nebraska","State_Abbrev":"NE"},
"geometry":{ "type": "Point", "coordinates": [-96.443051,40.961818]}},
{ "type": "Feature", "properties": {"Name":"Gresham village","State":"Nebraska","State_Abbrev":"NE"},
"geometry":{ "type": "Point", "coordinates": [-97.401093,41.02842]}},
{ "type": "Feature", "properties": {"Name":"Gretna city","State":"Nebraska","State_Abbrev":"NE"},
"geometry":{ "type": "Point", "coordinates": [-96.200416,41.128515]}},
{ "type": "Feature", "properties": {"Name":"Gross village","State":"Nebraska","State_Abbrev":"NE"},
"geometry":{ "type": "Point", "coordinates": [-98.569735,42.94608]}},
{ "type": "Feature", "properties": {"Name":"Guide Rock village","State":"Nebraska","State_Abbrev":"NE"},
"geometry":{ "type": "Point", "coordinates": [-98.328803,40.073711]}},
{ "type": "Feature", "properties": {"Name":"Gurley village","State":"Nebraska","State_Abbrev":"NE"},
"geometry":{ "type": "Point", "coordinates": [-102.974419,41.321393]}},
{ "type": "Feature", "properties": {"Name":"Hadar village","State":"Nebraska","State_Abbrev":"NE"},
"geometry":{ "type": "Point", "coordinates": [-97.450972,42.107221]}},
{ "type": "Feature", "properties": {"Name":"Haigler village","State":"Nebraska","State_Abbrev":"NE"},
"geometry":{ "type": "Point", "coordinates": [-101.938559,40.012142]}},
{ "type": "Feature", "properties": {"Name":"Hallam village","State":"Nebraska","State_Abbrev":"NE"},
"geometry":{ "type": "Point", "coordinates": [-96.786792,40.5365]}},
{ "type": "Feature", "properties": {"Name":"Halsey village","State":"Nebraska","State_Abbrev":"NE"},
"geometry":{ "type": "Point", "coordinates": [-100.269793,41.903319]}},
{ "type": "Feature", "properties": {"Name":"Hamlet village","State":"Nebraska","State_Abbrev":"NE"},
"geometry":{ "type": "Point", "coordinates": [-101.234549,40.38445]}},
{ "type": "Feature", "properties": {"Name":"Hampton village","State":"Nebraska","State_Abbrev":"NE"},
"geometry":{ "type": "Point", "coordinates": [-97.887535,40.881115]}},
{ "type": "Feature", "properties": {"Name":"Harbine village","State":"Nebraska","State_Abbrev":"NE"},
"geometry":{ "type": "Point", "coordinates": [-96.974149,40.191627]}},
{ "type": "Feature", "properties": {"Name":"Hardy village","State":"Nebraska","State_Abbrev":"NE"},
"geometry":{ "type": "Point", "coordinates": [-97.923808,40.011351]}},
{ "type": "Feature", "properties": {"Name":"Harrisburg CDP","State":"Nebraska","State_Abbrev":"NE"},
"geometry":{ "type": "Point", "coordinates": [-103.726684,41.550529]}},
{ "type": "Feature", "properties": {"Name":"Harrison village","State":"Nebraska","State_Abbrev":"NE"},
"geometry":{ "type": "Point", "coordinates": [-103.882471,42.688085]}},
{ "type": "Feature", "properties": {"Name":"Hartington city","State":"Nebraska","State_Abbrev":"NE"},
"geometry":{ "type": "Point", "coordinates": [-97.267266,42.620392]}},
{ "type": "Feature", "properties": {"Name":"Harvard city","State":"Nebraska","State_Abbrev":"NE"},
"geometry":{ "type": "Point", "coordinates": [-98.096122,40.620076]}},
{ "type": "Feature", "properties": {"Name":"Hastings city","State":"Nebraska","State_Abbrev":"NE"},
"geometry":{ "type": "Point", "coordinates": [-98.39032,40.596264]}},
{ "type": "Feature", "properties": {"Name":"Hayes Center village","State":"Nebraska","State_Abbrev":"NE"},
"geometry":{ "type": "Point", "coordinates": [-101.020397,40.511024]}},
{ "type": "Feature", "properties": {"Name":"Hay Springs village","State":"Nebraska","State_Abbrev":"NE"},
"geometry":{ "type": "Point", "coordinates": [-102.689593,42.68329]}},
{ "type": "Feature", "properties": {"Name":"Hazard village","State":"Nebraska","State_Abbrev":"NE"},
"geometry":{ "type": "Point", "coordinates": [-99.077263,41.091581]}},
{ "type": "Feature", "properties": {"Name":"Heartwell village","State":"Nebraska","State_Abbrev":"NE"},
"geometry":{ "type": "Point", "coordinates": [-98.789077,40.569907]}},
{ "type": "Feature", "properties": {"Name":"Hebron city","State":"Nebraska","State_Abbrev":"NE"},
"geometry":{ "type": "Point", "coordinates": [-97.586454,40.168713]}},
{ "type": "Feature", "properties": {"Name":"Hemingford village","State":"Nebraska","State_Abbrev":"NE"},
"geometry":{ "type": "Point", "coordinates": [-103.075357,42.321263]}},
{ "type": "Feature", "properties": {"Name":"Henderson city","State":"Nebraska","State_Abbrev":"NE"},
"geometry":{ "type": "Point", "coordinates": [-97.812209,40.78025]}},
{ "type": "Feature", "properties": {"Name":"Hendley village","State":"Nebraska","State_Abbrev":"NE"},
"geometry":{ "type": "Point", "coordinates": [-99.971192,40.131315]}},
{ "type": "Feature", "properties": {"Name":"Henry village","State":"Nebraska","State_Abbrev":"NE"},
"geometry":{ "type": "Point", "coordinates": [-104.045696,41.997856]}},
{ "type": "Feature", "properties": {"Name":"Herman village","State":"Nebraska","State_Abbrev":"NE"},
"geometry":{ "type": "Point", "coordinates": [-96.216718,41.673825]}},
{ "type": "Feature", "properties": {"Name":"Hershey village","State":"Nebraska","State_Abbrev":"NE"},
"geometry":{ "type": "Point", "coordinates": [-100.998528,41.160187]}},
{ "type": "Feature", "properties": {"Name":"Hickman city","State":"Nebraska","State_Abbrev":"NE"},
"geometry":{ "type": "Point", "coordinates": [-96.629633,40.624991]}},
{ "type": "Feature", "properties": {"Name":"Hildreth village","State":"Nebraska","State_Abbrev":"NE"},
"geometry":{ "type": "Point", "coordinates": [-99.045751,40.337832]}},
{ "type": "Feature", "properties": {"Name":"Holbrook village","State":"Nebraska","State_Abbrev":"NE"},
"geometry":{ "type": "Point", "coordinates": [-100.009989,40.30474]}},
{ "type": "Feature", "properties": {"Name":"Holdrege city","State":"Nebraska","State_Abbrev":"NE"},
"geometry":{ "type": "Point", "coordinates": [-99.377037,40.439441]}},
{ "type": "Feature", "properties": {"Name":"Holmesville CDP","State":"Nebraska","State_Abbrev":"NE"},
"geometry":{ "type": "Point", "coordinates": [-96.65885,40.201426]}},
{ "type": "Feature", "properties": {"Name":"Holstein village","State":"Nebraska","State_Abbrev":"NE"},
"geometry":{ "type": "Point", "coordinates": [-98.651043,40.465224]}},
{ "type": "Feature", "properties": {"Name":"Homer village","State":"Nebraska","State_Abbrev":"NE"},
"geometry":{ "type": "Point", "coordinates": [-96.49121,42.322495]}},
{ "type": "Feature", "properties": {"Name":"Hooper city","State":"Nebraska","State_Abbrev":"NE"},
"geometry":{ "type": "Point", "coordinates": [-96.548627,41.611373]}},
{ "type": "Feature", "properties": {"Name":"Hordville village","State":"Nebraska","State_Abbrev":"NE"},
"geometry":{ "type": "Point", "coordinates": [-97.890349,41.079361]}},
{ "type": "Feature", "properties": {"Name":"Hoskins village","State":"Nebraska","State_Abbrev":"NE"},
"geometry":{ "type": "Point", "coordinates": [-97.304384,42.112636]}},
{ "type": "Feature", "properties": {"Name":"Howard City (Boelus) village","State":"Nebraska","State_Abbrev":"NE"},
"geometry":{ "type": "Point", "coordinates": [-98.715322,41.075411]}},
{ "type": "Feature", "properties": {"Name":"Howells village","State":"Nebraska","State_Abbrev":"NE"},
"geometry":{ "type": "Point", "coordinates": [-97.004645,41.724232]}},
{ "type": "Feature", "properties": {"Name":"Hubbard village","State":"Nebraska","State_Abbrev":"NE"},
"geometry":{ "type": "Point", "coordinates": [-96.591487,42.385901]}},
{ "type": "Feature", "properties": {"Name":"Hubbell village","State":"Nebraska","State_Abbrev":"NE"},
"geometry":{ "type": "Point", "coordinates": [-97.497006,40.008741]}},
{ "type": "Feature", "properties": {"Name":"Humboldt city","State":"Nebraska","State_Abbrev":"NE"},
"geometry":{ "type": "Point", "coordinates": [-95.944319,40.165819]}},
{ "type": "Feature", "properties": {"Name":"Humphrey city","State":"Nebraska","State_Abbrev":"NE"},
"geometry":{ "type": "Point", "coordinates": [-97.485148,41.688506]}},
{ "type": "Feature", "properties": {"Name":"Huntley village","State":"Nebraska","State_Abbrev":"NE"},
"geometry":{ "type": "Point", "coordinates": [-99.290134,40.210522]}},
{ "type": "Feature", "properties": {"Name":"Hyannis village","State":"Nebraska","State_Abbrev":"NE"},
"geometry":{ "type": "Point", "coordinates": [-101.762228,42.000496]}},
{ "type": "Feature", "properties": {"Name":"Imperial city","State":"Nebraska","State_Abbrev":"NE"},
"geometry":{ "type": "Point", "coordinates": [-101.637245,40.51442]}},
{ "type": "Feature", "properties": {"Name":"Inavale CDP","State":"Nebraska","State_Abbrev":"NE"},
"geometry":{ "type": "Point", "coordinates": [-98.648391,40.092266]}},
{ "type": "Feature", "properties": {"Name":"Indianola city","State":"Nebraska","State_Abbrev":"NE"},
"geometry":{ "type": "Point", "coordinates": [-100.419843,40.234629]}},
{ "type": "Feature", "properties": {"Name":"Inglewood village","State":"Nebraska","State_Abbrev":"NE"},
"geometry":{ "type": "Point", "coordinates": [-96.502424,41.415965]}},
{ "type": "Feature", "properties": {"Name":"Inland CDP","State":"Nebraska","State_Abbrev":"NE"},
"geometry":{ "type": "Point", "coordinates": [-98.223076,40.595297]}},
{ "type": "Feature", "properties": {"Name":"Inman village","State":"Nebraska","State_Abbrev":"NE"},
"geometry":{ "type": "Point", "coordinates": [-98.529814,42.381915]}},
{ "type": "Feature", "properties": {"Name":"Ithaca village","State":"Nebraska","State_Abbrev":"NE"},
"geometry":{ "type": "Point", "coordinates": [-96.539495,41.159339]}},
{ "type": "Feature", "properties": {"Name":"Jackson village","State":"Nebraska","State_Abbrev":"NE"},
"geometry":{ "type": "Point", "coordinates": [-96.571302,42.448167]}},
{ "type": "Feature", "properties": {"Name":"Jansen village","State":"Nebraska","State_Abbrev":"NE"},
"geometry":{ "type": "Point", "coordinates": [-97.084783,40.18395]}},
{ "type": "Feature", "properties": {"Name":"Johnson village","State":"Nebraska","State_Abbrev":"NE"},
"geometry":{ "type": "Point", "coordinates": [-95.999865,40.410459]}},
{ "type": "Feature", "properties": {"Name":"Johnstown village","State":"Nebraska","State_Abbrev":"NE"},
"geometry":{ "type": "Point", "coordinates": [-100.056289,42.572103]}},
{ "type": "Feature", "properties": {"Name":"Julian village","State":"Nebraska","State_Abbrev":"NE"},
"geometry":{ "type": "Point", "coordinates": [-95.867366,40.519885]}},
{ "type": "Feature", "properties": {"Name":"Juniata village","State":"Nebraska","State_Abbrev":"NE"},
"geometry":{ "type": "Point", "coordinates": [-98.506963,40.590167]}},
{ "type": "Feature", "properties": {"Name":"Kearney city","State":"Nebraska","State_Abbrev":"NE"},
"geometry":{ "type": "Point", "coordinates": [-99.082312,40.701745]}},
{ "type": "Feature", "properties": {"Name":"Kenesaw village","State":"Nebraska","State_Abbrev":"NE"},
"geometry":{ "type": "Point", "coordinates": [-98.657585,40.618944]}},
{ "type": "Feature", "properties": {"Name":"Kennard village","State":"Nebraska","State_Abbrev":"NE"},
"geometry":{ "type": "Point", "coordinates": [-96.203696,41.474697]}},
{ "type": "Feature", "properties": {"Name":"Keystone CDP","State":"Nebraska","State_Abbrev":"NE"},
"geometry":{ "type": "Point", "coordinates": [-101.584122,41.21874]}},
{ "type": "Feature", "properties": {"Name":"Kilgore village","State":"Nebraska","State_Abbrev":"NE"},
"geometry":{ "type": "Point", "coordinates": [-100.957305,42.939097]}},
{ "type": "Feature", "properties": {"Name":"Kimball city","State":"Nebraska","State_Abbrev":"NE"},
"geometry":{ "type": "Point", "coordinates": [-103.651304,41.233511]}},
{ "type": "Feature", "properties": {"Name":"King Lake CDP","State":"Nebraska","State_Abbrev":"NE"},
"geometry":{ "type": "Point", "coordinates": [-96.302285,41.309669]}},
{ "type": "Feature", "properties": {"Name":"Kramer CDP","State":"Nebraska","State_Abbrev":"NE"},
"geometry":{ "type": "Point", "coordinates": [-96.873283,40.591319]}},
{ "type": "Feature", "properties": {"Name":"Lakeview CDP","State":"Nebraska","State_Abbrev":"NE"},
"geometry":{ "type": "Point", "coordinates": [-97.377516,41.499721]}},
{ "type": "Feature", "properties": {"Name":"Lamar village","State":"Nebraska","State_Abbrev":"NE"},
"geometry":{ "type": "Point", "coordinates": [-101.979284,40.572468]}},
{ "type": "Feature", "properties": {"Name":"La Platte CDP","State":"Nebraska","State_Abbrev":"NE"},
"geometry":{ "type": "Point", "coordinates": [-95.926508,41.072261]}},
{ "type": "Feature", "properties": {"Name":"Laurel city","State":"Nebraska","State_Abbrev":"NE"},
"geometry":{ "type": "Point", "coordinates": [-97.096948,42.428757]}},
{ "type": "Feature", "properties": {"Name":"La Vista city","State":"Nebraska","State_Abbrev":"NE"},
"geometry":{ "type": "Point", "coordinates": [-96.068244,41.181836]}},
{ "type": "Feature", "properties": {"Name":"Lawrence village","State":"Nebraska","State_Abbrev":"NE"},
"geometry":{ "type": "Point", "coordinates": [-98.259675,40.290167]}},
{ "type": "Feature", "properties": {"Name":"Lebanon village","State":"Nebraska","State_Abbrev":"NE"},
"geometry":{ "type": "Point", "coordinates": [-100.275944,40.048793]}},
{ "type": "Feature", "properties": {"Name":"Leigh village","State":"Nebraska","State_Abbrev":"NE"},
"geometry":{ "type": "Point", "coordinates": [-97.240679,41.703261]}},
{ "type": "Feature", "properties": {"Name":"Lemoyne CDP","State":"Nebraska","State_Abbrev":"NE"},
"geometry":{ "type": "Point", "coordinates": [-101.813356,41.276644]}},
{ "type": "Feature", "properties": {"Name":"Leshara village","State":"Nebraska","State_Abbrev":"NE"},
"geometry":{ "type": "Point", "coordinates": [-96.429203,41.32979]}},
{ "type": "Feature", "properties": {"Name":"Lewellen village","State":"Nebraska","State_Abbrev":"NE"},
"geometry":{ "type": "Point", "coordinates": [-102.143702,41.330531]}},
{ "type": "Feature", "properties": {"Name":"Lewiston village","State":"Nebraska","State_Abbrev":"NE"},
"geometry":{ "type": "Point", "coordinates": [-96.407448,40.242871]}},
{ "type": "Feature", "properties": {"Name":"Lexington city","State":"Nebraska","State_Abbrev":"NE"},
"geometry":{ "type": "Point", "coordinates": [-99.746616,40.777323]}},
{ "type": "Feature", "properties": {"Name":"Liberty village","State":"Nebraska","State_Abbrev":"NE"},
"geometry":{ "type": "Point", "coordinates": [-96.483009,40.085507]}},
{ "type": "Feature", "properties": {"Name":"Lincoln city","State":"Nebraska","State_Abbrev":"NE"},
"geometry":{ "type": "Point", "coordinates": [-96.677895,40.808943]}},
{ "type": "Feature", "properties": {"Name":"Lindsay village","State":"Nebraska","State_Abbrev":"NE"},
"geometry":{ "type": "Point", "coordinates": [-97.69412,41.699278]}},
{ "type": "Feature", "properties": {"Name":"Lindy CDP","State":"Nebraska","State_Abbrev":"NE"},
"geometry":{ "type": "Point", "coordinates": [-97.749951,42.735114]}},
{ "type": "Feature", "properties": {"Name":"Linoma Beach CDP","State":"Nebraska","State_Abbrev":"NE"},
"geometry":{ "type": "Point", "coordinates": [-96.314066,41.057297]}},
{ "type": "Feature", "properties": {"Name":"Linwood village","State":"Nebraska","State_Abbrev":"NE"},
"geometry":{ "type": "Point", "coordinates": [-96.932347,41.412341]}},
{ "type": "Feature", "properties": {"Name":"Lisco CDP","State":"Nebraska","State_Abbrev":"NE"},
"geometry":{ "type": "Point", "coordinates": [-102.623647,41.498669]}},
{ "type": "Feature", "properties": {"Name":"Litchfield village","State":"Nebraska","State_Abbrev":"NE"},
"geometry":{ "type": "Point", "coordinates": [-99.153053,41.156047]}},
{ "type": "Feature", "properties": {"Name":"Lodgepole village","State":"Nebraska","State_Abbrev":"NE"},
"geometry":{ "type": "Point", "coordinates": [-102.638635,41.148929]}},
{ "type": "Feature", "properties": {"Name":"Long Pine city","State":"Nebraska","State_Abbrev":"NE"},
"geometry":{ "type": "Point", "coordinates": [-99.702698,42.535252]}},
{ "type": "Feature", "properties": {"Name":"Loomis village","State":"Nebraska","State_Abbrev":"NE"},
"geometry":{ "type": "Point", "coordinates": [-99.507684,40.478284]}},
{ "type": "Feature", "properties": {"Name":"Lorenzo CDP","State":"Nebraska","State_Abbrev":"NE"},
"geometry":{ "type": "Point", "coordinates": [-103.082098,41.057574]}},
{ "type": "Feature", "properties": {"Name":"Loretto CDP","State":"Nebraska","State_Abbrev":"NE"},
"geometry":{ "type": "Point", "coordinates": [-98.081721,41.763444]}},
{ "type": "Feature", "properties": {"Name":"Lorton village","State":"Nebraska","State_Abbrev":"NE"},
"geometry":{ "type": "Point", "coordinates": [-96.024177,40.59722]}},
{ "type": "Feature", "properties": {"Name":"Louisville city","State":"Nebraska","State_Abbrev":"NE"},
"geometry":{ "type": "Point", "coordinates": [-96.161233,40.996473]}},
{ "type": "Feature", "properties": {"Name":"Loup City city","State":"Nebraska","State_Abbrev":"NE"},
"geometry":{ "type": "Point", "coordinates": [-98.967727,41.276683]}},
{ "type": "Feature", "properties": {"Name":"Lushton village","State":"Nebraska","State_Abbrev":"NE"},
"geometry":{ "type": "Point", "coordinates": [-97.723648,40.72403]}},
{ "type": "Feature", "properties": {"Name":"Lyman village","State":"Nebraska","State_Abbrev":"NE"},
"geometry":{ "type": "Point", "coordinates": [-104.038119,41.916986]}},
{ "type": "Feature", "properties": {"Name":"Lynch village","State":"Nebraska","State_Abbrev":"NE"},
"geometry":{ "type": "Point", "coordinates": [-98.466854,42.831216]}},
{ "type": "Feature", "properties": {"Name":"Lyons city","State":"Nebraska","State_Abbrev":"NE"},
"geometry":{ "type": "Point", "coordinates": [-96.472338,41.93588]}},
{ "type": "Feature", "properties": {"Name":"McCook city","State":"Nebraska","State_Abbrev":"NE"},
"geometry":{ "type": "Point", "coordinates": [-100.621563,40.204534]}},
{ "type": "Feature", "properties": {"Name":"McCool Junction village","State":"Nebraska","State_Abbrev":"NE"},
"geometry":{ "type": "Point", "coordinates": [-97.600794,40.743858]}},
{ "type": "Feature", "properties": {"Name":"McGrew village","State":"Nebraska","State_Abbrev":"NE"},
"geometry":{ "type": "Point", "coordinates": [-103.417167,41.747668]}},
{ "type": "Feature", "properties": {"Name":"McLean village","State":"Nebraska","State_Abbrev":"NE"},
"geometry":{ "type": "Point", "coordinates": [-97.468177,42.386341]}},
{ "type": "Feature", "properties": {"Name":"Macy CDP","State":"Nebraska","State_Abbrev":"NE"},
"geometry":{ "type": "Point", "coordinates": [-96.366599,42.115881]}},
{ "type": "Feature", "properties": {"Name":"Madison city","State":"Nebraska","State_Abbrev":"NE"},
"geometry":{ "type": "Point", "coordinates": [-97.456719,41.828292]}},
{ "type": "Feature", "properties": {"Name":"Madrid village","State":"Nebraska","State_Abbrev":"NE"},
"geometry":{ "type": "Point", "coordinates": [-101.527891,40.852426]}},
{ "type": "Feature", "properties": {"Name":"Magnet village","State":"Nebraska","State_Abbrev":"NE"},
"geometry":{ "type": "Point", "coordinates": [-97.469294,42.45612]}},
{ "type": "Feature", "properties": {"Name":"Malcolm village","State":"Nebraska","State_Abbrev":"NE"},
"geometry":{ "type": "Point", "coordinates": [-96.866053,40.909045]}},
{ "type": "Feature", "properties": {"Name":"Malmo village","State":"Nebraska","State_Abbrev":"NE"},
"geometry":{ "type": "Point", "coordinates": [-96.720922,41.266455]}},
{ "type": "Feature", "properties": {"Name":"Manley village","State":"Nebraska","State_Abbrev":"NE"},
"geometry":{ "type": "Point", "coordinates": [-96.165698,40.918337]}},
{ "type": "Feature", "properties": {"Name":"Marquette village","State":"Nebraska","State_Abbrev":"NE"},
"geometry":{ "type": "Point", "coordinates": [-98.009751,41.006335]}},
{ "type": "Feature", "properties": {"Name":"Martell CDP","State":"Nebraska","State_Abbrev":"NE"},
"geometry":{ "type": "Point", "coordinates": [-96.758794,40.638942]}},
{ "type": "Feature", "properties": {"Name":"Martin CDP","State":"Nebraska","State_Abbrev":"NE"},
"geometry":{ "type": "Point", "coordinates": [-101.709005,41.258135]}},
{ "type": "Feature", "properties": {"Name":"Martinsburg village","State":"Nebraska","State_Abbrev":"NE"},
"geometry":{ "type": "Point", "coordinates": [-96.832,42.508573]}},
{ "type": "Feature", "properties": {"Name":"Maskell village","State":"Nebraska","State_Abbrev":"NE"},
"geometry":{ "type": "Point", "coordinates": [-96.9809,42.690418]}},
{ "type": "Feature", "properties": {"Name":"Mason City village","State":"Nebraska","State_Abbrev":"NE"},
"geometry":{ "type": "Point", "coordinates": [-99.298766,41.22219]}},
{ "type": "Feature", "properties": {"Name":"Max CDP","State":"Nebraska","State_Abbrev":"NE"},
"geometry":{ "type": "Point", "coordinates": [-101.404489,40.11432]}},
{ "type": "Feature", "properties": {"Name":"Maxwell village","State":"Nebraska","State_Abbrev":"NE"},
"geometry":{ "type": "Point", "coordinates": [-100.526314,41.077114]}},
{ "type": "Feature", "properties": {"Name":"Maywood village","State":"Nebraska","State_Abbrev":"NE"},
"geometry":{ "type": "Point", "coordinates": [-100.622233,40.658698]}},
{ "type": "Feature", "properties": {"Name":"Mead village","State":"Nebraska","State_Abbrev":"NE"},
"geometry":{ "type": "Point", "coordinates": [-96.487187,41.224402]}},
{ "type": "Feature", "properties": {"Name":"Meadow Grove village","State":"Nebraska","State_Abbrev":"NE"},
"geometry":{ "type": "Point", "coordinates": [-97.73604,42.029007]}},
{ "type": "Feature", "properties": {"Name":"Melbeta village","State":"Nebraska","State_Abbrev":"NE"},
"geometry":{ "type": "Point", "coordinates": [-103.516935,41.781972]}},
{ "type": "Feature", "properties": {"Name":"Melia CDP","State":"Nebraska","State_Abbrev":"NE"},
"geometry":{ "type": "Point", "coordinates": [-96.276438,41.097166]}},
{ "type": "Feature", "properties": {"Name":"Memphis village","State":"Nebraska","State_Abbrev":"NE"},
"geometry":{ "type": "Point", "coordinates": [-96.433137,41.094564]}},
{ "type": "Feature", "properties": {"Name":"Merna village","State":"Nebraska","State_Abbrev":"NE"},
"geometry":{ "type": "Point", "coordinates": [-99.761063,41.485159]}},
{ "type": "Feature", "properties": {"Name":"Merriman village","State":"Nebraska","State_Abbrev":"NE"},
"geometry":{ "type": "Point", "coordinates": [-101.699732,42.922998]}},
{ "type": "Feature", "properties": {"Name":"Milford city","State":"Nebraska","State_Abbrev":"NE"},
"geometry":{ "type": "Point", "coordinates": [-97.054119,40.772568]}},
{ "type": "Feature", "properties": {"Name":"Miller village","State":"Nebraska","State_Abbrev":"NE"},
"geometry":{ "type": "Point", "coordinates": [-99.39012,40.927611]}},
{ "type": "Feature", "properties": {"Name":"Milligan village","State":"Nebraska","State_Abbrev":"NE"},
"geometry":{ "type": "Point", "coordinates": [-97.388394,40.500018]}},
{ "type": "Feature", "properties": {"Name":"Minatare city","State":"Nebraska","State_Abbrev":"NE"},
"geometry":{ "type": "Point", "coordinates": [-103.500899,41.811507]}},
{ "type": "Feature", "properties": {"Name":"Minden city","State":"Nebraska","State_Abbrev":"NE"},
"geometry":{ "type": "Point", "coordinates": [-98.967005,40.498186]}},
{ "type": "Feature", "properties": {"Name":"Mitchell city","State":"Nebraska","State_Abbrev":"NE"},
"geometry":{ "type": "Point", "coordinates": [-103.809845,41.942661]}},
{ "type": "Feature", "properties": {"Name":"Monowi village","State":"Nebraska","State_Abbrev":"NE"},
"geometry":{ "type": "Point", "coordinates": [-98.32956,42.830705]}},
{ "type": "Feature", "properties": {"Name":"Monroe village","State":"Nebraska","State_Abbrev":"NE"},
"geometry":{ "type": "Point", "coordinates": [-97.599088,41.474054]}},
{ "type": "Feature", "properties": {"Name":"Moorefield village","State":"Nebraska","State_Abbrev":"NE"},
"geometry":{ "type": "Point", "coordinates": [-100.400327,40.689917]}},
{ "type": "Feature", "properties": {"Name":"Morrill village","State":"Nebraska","State_Abbrev":"NE"},
"geometry":{ "type": "Point", "coordinates": [-103.924875,41.964065]}},
{ "type": "Feature", "properties": {"Name":"Morse Bluff village","State":"Nebraska","State_Abbrev":"NE"},
"geometry":{ "type": "Point", "coordinates": [-96.766514,41.430946]}},
{ "type": "Feature", "properties": {"Name":"Mullen village","State":"Nebraska","State_Abbrev":"NE"},
"geometry":{ "type": "Point", "coordinates": [-101.044553,42.042962]}},
{ "type": "Feature", "properties": {"Name":"Murdock village","State":"Nebraska","State_Abbrev":"NE"},
"geometry":{ "type": "Point", "coordinates": [-96.280879,40.926106]}},
{ "type": "Feature", "properties": {"Name":"Murray village","State":"Nebraska","State_Abbrev":"NE"},
"geometry":{ "type": "Point", "coordinates": [-95.926786,40.916309]}},
{ "type": "Feature", "properties": {"Name":"Naper village","State":"Nebraska","State_Abbrev":"NE"},
"geometry":{ "type": "Point", "coordinates": [-99.097,42.964168]}},
{ "type": "Feature", "properties": {"Name":"Naponee village","State":"Nebraska","State_Abbrev":"NE"},
"geometry":{ "type": "Point", "coordinates": [-99.138629,40.074733]}},
{ "type": "Feature", "properties": {"Name":"Nebraska City city","State":"Nebraska","State_Abbrev":"NE"},
"geometry":{ "type": "Point", "coordinates": [-95.861631,40.675907]}},
{ "type": "Feature", "properties": {"Name":"Nehawka village","State":"Nebraska","State_Abbrev":"NE"},
"geometry":{ "type": "Point", "coordinates": [-95.990007,40.82961]}},
{ "type": "Feature", "properties": {"Name":"Neligh city","State":"Nebraska","State_Abbrev":"NE"},
"geometry":{ "type": "Point", "coordinates": [-98.029229,42.129093]}},
{ "type": "Feature", "properties": {"Name":"Nelson city","State":"Nebraska","State_Abbrev":"NE"},
"geometry":{ "type": "Point", "coordinates": [-98.06863,40.201167]}},
{ "type": "Feature", "properties": {"Name":"Nemaha village","State":"Nebraska","State_Abbrev":"NE"},
"geometry":{ "type": "Point", "coordinates": [-95.675965,40.338801]}},
{ "type": "Feature", "properties": {"Name":"Nenzel village","State":"Nebraska","State_Abbrev":"NE"},
"geometry":{ "type": "Point", "coordinates": [-101.101804,42.927354]}},
{ "type": "Feature", "properties": {"Name":"Newcastle village","State":"Nebraska","State_Abbrev":"NE"},
"geometry":{ "type": "Point", "coordinates": [-96.87403,42.652413]}},
{ "type": "Feature", "properties": {"Name":"Newman Grove city","State":"Nebraska","State_Abbrev":"NE"},
"geometry":{ "type": "Point", "coordinates": [-97.776702,41.746892]}},
{ "type": "Feature", "properties": {"Name":"Newport village","State":"Nebraska","State_Abbrev":"NE"},
"geometry":{ "type": "Point", "coordinates": [-99.328302,42.600218]}},
{ "type": "Feature", "properties": {"Name":"Nickerson village","State":"Nebraska","State_Abbrev":"NE"},
"geometry":{ "type": "Point", "coordinates": [-96.47085,41.534723]}},
{ "type": "Feature", "properties": {"Name":"Niobrara village","State":"Nebraska","State_Abbrev":"NE"},
"geometry":{ "type": "Point", "coordinates": [-98.031505,42.74995]}},
{ "type": "Feature", "properties": {"Name":"Nora village","State":"Nebraska","State_Abbrev":"NE"},
"geometry":{ "type": "Point", "coordinates": [-97.973788,40.164141]}},
{ "type": "Feature", "properties": {"Name":"Norfolk city","State":"Nebraska","State_Abbrev":"NE"},
"geometry":{ "type": "Point", "coordinates": [-97.429604,42.028425]}},
{ "type": "Feature", "properties": {"Name":"Norman village","State":"Nebraska","State_Abbrev":"NE"},
"geometry":{ "type": "Point", "coordinates": [-98.792102,40.479154]}},
{ "type": "Feature", "properties": {"Name":"North Bend city","State":"Nebraska","State_Abbrev":"NE"},
"geometry":{ "type": "Point", "coordinates": [-96.785754,41.461968]}},
{ "type": "Feature", "properties": {"Name":"North Loup village","State":"Nebraska","State_Abbrev":"NE"},
"geometry":{ "type": "Point", "coordinates": [-98.772677,41.495451]}},
{ "type": "Feature", "properties": {"Name":"North Platte city","State":"Nebraska","State_Abbrev":"NE"},
"geometry":{ "type": "Point", "coordinates": [-100.76427,41.127117]}},
{ "type": "Feature", "properties": {"Name":"Oak village","State":"Nebraska","State_Abbrev":"NE"},
"geometry":{ "type": "Point", "coordinates": [-97.903649,40.238155]}},
{ "type": "Feature", "properties": {"Name":"Oakdale village","State":"Nebraska","State_Abbrev":"NE"},
"geometry":{ "type": "Point", "coordinates": [-97.967159,42.070084]}},
{ "type": "Feature", "properties": {"Name":"Oakland city","State":"Nebraska","State_Abbrev":"NE"},
"geometry":{ "type": "Point", "coordinates": [-96.467051,41.835081]}},
{ "type": "Feature", "properties": {"Name":"Obert village","State":"Nebraska","State_Abbrev":"NE"},
"geometry":{ "type": "Point", "coordinates": [-97.027222,42.689511]}},
{ "type": "Feature", "properties": {"Name":"Oconto village","State":"Nebraska","State_Abbrev":"NE"},
"geometry":{ "type": "Point", "coordinates": [-99.761938,41.141659]}},
{ "type": "Feature", "properties": {"Name":"Octavia village","State":"Nebraska","State_Abbrev":"NE"},
"geometry":{ "type": "Point", "coordinates": [-97.058953,41.347373]}},
{ "type": "Feature", "properties": {"Name":"Odell village","State":"Nebraska","State_Abbrev":"NE"},
"geometry":{ "type": "Point", "coordinates": [-96.801673,40.050377]}},
{ "type": "Feature", "properties": {"Name":"Odessa CDP","State":"Nebraska","State_Abbrev":"NE"},
"geometry":{ "type": "Point", "coordinates": [-99.25441,40.699108]}},
{ "type": "Feature", "properties": {"Name":"Offutt AFB CDP","State":"Nebraska","State_Abbrev":"NE"},
"geometry":{ "type": "Point", "coordinates": [-95.921108,41.120993]}},
{ "type": "Feature", "properties": {"Name":"Ogallala city","State":"Nebraska","State_Abbrev":"NE"},
"geometry":{ "type": "Point", "coordinates": [-101.720677,41.129595]}},
{ "type": "Feature", "properties": {"Name":"Ohiowa village","State":"Nebraska","State_Abbrev":"NE"},
"geometry":{ "type": "Point", "coordinates": [-97.452375,40.413641]}},
{ "type": "Feature", "properties": {"Name":"Omaha city","State":"Nebraska","State_Abbrev":"NE"},
"geometry":{ "type": "Point", "coordinates": [-96.053475,41.262705]}},
{ "type": "Feature", "properties": {"Name":"O'Neill city","State":"Nebraska","State_Abbrev":"NE"},
"geometry":{ "type": "Point", "coordinates": [-98.646493,42.461019]}},
{ "type": "Feature", "properties": {"Name":"Ong village","State":"Nebraska","State_Abbrev":"NE"},
"geometry":{ "type": "Point", "coordinates": [-97.83923,40.398332]}},
{ "type": "Feature", "properties": {"Name":"Orchard village","State":"Nebraska","State_Abbrev":"NE"},
"geometry":{ "type": "Point", "coordinates": [-98.240919,42.336475]}},
{ "type": "Feature", "properties": {"Name":"Ord city","State":"Nebraska","State_Abbrev":"NE"},
"geometry":{ "type": "Point", "coordinates": [-98.919257,41.602781]}},
{ "type": "Feature", "properties": {"Name":"Orleans village","State":"Nebraska","State_Abbrev":"NE"},
"geometry":{ "type": "Point", "coordinates": [-99.455099,40.131722]}},
{ "type": "Feature", "properties": {"Name":"Osceola city","State":"Nebraska","State_Abbrev":"NE"},
"geometry":{ "type": "Point", "coordinates": [-97.550044,41.178484]}},
{ "type": "Feature", "properties": {"Name":"Oshkosh city","State":"Nebraska","State_Abbrev":"NE"},
"geometry":{ "type": "Point", "coordinates": [-102.345209,41.408005]}},
{ "type": "Feature", "properties": {"Name":"Osmond city","State":"Nebraska","State_Abbrev":"NE"},
"geometry":{ "type": "Point", "coordinates": [-97.599135,42.358156]}},
{ "type": "Feature", "properties": {"Name":"Otoe village","State":"Nebraska","State_Abbrev":"NE"},
"geometry":{ "type": "Point", "coordinates": [-96.12061,40.724075]}},
{ "type": "Feature", "properties": {"Name":"Overland CDP","State":"Nebraska","State_Abbrev":"NE"},
"geometry":{ "type": "Point", "coordinates": [-97.978905,41.08024]}},
{ "type": "Feature", "properties": {"Name":"Overton village","State":"Nebraska","State_Abbrev":"NE"},
"geometry":{ "type": "Point", "coordinates": [-99.53741,40.74057]}},
{ "type": "Feature", "properties": {"Name":"Oxford village","State":"Nebraska","State_Abbrev":"NE"},
"geometry":{ "type": "Point", "coordinates": [-99.63221,40.253033]}},
{ "type": "Feature", "properties": {"Name":"Page village","State":"Nebraska","State_Abbrev":"NE"},
"geometry":{ "type": "Point", "coordinates": [-98.417668,42.400011]}},
{ "type": "Feature", "properties": {"Name":"Palisade village","State":"Nebraska","State_Abbrev":"NE"},
"geometry":{ "type": "Point", "coordinates": [-101.107462,40.348404]}},
{ "type": "Feature", "properties": {"Name":"Palmer village","State":"Nebraska","State_Abbrev":"NE"},
"geometry":{ "type": "Point", "coordinates": [-98.259761,41.22241]}},
{ "type": "Feature", "properties": {"Name":"Palmyra village","State":"Nebraska","State_Abbrev":"NE"},
"geometry":{ "type": "Point", "coordinates": [-96.392119,40.7057]}},
{ "type": "Feature", "properties": {"Name":"Panama village","State":"Nebraska","State_Abbrev":"NE"},
"geometry":{ "type": "Point", "coordinates": [-96.511169,40.599804]}},
{ "type": "Feature", "properties": {"Name":"Papillion city","State":"Nebraska","State_Abbrev":"NE"},
"geometry":{ "type": "Point", "coordinates": [-96.07809,41.143376]}},
{ "type": "Feature", "properties": {"Name":"Parks CDP","State":"Nebraska","State_Abbrev":"NE"},
"geometry":{ "type": "Point", "coordinates": [-101.725113,40.04362]}},
{ "type": "Feature", "properties": {"Name":"Pawnee City city","State":"Nebraska","State_Abbrev":"NE"},
"geometry":{ "type": "Point", "coordinates": [-96.152966,40.110621]}},
{ "type": "Feature", "properties": {"Name":"Paxton village","State":"Nebraska","State_Abbrev":"NE"},
"geometry":{ "type": "Point", "coordinates": [-101.351957,41.123371]}},
{ "type": "Feature", "properties": {"Name":"Pender village","State":"Nebraska","State_Abbrev":"NE"},
"geometry":{ "type": "Point", "coordinates": [-96.711515,42.110615]}},
{ "type": "Feature", "properties": {"Name":"Peru city","State":"Nebraska","State_Abbrev":"NE"},
"geometry":{ "type": "Point", "coordinates": [-95.731392,40.478512]}},
{ "type": "Feature", "properties": {"Name":"Petersburg village","State":"Nebraska","State_Abbrev":"NE"},
"geometry":{ "type": "Point", "coordinates": [-98.081198,41.853629]}},
{ "type": "Feature", "properties": {"Name":"Phillips village","State":"Nebraska","State_Abbrev":"NE"},
"geometry":{ "type": "Point", "coordinates": [-98.214594,40.89767]}},
{ "type": "Feature", "properties": {"Name":"Pickrell village","State":"Nebraska","State_Abbrev":"NE"},
"geometry":{ "type": "Point", "coordinates": [-96.729117,40.378319]}},
{ "type": "Feature", "properties": {"Name":"Pierce city","State":"Nebraska","State_Abbrev":"NE"},
"geometry":{ "type": "Point", "coordinates": [-97.527952,42.199274]}},
{ "type": "Feature", "properties": {"Name":"Pilger village","State":"Nebraska","State_Abbrev":"NE"},
"geometry":{ "type": "Point", "coordinates": [-97.054876,42.007495]}},
{ "type": "Feature", "properties": {"Name":"Plainview city","State":"Nebraska","State_Abbrev":"NE"},
"geometry":{ "type": "Point", "coordinates": [-97.787145,42.353346]}},
{ "type": "Feature", "properties": {"Name":"Platte Center village","State":"Nebraska","State_Abbrev":"NE"},
"geometry":{ "type": "Point", "coordinates": [-97.488475,41.537427]}},
{ "type": "Feature", "properties": {"Name":"Plattsmouth city","State":"Nebraska","State_Abbrev":"NE"},
"geometry":{ "type": "Point", "coordinates": [-95.893088,41.006236]}},
{ "type": "Feature", "properties": {"Name":"Pleasant Dale village","State":"Nebraska","State_Abbrev":"NE"},
"geometry":{ "type": "Point", "coordinates": [-96.932966,40.79121]}},
{ "type": "Feature", "properties": {"Name":"Pleasanton village","State":"Nebraska","State_Abbrev":"NE"},
"geometry":{ "type": "Point", "coordinates": [-99.087826,40.969882]}},
{ "type": "Feature", "properties": {"Name":"Plymouth village","State":"Nebraska","State_Abbrev":"NE"},
"geometry":{ "type": "Point", "coordinates": [-96.988492,40.302516]}},
{ "type": "Feature", "properties": {"Name":"Polk village","State":"Nebraska","State_Abbrev":"NE"},
"geometry":{ "type": "Point", "coordinates": [-97.783774,41.075208]}},
{ "type": "Feature", "properties": {"Name":"Ponca city","State":"Nebraska","State_Abbrev":"NE"},
"geometry":{ "type": "Point", "coordinates": [-96.709162,42.564953]}},
{ "type": "Feature", "properties": {"Name":"Poole CDP","State":"Nebraska","State_Abbrev":"NE"},
"geometry":{ "type": "Point", "coordinates": [-98.960594,40.992269]}},
{ "type": "Feature", "properties": {"Name":"Potter village","State":"Nebraska","State_Abbrev":"NE"},
"geometry":{ "type": "Point", "coordinates": [-103.307428,41.217308]}},
{ "type": "Feature", "properties": {"Name":"Prague village","State":"Nebraska","State_Abbrev":"NE"},
"geometry":{ "type": "Point", "coordinates": [-96.808157,41.309512]}},
{ "type": "Feature", "properties": {"Name":"Prairie Home CDP","State":"Nebraska","State_Abbrev":"NE"},
"geometry":{ "type": "Point", "coordinates": [-96.524538,40.862006]}},
{ "type": "Feature", "properties": {"Name":"Preston village","State":"Nebraska","State_Abbrev":"NE"},
"geometry":{ "type": "Point", "coordinates": [-95.518106,40.034587]}},
{ "type": "Feature", "properties": {"Name":"Primrose village","State":"Nebraska","State_Abbrev":"NE"},
"geometry":{ "type": "Point", "coordinates": [-98.237395,41.623798]}},
{ "type": "Feature", "properties": {"Name":"Princeton CDP","State":"Nebraska","State_Abbrev":"NE"},
"geometry":{ "type": "Point", "coordinates": [-96.70595,40.576029]}},
{ "type": "Feature", "properties": {"Name":"Prosser village","State":"Nebraska","State_Abbrev":"NE"},
"geometry":{ "type": "Point", "coordinates": [-98.577967,40.687385]}},
{ "type": "Feature", "properties": {"Name":"Raeville CDP","State":"Nebraska","State_Abbrev":"NE"},
"geometry":{ "type": "Point", "coordinates": [-98.053616,41.895582]}},
{ "type": "Feature", "properties": {"Name":"Ragan village","State":"Nebraska","State_Abbrev":"NE"},
"geometry":{ "type": "Point", "coordinates": [-99.289628,40.310771]}},
{ "type": "Feature", "properties": {"Name":"Ralston city","State":"Nebraska","State_Abbrev":"NE"},
"geometry":{ "type": "Point", "coordinates": [-96.037825,41.20001]}},
{ "type": "Feature", "properties": {"Name":"Randolph city","State":"Nebraska","State_Abbrev":"NE"},
"geometry":{ "type": "Point", "coordinates": [-97.357757,42.377909]}},
{ "type": "Feature", "properties": {"Name":"Ravenna city","State":"Nebraska","State_Abbrev":"NE"},
"geometry":{ "type": "Point", "coordinates": [-98.907265,41.023598]}},
{ "type": "Feature", "properties": {"Name":"Raymond village","State":"Nebraska","State_Abbrev":"NE"},
"geometry":{ "type": "Point", "coordinates": [-96.781452,40.956822]}},
{ "type": "Feature", "properties": {"Name":"Red Cloud city","State":"Nebraska","State_Abbrev":"NE"},
"geometry":{ "type": "Point", "coordinates": [-98.522224,40.08642]}},
{ "type": "Feature", "properties": {"Name":"Republican City village","State":"Nebraska","State_Abbrev":"NE"},
"geometry":{ "type": "Point", "coordinates": [-99.222254,40.098748]}},
{ "type": "Feature", "properties": {"Name":"Reynolds village","State":"Nebraska","State_Abbrev":"NE"},
"geometry":{ "type": "Point", "coordinates": [-97.335947,40.059811]}},
{ "type": "Feature", "properties": {"Name":"Richfield CDP","State":"Nebraska","State_Abbrev":"NE"},
"geometry":{ "type": "Point", "coordinates": [-96.076324,41.110763]}},
{ "type": "Feature", "properties": {"Name":"Richland village","State":"Nebraska","State_Abbrev":"NE"},
"geometry":{ "type": "Point", "coordinates": [-97.214904,41.436862]}},
{ "type": "Feature", "properties": {"Name":"Rising City village","State":"Nebraska","State_Abbrev":"NE"},
"geometry":{ "type": "Point", "coordinates": [-97.297122,41.198102]}},
{ "type": "Feature", "properties": {"Name":"Riverdale village","State":"Nebraska","State_Abbrev":"NE"},
"geometry":{ "type": "Point", "coordinates": [-99.160459,40.783886]}},
{ "type": "Feature", "properties": {"Name":"Riverton village","State":"Nebraska","State_Abbrev":"NE"},
"geometry":{ "type": "Point", "coordinates": [-98.759642,40.089715]}},
{ "type": "Feature", "properties": {"Name":"Roca village","State":"Nebraska","State_Abbrev":"NE"},
"geometry":{ "type": "Point", "coordinates": [-96.661408,40.658465]}},
{ "type": "Feature", "properties": {"Name":"Rockville village","State":"Nebraska","State_Abbrev":"NE"},
"geometry":{ "type": "Point", "coordinates": [-98.831076,41.118479]}},
{ "type": "Feature", "properties": {"Name":"Rogers village","State":"Nebraska","State_Abbrev":"NE"},
"geometry":{ "type": "Point", "coordinates": [-96.915806,41.464272]}},
{ "type": "Feature", "properties": {"Name":"Rosalie village","State":"Nebraska","State_Abbrev":"NE"},
"geometry":{ "type": "Point", "coordinates": [-96.512761,42.057348]}},
{ "type": "Feature", "properties": {"Name":"Roscoe CDP","State":"Nebraska","State_Abbrev":"NE"},
"geometry":{ "type": "Point", "coordinates": [-101.585195,41.131613]}},
{ "type": "Feature", "properties": {"Name":"Roseland village","State":"Nebraska","State_Abbrev":"NE"},
"geometry":{ "type": "Point", "coordinates": [-98.558704,40.469698]}},
{ "type": "Feature", "properties": {"Name":"Royal village","State":"Nebraska","State_Abbrev":"NE"},
"geometry":{ "type": "Point", "coordinates": [-98.125047,42.332941]}},
{ "type": "Feature", "properties": {"Name":"Rulo village","State":"Nebraska","State_Abbrev":"NE"},
"geometry":{ "type": "Point", "coordinates": [-95.430573,40.051659]}},
{ "type": "Feature", "properties": {"Name":"Rushville city","State":"Nebraska","State_Abbrev":"NE"},
"geometry":{ "type": "Point", "coordinates": [-102.466563,42.71338]}},
{ "type": "Feature", "properties": {"Name":"Ruskin village","State":"Nebraska","State_Abbrev":"NE"},
"geometry":{ "type": "Point", "coordinates": [-97.86704,40.144007]}},
{ "type": "Feature", "properties": {"Name":"St. Edward city","State":"Nebraska","State_Abbrev":"NE"},
"geometry":{ "type": "Point", "coordinates": [-97.861197,41.571449]}},
{ "type": "Feature", "properties": {"Name":"St. Helena village","State":"Nebraska","State_Abbrev":"NE"},
"geometry":{ "type": "Point", "coordinates": [-97.248885,42.810655]}},
{ "type": "Feature", "properties": {"Name":"St. Libory CDP","State":"Nebraska","State_Abbrev":"NE"},
"geometry":{ "type": "Point", "coordinates": [-98.359077,41.08214]}},
{ "type": "Feature", "properties": {"Name":"St. Paul city","State":"Nebraska","State_Abbrev":"NE"},
"geometry":{ "type": "Point", "coordinates": [-98.459477,41.213712]}},
{ "type": "Feature", "properties": {"Name":"Salem village","State":"Nebraska","State_Abbrev":"NE"},
"geometry":{ "type": "Point", "coordinates": [-95.728522,40.076889]}},
{ "type": "Feature", "properties": {"Name":"Santee village","State":"Nebraska","State_Abbrev":"NE"},
"geometry":{ "type": "Point", "coordinates": [-97.84945,42.838695]}},
{ "type": "Feature", "properties": {"Name":"Sarben CDP","State":"Nebraska","State_Abbrev":"NE"},
"geometry":{ "type": "Point", "coordinates": [-101.304402,41.166277]}},
{ "type": "Feature", "properties": {"Name":"Sargent city","State":"Nebraska","State_Abbrev":"NE"},
"geometry":{ "type": "Point", "coordinates": [-99.368723,41.639896]}},
{ "type": "Feature", "properties": {"Name":"Saronville village","State":"Nebraska","State_Abbrev":"NE"},
"geometry":{ "type": "Point", "coordinates": [-97.938847,40.602841]}},
{ "type": "Feature", "properties": {"Name":"Schuyler city","State":"Nebraska","State_Abbrev":"NE"},
"geometry":{ "type": "Point", "coordinates": [-97.061591,41.450134]}},
{ "type": "Feature", "properties": {"Name":"Scotia village","State":"Nebraska","State_Abbrev":"NE"},
"geometry":{ "type": "Point", "coordinates": [-98.702415,41.467778]}},
{ "type": "Feature", "properties": {"Name":"Scottsbluff city","State":"Nebraska","State_Abbrev":"NE"},
"geometry":{ "type": "Point", "coordinates": [-103.662035,41.868088]}},
{ "type": "Feature", "properties": {"Name":"Scribner city","State":"Nebraska","State_Abbrev":"NE"},
"geometry":{ "type": "Point", "coordinates": [-96.665273,41.665244]}},
{ "type": "Feature", "properties": {"Name":"Seneca CDP","State":"Nebraska","State_Abbrev":"NE"},
"geometry":{ "type": "Point", "coordinates": [-100.832055,42.043949]}},
{ "type": "Feature", "properties": {"Name":"Seward city","State":"Nebraska","State_Abbrev":"NE"},
"geometry":{ "type": "Point", "coordinates": [-97.096092,40.910169]}},
{ "type": "Feature", "properties": {"Name":"Shelby village","State":"Nebraska","State_Abbrev":"NE"},
"geometry":{ "type": "Point", "coordinates": [-97.426267,41.194247]}},
{ "type": "Feature", "properties": {"Name":"Shelton village","State":"Nebraska","State_Abbrev":"NE"},
"geometry":{ "type": "Point", "coordinates": [-98.729387,40.778439]}},
{ "type": "Feature", "properties": {"Name":"Shickley village","State":"Nebraska","State_Abbrev":"NE"},
"geometry":{ "type": "Point", "coordinates": [-97.724088,40.416519]}},
{ "type": "Feature", "properties": {"Name":"Sholes village","State":"Nebraska","State_Abbrev":"NE"},
"geometry":{ "type": "Point", "coordinates": [-97.294619,42.334813]}},
{ "type": "Feature", "properties": {"Name":"Shubert village","State":"Nebraska","State_Abbrev":"NE"},
"geometry":{ "type": "Point", "coordinates": [-95.683615,40.235914]}},
{ "type": "Feature", "properties": {"Name":"Sidney city","State":"Nebraska","State_Abbrev":"NE"},
"geometry":{ "type": "Point", "coordinates": [-102.96954,41.133633]}},
{ "type": "Feature", "properties": {"Name":"Silver Creek village","State":"Nebraska","State_Abbrev":"NE"},
"geometry":{ "type": "Point", "coordinates": [-97.667087,41.314413]}},
{ "type": "Feature", "properties": {"Name":"Smithfield village","State":"Nebraska","State_Abbrev":"NE"},
"geometry":{ "type": "Point", "coordinates": [-99.740936,40.573302]}},
{ "type": "Feature", "properties": {"Name":"Snyder village","State":"Nebraska","State_Abbrev":"NE"},
"geometry":{ "type": "Point", "coordinates": [-96.786835,41.704573]}},
{ "type": "Feature", "properties": {"Name":"South Bend village","State":"Nebraska","State_Abbrev":"NE"},
"geometry":{ "type": "Point", "coordinates": [-96.248331,41.001959]}},
{ "type": "Feature", "properties": {"Name":"South Sioux City city","State":"Nebraska","State_Abbrev":"NE"},
"geometry":{ "type": "Point", "coordinates": [-96.413248,42.463048]}},
{ "type": "Feature", "properties": {"Name":"Spalding village","State":"Nebraska","State_Abbrev":"NE"},
"geometry":{ "type": "Point", "coordinates": [-98.362548,41.689281]}},
{ "type": "Feature", "properties": {"Name":"Spencer village","State":"Nebraska","State_Abbrev":"NE"},
"geometry":{ "type": "Point", "coordinates": [-98.699878,42.875585]}},
{ "type": "Feature", "properties": {"Name":"Sprague village","State":"Nebraska","State_Abbrev":"NE"},
"geometry":{ "type": "Point", "coordinates": [-96.744708,40.626563]}},
{ "type": "Feature", "properties": {"Name":"Springfield city","State":"Nebraska","State_Abbrev":"NE"},
"geometry":{ "type": "Point", "coordinates": [-96.148539,41.107246]}},
{ "type": "Feature", "properties": {"Name":"Springview village","State":"Nebraska","State_Abbrev":"NE"},
"geometry":{ "type": "Point", "coordinates": [-99.747541,42.824883]}},
{ "type": "Feature", "properties": {"Name":"Stamford village","State":"Nebraska","State_Abbrev":"NE"},
"geometry":{ "type": "Point", "coordinates": [-99.594438,40.131243]}},
{ "type": "Feature", "properties": {"Name":"Stanton city","State":"Nebraska","State_Abbrev":"NE"},
"geometry":{ "type": "Point", "coordinates": [-97.212275,41.948045]}},
{ "type": "Feature", "properties": {"Name":"Staplehurst village","State":"Nebraska","State_Abbrev":"NE"},
"geometry":{ "type": "Point", "coordinates": [-97.173191,40.974663]}},
{ "type": "Feature", "properties": {"Name":"Stapleton village","State":"Nebraska","State_Abbrev":"NE"},
"geometry":{ "type": "Point", "coordinates": [-100.51255,41.480198]}},
{ "type": "Feature", "properties": {"Name":"Steele City village","State":"Nebraska","State_Abbrev":"NE"},
"geometry":{ "type": "Point", "coordinates": [-97.022994,40.036558]}},
{ "type": "Feature", "properties": {"Name":"Steinauer village","State":"Nebraska","State_Abbrev":"NE"},
"geometry":{ "type": "Point", "coordinates": [-96.232901,40.207289]}},
{ "type": "Feature", "properties": {"Name":"Stella village","State":"Nebraska","State_Abbrev":"NE"},
"geometry":{ "type": "Point", "coordinates": [-95.773414,40.232213]}},
{ "type": "Feature", "properties": {"Name":"Sterling village","State":"Nebraska","State_Abbrev":"NE"},
"geometry":{ "type": "Point", "coordinates": [-96.377494,40.461216]}},
{ "type": "Feature", "properties": {"Name":"Stockham village","State":"Nebraska","State_Abbrev":"NE"},
"geometry":{ "type": "Point", "coordinates": [-97.943365,40.71641]}},
{ "type": "Feature", "properties": {"Name":"Stockville village","State":"Nebraska","State_Abbrev":"NE"},
"geometry":{ "type": "Point", "coordinates": [-100.384431,40.533628]}},
{ "type": "Feature", "properties": {"Name":"Strang village","State":"Nebraska","State_Abbrev":"NE"},
"geometry":{ "type": "Point", "coordinates": [-97.587094,40.414858]}},
{ "type": "Feature", "properties": {"Name":"Stratton village","State":"Nebraska","State_Abbrev":"NE"},
"geometry":{ "type": "Point", "coordinates": [-101.227937,40.15018]}},
{ "type": "Feature", "properties": {"Name":"Stromsburg city","State":"Nebraska","State_Abbrev":"NE"},
"geometry":{ "type": "Point", "coordinates": [-97.590615,41.116416]}},
{ "type": "Feature", "properties": {"Name":"Stuart village","State":"Nebraska","State_Abbrev":"NE"},
"geometry":{ "type": "Point", "coordinates": [-99.140459,42.600788]}},
{ "type": "Feature", "properties": {"Name":"Sumner village","State":"Nebraska","State_Abbrev":"NE"},
"geometry":{ "type": "Point", "coordinates": [-99.508084,40.949024]}},
{ "type": "Feature", "properties": {"Name":"Sunol CDP","State":"Nebraska","State_Abbrev":"NE"},
"geometry":{ "type": "Point", "coordinates": [-102.762746,41.154105]}},
{ "type": "Feature", "properties": {"Name":"Superior city","State":"Nebraska","State_Abbrev":"NE"},
"geometry":{ "type": "Point", "coordinates": [-98.061739,40.021712]}},
{ "type": "Feature", "properties": {"Name":"Surprise village","State":"Nebraska","State_Abbrev":"NE"},
"geometry":{ "type": "Point", "coordinates": [-97.309013,41.104445]}},
{ "type": "Feature", "properties": {"Name":"Sutherland village","State":"Nebraska","State_Abbrev":"NE"},
"geometry":{ "type": "Point", "coordinates": [-101.122671,41.16013]}},
{ "type": "Feature", "properties": {"Name":"Sutton city","State":"Nebraska","State_Abbrev":"NE"},
"geometry":{ "type": "Point", "coordinates": [-97.859129,40.60681]}},
{ "type": "Feature", "properties": {"Name":"Swanton village","State":"Nebraska","State_Abbrev":"NE"},
"geometry":{ "type": "Point", "coordinates": [-97.079821,40.379603]}},
{ "type": "Feature", "properties": {"Name":"Syracuse city","State":"Nebraska","State_Abbrev":"NE"},
"geometry":{ "type": "Point", "coordinates": [-96.182733,40.663504]}},
{ "type": "Feature", "properties": {"Name":"Table Rock village","State":"Nebraska","State_Abbrev":"NE"},
"geometry":{ "type": "Point", "coordinates": [-96.088716,40.17828]}},
{ "type": "Feature", "properties": {"Name":"Talmage village","State":"Nebraska","State_Abbrev":"NE"},
"geometry":{ "type": "Point", "coordinates": [-96.02385,40.531595]}},
{ "type": "Feature", "properties": {"Name":"Tamora CDP","State":"Nebraska","State_Abbrev":"NE"},
"geometry":{ "type": "Point", "coordinates": [-97.22952,40.894442]}},
{ "type": "Feature", "properties": {"Name":"Tarnov village","State":"Nebraska","State_Abbrev":"NE"},
"geometry":{ "type": "Point", "coordinates": [-97.502478,41.614799]}},
{ "type": "Feature", "properties": {"Name":"Taylor village","State":"Nebraska","State_Abbrev":"NE"},
"geometry":{ "type": "Point", "coordinates": [-99.381384,41.769604]}},
{ "type": "Feature", "properties": {"Name":"Tecumseh city","State":"Nebraska","State_Abbrev":"NE"},
"geometry":{ "type": "Point", "coordinates": [-96.188706,40.371816]}},
{ "type": "Feature", "properties": {"Name":"Tekamah city","State":"Nebraska","State_Abbrev":"NE"},
"geometry":{ "type": "Point", "coordinates": [-96.224498,41.777803]}},
{ "type": "Feature", "properties": {"Name":"Terrytown city","State":"Nebraska","State_Abbrev":"NE"},
"geometry":{ "type": "Point", "coordinates": [-103.670553,41.84713]}},
{ "type": "Feature", "properties": {"Name":"Thayer village","State":"Nebraska","State_Abbrev":"NE"},
"geometry":{ "type": "Point", "coordinates": [-97.496759,40.970104]}},
{ "type": "Feature", "properties": {"Name":"Thedford village","State":"Nebraska","State_Abbrev":"NE"},
"geometry":{ "type": "Point", "coordinates": [-100.574729,41.979172]}},
{ "type": "Feature", "properties": {"Name":"Thurston village","State":"Nebraska","State_Abbrev":"NE"},
"geometry":{ "type": "Point", "coordinates": [-96.7016,42.174737]}},
{ "type": "Feature", "properties": {"Name":"Tilden city","State":"Nebraska","State_Abbrev":"NE"},
"geometry":{ "type": "Point", "coordinates": [-97.831808,42.043494]}},
{ "type": "Feature", "properties": {"Name":"Tobias village","State":"Nebraska","State_Abbrev":"NE"},
"geometry":{ "type": "Point", "coordinates": [-97.336621,40.418502]}},
{ "type": "Feature", "properties": {"Name":"Trenton village","State":"Nebraska","State_Abbrev":"NE"},
"geometry":{ "type": "Point", "coordinates": [-101.013573,40.174733]}},
{ "type": "Feature", "properties": {"Name":"Trumbull village","State":"Nebraska","State_Abbrev":"NE"},
"geometry":{ "type": "Point", "coordinates": [-98.273454,40.68004]}},
{ "type": "Feature", "properties": {"Name":"Tryon CDP","State":"Nebraska","State_Abbrev":"NE"},
"geometry":{ "type": "Point", "coordinates": [-100.953594,41.558444]}},
{ "type": "Feature", "properties": {"Name":"Uehling village","State":"Nebraska","State_Abbrev":"NE"},
"geometry":{ "type": "Point", "coordinates": [-96.505644,41.734704]}},
{ "type": "Feature", "properties": {"Name":"Ulysses village","State":"Nebraska","State_Abbrev":"NE"},
"geometry":{ "type": "Point", "coordinates": [-97.203115,41.07208]}},
{ "type": "Feature", "properties": {"Name":"Unadilla village","State":"Nebraska","State_Abbrev":"NE"},
"geometry":{ "type": "Point", "coordinates": [-96.269895,40.683]}},
{ "type": "Feature", "properties": {"Name":"Union village","State":"Nebraska","State_Abbrev":"NE"},
"geometry":{ "type": "Point", "coordinates": [-95.921457,40.814362]}},
{ "type": "Feature", "properties": {"Name":"Upland village","State":"Nebraska","State_Abbrev":"NE"},
"geometry":{ "type": "Point", "coordinates": [-98.902563,40.319558]}},
{ "type": "Feature", "properties": {"Name":"Utica village","State":"Nebraska","State_Abbrev":"NE"},
"geometry":{ "type": "Point", "coordinates": [-97.345349,40.895279]}},
{ "type": "Feature", "properties": {"Name":"Valentine city","State":"Nebraska","State_Abbrev":"NE"},
"geometry":{ "type": "Point", "coordinates": [-100.547067,42.875511]}},
{ "type": "Feature", "properties": {"Name":"Valley city","State":"Nebraska","State_Abbrev":"NE"},
"geometry":{ "type": "Point", "coordinates": [-96.361576,41.317088]}},
{ "type": "Feature", "properties": {"Name":"Valparaiso village","State":"Nebraska","State_Abbrev":"NE"},
"geometry":{ "type": "Point", "coordinates": [-96.833595,41.08006]}},
{ "type": "Feature", "properties": {"Name":"Venango village","State":"Nebraska","State_Abbrev":"NE"},
"geometry":{ "type": "Point", "coordinates": [-102.044184,40.763664]}},
{ "type": "Feature", "properties": {"Name":"Venice CDP","State":"Nebraska","State_Abbrev":"NE"},
"geometry":{ "type": "Point", "coordinates": [-96.351907,41.239266]}},
{ "type": "Feature", "properties": {"Name":"Verdel village","State":"Nebraska","State_Abbrev":"NE"},
"geometry":{ "type": "Point", "coordinates": [-98.193296,42.811399]}},
{ "type": "Feature", "properties": {"Name":"Verdigre village","State":"Nebraska","State_Abbrev":"NE"},
"geometry":{ "type": "Point", "coordinates": [-98.035599,42.597246]}},
{ "type": "Feature", "properties": {"Name":"Verdon village","State":"Nebraska","State_Abbrev":"NE"},
"geometry":{ "type": "Point", "coordinates": [-95.711196,40.149086]}},
{ "type": "Feature", "properties": {"Name":"Virginia village","State":"Nebraska","State_Abbrev":"NE"},
"geometry":{ "type": "Point", "coordinates": [-96.498824,40.245859]}},
{ "type": "Feature", "properties": {"Name":"Waco village","State":"Nebraska","State_Abbrev":"NE"},
"geometry":{ "type": "Point", "coordinates": [-97.461837,40.897038]}},
{ "type": "Feature", "properties": {"Name":"Wahoo city","State":"Nebraska","State_Abbrev":"NE"},
"geometry":{ "type": "Point", "coordinates": [-96.617844,41.21712]}},
{ "type": "Feature", "properties": {"Name":"Wakefield city","State":"Nebraska","State_Abbrev":"NE"},
"geometry":{ "type": "Point", "coordinates": [-96.862925,42.266651]}},
{ "type": "Feature", "properties": {"Name":"Wallace village","State":"Nebraska","State_Abbrev":"NE"},
"geometry":{ "type": "Point", "coordinates": [-101.164482,40.837579]}},
{ "type": "Feature", "properties": {"Name":"Walthill village","State":"Nebraska","State_Abbrev":"NE"},
"geometry":{ "type": "Point", "coordinates": [-96.49287,42.148853]}},
{ "type": "Feature", "properties": {"Name":"Walton CDP","State":"Nebraska","State_Abbrev":"NE"},
"geometry":{ "type": "Point", "coordinates": [-96.565292,40.796224]}},
{ "type": "Feature", "properties": {"Name":"Wann CDP","State":"Nebraska","State_Abbrev":"NE"},
"geometry":{ "type": "Point", "coordinates": [-96.364161,41.141891]}},
{ "type": "Feature", "properties": {"Name":"Washington village","State":"Nebraska","State_Abbrev":"NE"},
"geometry":{ "type": "Point", "coordinates": [-96.207454,41.397626]}},
{ "type": "Feature", "properties": {"Name":"Waterbury village","State":"Nebraska","State_Abbrev":"NE"},
"geometry":{ "type": "Point", "coordinates": [-96.735582,42.45724]}},
{ "type": "Feature", "properties": {"Name":"Waterloo village","State":"Nebraska","State_Abbrev":"NE"},
"geometry":{ "type": "Point", "coordinates": [-96.287979,41.286824]}},
{ "type": "Feature", "properties": {"Name":"Wauneta village","State":"Nebraska","State_Abbrev":"NE"},
"geometry":{ "type": "Point", "coordinates": [-101.376611,40.416386]}},
{ "type": "Feature", "properties": {"Name":"Wausa village","State":"Nebraska","State_Abbrev":"NE"},
"geometry":{ "type": "Point", "coordinates": [-97.539305,42.497827]}},
{ "type": "Feature", "properties": {"Name":"Waverly city","State":"Nebraska","State_Abbrev":"NE"},
"geometry":{ "type": "Point", "coordinates": [-96.533911,40.911501]}},
{ "type": "Feature", "properties": {"Name":"Wayne city","State":"Nebraska","State_Abbrev":"NE"},
"geometry":{ "type": "Point", "coordinates": [-97.01092,42.238349]}},
{ "type": "Feature", "properties": {"Name":"Weeping Water city","State":"Nebraska","State_Abbrev":"NE"},
"geometry":{ "type": "Point", "coordinates": [-96.140302,40.869184]}},
{ "type": "Feature", "properties": {"Name":"Wellfleet village","State":"Nebraska","State_Abbrev":"NE"},
"geometry":{ "type": "Point", "coordinates": [-100.731818,40.753912]}},
{ "type": "Feature", "properties": {"Name":"Western village","State":"Nebraska","State_Abbrev":"NE"},
"geometry":{ "type": "Point", "coordinates": [-97.198396,40.393079]}},
{ "type": "Feature", "properties": {"Name":"Westerville CDP","State":"Nebraska","State_Abbrev":"NE"},
"geometry":{ "type": "Point", "coordinates": [-99.381796,41.396196]}},
{ "type": "Feature", "properties": {"Name":"Weston village","State":"Nebraska","State_Abbrev":"NE"},
"geometry":{ "type": "Point", "coordinates": [-96.741985,41.19314]}},
{ "type": "Feature", "properties": {"Name":"West Point city","State":"Nebraska","State_Abbrev":"NE"},
"geometry":{ "type": "Point", "coordinates": [-96.705918,41.837741]}},
{ "type": "Feature", "properties": {"Name":"White Clay CDP","State":"Nebraska","State_Abbrev":"NE"},
"geometry":{ "type": "Point", "coordinates": [-102.555017,42.997019]}},
{ "type": "Feature", "properties": {"Name":"Whitney village","State":"Nebraska","State_Abbrev":"NE"},
"geometry":{ "type": "Point", "coordinates": [-103.256697,42.783759]}},
{ "type": "Feature", "properties": {"Name":"Wilber city","State":"Nebraska","State_Abbrev":"NE"},
"geometry":{ "type": "Point", "coordinates": [-96.964863,40.480914]}},
{ "type": "Feature", "properties": {"Name":"Wilcox village","State":"Nebraska","State_Abbrev":"NE"},
"geometry":{ "type": "Point", "coordinates": [-99.169257,40.3644]}},
{ "type": "Feature", "properties": {"Name":"Willow Island CDP","State":"Nebraska","State_Abbrev":"NE"},
"geometry":{ "type": "Point", "coordinates": [-100.070711,40.890044]}},
{ "type": "Feature", "properties": {"Name":"Wilsonville village","State":"Nebraska","State_Abbrev":"NE"},
"geometry":{ "type": "Point", "coordinates": [-100.106678,40.1119]}},
{ "type": "Feature", "properties": {"Name":"Winnebago village","State":"Nebraska","State_Abbrev":"NE"},
"geometry":{ "type": "Point", "coordinates": [-96.471521,42.23838]}},
{ "type": "Feature", "properties": {"Name":"Winnetoon village","State":"Nebraska","State_Abbrev":"NE"},
"geometry":{ "type": "Point", "coordinates": [-97.960134,42.513528]}},
{ "type": "Feature", "properties": {"Name":"Winside village","State":"Nebraska","State_Abbrev":"NE"},
"geometry":{ "type": "Point", "coordinates": [-97.175392,42.177444]}},
{ "type": "Feature", "properties": {"Name":"Winslow village","State":"Nebraska","State_Abbrev":"NE"},
"geometry":{ "type": "Point", "coordinates": [-96.504695,41.610125]}},
{ "type": "Feature", "properties": {"Name":"Wisner city","State":"Nebraska","State_Abbrev":"NE"},
"geometry":{ "type": "Point", "coordinates": [-96.914345,41.989387]}},
{ "type": "Feature", "properties": {"Name":"Wolbach village","State":"Nebraska","State_Abbrev":"NE"},
"geometry":{ "type": "Point", "coordinates": [-98.390162,41.401728]}},
{ "type": "Feature", "properties": {"Name":"Wood Lake village","State":"Nebraska","State_Abbrev":"NE"},
"geometry":{ "type": "Point", "coordinates": [-100.237122,42.638344]}},
{ "type": "Feature", "properties": {"Name":"Woodland Hills CDP","State":"Nebraska","State_Abbrev":"NE"},
"geometry":{ "type": "Point", "coordinates": [-96.423603,40.751637]}},
{ "type": "Feature", "properties": {"Name":"Woodland Park CDP","State":"Nebraska","State_Abbrev":"NE"},
"geometry":{ "type": "Point", "coordinates": [-97.345189,42.05424]}},
{ "type": "Feature", "properties": {"Name":"Wood River city","State":"Nebraska","State_Abbrev":"NE"},
"geometry":{ "type": "Point", "coordinates": [-98.604177,40.819576]}},
{ "type": "Feature", "properties": {"Name":"Wymore city","State":"Nebraska","State_Abbrev":"NE"},
"geometry":{ "type": "Point", "coordinates": [-96.664159,40.121819]}},
{ "type": "Feature", "properties": {"Name":"Wynot village","State":"Nebraska","State_Abbrev":"NE"},
"geometry":{ "type": "Point", "coordinates": [-97.169737,42.739801]}},
{ "type": "Feature", "properties": {"Name":"Yankee Hill CDP","State":"Nebraska","State_Abbrev":"NE"},
"geometry":{ "type": "Point", "coordinates": [-96.732207,40.765472]}},
{ "type": "Feature", "properties": {"Name":"York city","State":"Nebraska","State_Abbrev":"NE"},
"geometry":{ "type": "Point", "coordinates": [-97.592745,40.870379]}},
{ "type": "Feature", "properties": {"Name":"Yutan city","State":"Nebraska","State_Abbrev":"NE"},
"geometry":{ "type": "Point", "coordinates": [-96.39573,41.242989]}}]}
