{"type":"FeatureCollection","features":[
{ "type": "Feature", "properties": {"Name":"Absecon city","State":"New Jersey","State_Abbrev":"NJ"},
"geometry":{ "type": "Point", "coordinates": [-74.493025,39.423563]}},
{ "type": "Feature", "properties": {"Name":"Absecon Highlands CDP","State":"New Jersey","State_Abbrev":"NJ"},
"geometry":{ "type": "Point", "coordinates": [-74.470231,39.442693]}},
{ "type": "Feature", "properties": {"Name":"Allamuchy CDP","State":"New Jersey","State_Abbrev":"NJ"},
"geometry":{ "type": "Point", "coordinates": [-74.811743,40.931361]}},
{ "type": "Feature", "properties": {"Name":"Allendale borough","State":"New Jersey","State_Abbrev":"NJ"},
"geometry":{ "type": "Point", "coordinates": [-74.133826,41.032669]}},
{ "type": "Feature", "properties": {"Name":"Allenhurst borough","State":"New Jersey","State_Abbrev":"NJ"},
"geometry":{ "type": "Point", "coordinates": [-74.002417,40.235945]}},
{ "type": "Feature", "properties": {"Name":"Allentown borough","State":"New Jersey","State_Abbrev":"NJ"},
"geometry":{ "type": "Point", "coordinates": [-74.590056,40.178578]}},
{ "type": "Feature", "properties": {"Name":"Allenwood CDP","State":"New Jersey","State_Abbrev":"NJ"},
"geometry":{ "type": "Point", "coordinates": [-74.09805,40.135366]}},
{ "type": "Feature", "properties": {"Name":"Alloway CDP","State":"New Jersey","State_Abbrev":"NJ"},
"geometry":{ "type": "Point", "coordinates": [-75.345303,39.561596]}},
{ "type": "Feature", "properties": {"Name":"Alpha borough","State":"New Jersey","State_Abbrev":"NJ"},
"geometry":{ "type": "Point", "coordinates": [-75.157052,40.659447]}},
{ "type": "Feature", "properties": {"Name":"Alpine borough","State":"New Jersey","State_Abbrev":"NJ"},
"geometry":{ "type": "Point", "coordinates": [-73.916896,40.968782]}},
{ "type": "Feature", "properties": {"Name":"Ampere North CDP","State":"New Jersey","State_Abbrev":"NJ"},
"geometry":{ "type": "Point", "coordinates": [-74.191831,40.77574]}},
{ "type": "Feature", "properties": {"Name":"Anderson CDP","State":"New Jersey","State_Abbrev":"NJ"},
"geometry":{ "type": "Point", "coordinates": [-74.925569,40.76126]}},
{ "type": "Feature", "properties": {"Name":"Andover borough","State":"New Jersey","State_Abbrev":"NJ"},
"geometry":{ "type": "Point", "coordinates": [-74.743701,40.985743]}},
{ "type": "Feature", "properties": {"Name":"Annandale CDP","State":"New Jersey","State_Abbrev":"NJ"},
"geometry":{ "type": "Point", "coordinates": [-74.888144,40.646818]}},
{ "type": "Feature", "properties": {"Name":"Arrowhead Lake CDP","State":"New Jersey","State_Abbrev":"NJ"},
"geometry":{ "type": "Point", "coordinates": [-75.317828,39.47512]}},
{ "type": "Feature", "properties": {"Name":"Asbury CDP","State":"New Jersey","State_Abbrev":"NJ"},
"geometry":{ "type": "Point", "coordinates": [-75.007826,40.698936]}},
{ "type": "Feature", "properties": {"Name":"Asbury Park city","State":"New Jersey","State_Abbrev":"NJ"},
"geometry":{ "type": "Point", "coordinates": [-74.010232,40.222884]}},
{ "type": "Feature", "properties": {"Name":"Ashland CDP","State":"New Jersey","State_Abbrev":"NJ"},
"geometry":{ "type": "Point", "coordinates": [-75.008265,39.876228]}},
{ "type": "Feature", "properties": {"Name":"Atco CDP","State":"New Jersey","State_Abbrev":"NJ"},
"geometry":{ "type": "Point", "coordinates": [-74.861738,39.769996]}},
{ "type": "Feature", "properties": {"Name":"Atlantic City city","State":"New Jersey","State_Abbrev":"NJ"},
"geometry":{ "type": "Point", "coordinates": [-74.45107,39.377337]}},
{ "type": "Feature", "properties": {"Name":"Atlantic Highlands borough","State":"New Jersey","State_Abbrev":"NJ"},
"geometry":{ "type": "Point", "coordinates": [-74.019836,40.411771]}},
{ "type": "Feature", "properties": {"Name":"Auburn CDP","State":"New Jersey","State_Abbrev":"NJ"},
"geometry":{ "type": "Point", "coordinates": [-75.356261,39.688041]}},
{ "type": "Feature", "properties": {"Name":"Audubon borough","State":"New Jersey","State_Abbrev":"NJ"},
"geometry":{ "type": "Point", "coordinates": [-75.072382,39.890128]}},
{ "type": "Feature", "properties": {"Name":"Audubon Park borough","State":"New Jersey","State_Abbrev":"NJ"},
"geometry":{ "type": "Point", "coordinates": [-75.088819,39.896837]}},
{ "type": "Feature", "properties": {"Name":"Avalon borough","State":"New Jersey","State_Abbrev":"NJ"},
"geometry":{ "type": "Point", "coordinates": [-74.739003,39.086453]}},
{ "type": "Feature", "properties": {"Name":"Avenel CDP","State":"New Jersey","State_Abbrev":"NJ"},
"geometry":{ "type": "Point", "coordinates": [-74.271626,40.584334]}},
{ "type": "Feature", "properties": {"Name":"Avon-by-the-Sea borough","State":"New Jersey","State_Abbrev":"NJ"},
"geometry":{ "type": "Point", "coordinates": [-74.015105,40.191418]}},
{ "type": "Feature", "properties": {"Name":"Barclay CDP","State":"New Jersey","State_Abbrev":"NJ"},
"geometry":{ "type": "Point", "coordinates": [-75.000829,39.901243]}},
{ "type": "Feature", "properties": {"Name":"Bargaintown CDP","State":"New Jersey","State_Abbrev":"NJ"},
"geometry":{ "type": "Point", "coordinates": [-74.590822,39.368123]}},
{ "type": "Feature", "properties": {"Name":"Barnegat CDP","State":"New Jersey","State_Abbrev":"NJ"},
"geometry":{ "type": "Point", "coordinates": [-74.221654,39.753903]}},
{ "type": "Feature", "properties": {"Name":"Barnegat Light borough","State":"New Jersey","State_Abbrev":"NJ"},
"geometry":{ "type": "Point", "coordinates": [-74.104953,39.753505]}},
{ "type": "Feature", "properties": {"Name":"Barrington borough","State":"New Jersey","State_Abbrev":"NJ"},
"geometry":{ "type": "Point", "coordinates": [-75.051362,39.868935]}},
{ "type": "Feature", "properties": {"Name":"Basking Ridge CDP","State":"New Jersey","State_Abbrev":"NJ"},
"geometry":{ "type": "Point", "coordinates": [-74.557631,40.706547]}},
{ "type": "Feature", "properties": {"Name":"Bay Head borough","State":"New Jersey","State_Abbrev":"NJ"},
"geometry":{ "type": "Point", "coordinates": [-74.048162,40.070315]}},
{ "type": "Feature", "properties": {"Name":"Bayonne city","State":"New Jersey","State_Abbrev":"NJ"},
"geometry":{ "type": "Point", "coordinates": [-74.110201,40.662495]}},
{ "type": "Feature", "properties": {"Name":"Beach Haven borough","State":"New Jersey","State_Abbrev":"NJ"},
"geometry":{ "type": "Point", "coordinates": [-74.251791,39.576031]}},
{ "type": "Feature", "properties": {"Name":"Beach Haven West CDP","State":"New Jersey","State_Abbrev":"NJ"},
"geometry":{ "type": "Point", "coordinates": [-74.234941,39.671611]}},
{ "type": "Feature", "properties": {"Name":"Beachwood borough","State":"New Jersey","State_Abbrev":"NJ"},
"geometry":{ "type": "Point", "coordinates": [-74.202189,39.928405]}},
{ "type": "Feature", "properties": {"Name":"Beattystown CDP","State":"New Jersey","State_Abbrev":"NJ"},
"geometry":{ "type": "Point", "coordinates": [-74.856004,40.820613]}},
{ "type": "Feature", "properties": {"Name":"Beckett CDP","State":"New Jersey","State_Abbrev":"NJ"},
"geometry":{ "type": "Point", "coordinates": [-75.359455,39.753142]}},
{ "type": "Feature", "properties": {"Name":"Bedminster CDP","State":"New Jersey","State_Abbrev":"NJ"},
"geometry":{ "type": "Point", "coordinates": [-74.660502,40.674281]}},
{ "type": "Feature", "properties": {"Name":"Beesleys Point CDP","State":"New Jersey","State_Abbrev":"NJ"},
"geometry":{ "type": "Point", "coordinates": [-74.634869,39.27718]}},
{ "type": "Feature", "properties": {"Name":"Belford CDP","State":"New Jersey","State_Abbrev":"NJ"},
"geometry":{ "type": "Point", "coordinates": [-74.078743,40.427906]}},
{ "type": "Feature", "properties": {"Name":"Belle Mead CDP","State":"New Jersey","State_Abbrev":"NJ"},
"geometry":{ "type": "Point", "coordinates": [-74.657017,40.468584]}},
{ "type": "Feature", "properties": {"Name":"Belleplain CDP","State":"New Jersey","State_Abbrev":"NJ"},
"geometry":{ "type": "Point", "coordinates": [-74.874857,39.25784]}},
{ "type": "Feature", "properties": {"Name":"Bellmawr borough","State":"New Jersey","State_Abbrev":"NJ"},
"geometry":{ "type": "Point", "coordinates": [-75.09467,39.866356]}},
{ "type": "Feature", "properties": {"Name":"Belmar borough","State":"New Jersey","State_Abbrev":"NJ"},
"geometry":{ "type": "Point", "coordinates": [-74.02444,40.179663]}},
{ "type": "Feature", "properties": {"Name":"Belvidere town","State":"New Jersey","State_Abbrev":"NJ"},
"geometry":{ "type": "Point", "coordinates": [-75.073337,40.829802]}},
{ "type": "Feature", "properties": {"Name":"Bergenfield borough","State":"New Jersey","State_Abbrev":"NJ"},
"geometry":{ "type": "Point", "coordinates": [-73.998001,40.922334]}},
{ "type": "Feature", "properties": {"Name":"Berlin borough","State":"New Jersey","State_Abbrev":"NJ"},
"geometry":{ "type": "Point", "coordinates": [-74.936985,39.792059]}},
{ "type": "Feature", "properties": {"Name":"Bernardsville borough","State":"New Jersey","State_Abbrev":"NJ"},
"geometry":{ "type": "Point", "coordinates": [-74.592602,40.730384]}},
{ "type": "Feature", "properties": {"Name":"Beverly city","State":"New Jersey","State_Abbrev":"NJ"},
"geometry":{ "type": "Point", "coordinates": [-74.921904,40.064811]}},
{ "type": "Feature", "properties": {"Name":"Blackwells Mills CDP","State":"New Jersey","State_Abbrev":"NJ"},
"geometry":{ "type": "Point", "coordinates": [-74.59829,40.480709]}},
{ "type": "Feature", "properties": {"Name":"Blackwood CDP","State":"New Jersey","State_Abbrev":"NJ"},
"geometry":{ "type": "Point", "coordinates": [-75.063754,39.799223]}},
{ "type": "Feature", "properties": {"Name":"Blairstown CDP","State":"New Jersey","State_Abbrev":"NJ"},
"geometry":{ "type": "Point", "coordinates": [-74.954738,40.987333]}},
{ "type": "Feature", "properties": {"Name":"Blawenburg CDP","State":"New Jersey","State_Abbrev":"NJ"},
"geometry":{ "type": "Point", "coordinates": [-74.698565,40.402646]}},
{ "type": "Feature", "properties": {"Name":"Bloomingdale borough","State":"New Jersey","State_Abbrev":"NJ"},
"geometry":{ "type": "Point", "coordinates": [-74.335613,41.035471]}},
{ "type": "Feature", "properties": {"Name":"Bloomsbury borough","State":"New Jersey","State_Abbrev":"NJ"},
"geometry":{ "type": "Point", "coordinates": [-75.076225,40.656886]}},
{ "type": "Feature", "properties": {"Name":"Bogota borough","State":"New Jersey","State_Abbrev":"NJ"},
"geometry":{ "type": "Point", "coordinates": [-74.029737,40.874293]}},
{ "type": "Feature", "properties": {"Name":"Boonton town","State":"New Jersey","State_Abbrev":"NJ"},
"geometry":{ "type": "Point", "coordinates": [-74.406369,40.903818]}},
{ "type": "Feature", "properties": {"Name":"Bordentown city","State":"New Jersey","State_Abbrev":"NJ"},
"geometry":{ "type": "Point", "coordinates": [-74.707679,40.149693]}},
{ "type": "Feature", "properties": {"Name":"Bound Brook borough","State":"New Jersey","State_Abbrev":"NJ"},
"geometry":{ "type": "Point", "coordinates": [-74.53725,40.567749]}},
{ "type": "Feature", "properties": {"Name":"Bradley Beach borough","State":"New Jersey","State_Abbrev":"NJ"},
"geometry":{ "type": "Point", "coordinates": [-74.012056,40.201604]}},
{ "type": "Feature", "properties": {"Name":"Bradley Gardens CDP","State":"New Jersey","State_Abbrev":"NJ"},
"geometry":{ "type": "Point", "coordinates": [-74.663442,40.572097]}},
{ "type": "Feature", "properties": {"Name":"Brainards CDP","State":"New Jersey","State_Abbrev":"NJ"},
"geometry":{ "type": "Point", "coordinates": [-75.169933,40.771764]}},
{ "type": "Feature", "properties": {"Name":"Branchville borough","State":"New Jersey","State_Abbrev":"NJ"},
"geometry":{ "type": "Point", "coordinates": [-74.749042,41.147238]}},
{ "type": "Feature", "properties": {"Name":"Brass Castle CDP","State":"New Jersey","State_Abbrev":"NJ"},
"geometry":{ "type": "Point", "coordinates": [-75.026401,40.763103]}},
{ "type": "Feature", "properties": {"Name":"Bridgeport CDP","State":"New Jersey","State_Abbrev":"NJ"},
"geometry":{ "type": "Point", "coordinates": [-75.346946,39.800908]}},
{ "type": "Feature", "properties": {"Name":"Bridgeton city","State":"New Jersey","State_Abbrev":"NJ"},
"geometry":{ "type": "Point", "coordinates": [-75.228595,39.429192]}},
{ "type": "Feature", "properties": {"Name":"Bridgeville CDP","State":"New Jersey","State_Abbrev":"NJ"},
"geometry":{ "type": "Point", "coordinates": [-75.031767,40.844168]}},
{ "type": "Feature", "properties": {"Name":"Bridgewater Center CDP","State":"New Jersey","State_Abbrev":"NJ"},
"geometry":{ "type": "Point", "coordinates": [-74.646096,40.602743]}},
{ "type": "Feature", "properties": {"Name":"Brielle borough","State":"New Jersey","State_Abbrev":"NJ"},
"geometry":{ "type": "Point", "coordinates": [-74.063676,40.105478]}},
{ "type": "Feature", "properties": {"Name":"Brigantine city","State":"New Jersey","State_Abbrev":"NJ"},
"geometry":{ "type": "Point", "coordinates": [-74.377902,39.413857]}},
{ "type": "Feature", "properties": {"Name":"Broadway CDP","State":"New Jersey","State_Abbrev":"NJ"},
"geometry":{ "type": "Point", "coordinates": [-75.04953,40.735575]}},
{ "type": "Feature", "properties": {"Name":"Brookdale CDP","State":"New Jersey","State_Abbrev":"NJ"},
"geometry":{ "type": "Point", "coordinates": [-74.179793,40.834296]}},
{ "type": "Feature", "properties": {"Name":"Brookfield CDP","State":"New Jersey","State_Abbrev":"NJ"},
"geometry":{ "type": "Point", "coordinates": [-75.071814,40.815021]}},
{ "type": "Feature", "properties": {"Name":"Brooklawn borough","State":"New Jersey","State_Abbrev":"NJ"},
"geometry":{ "type": "Point", "coordinates": [-75.120396,39.87935]}},
{ "type": "Feature", "properties": {"Name":"Brookside CDP","State":"New Jersey","State_Abbrev":"NJ"},
"geometry":{ "type": "Point", "coordinates": [-74.564042,40.79457]}},
{ "type": "Feature", "properties": {"Name":"Browns Mills CDP","State":"New Jersey","State_Abbrev":"NJ"},
"geometry":{ "type": "Point", "coordinates": [-74.569211,39.973149]}},
{ "type": "Feature", "properties": {"Name":"Brownville CDP","State":"New Jersey","State_Abbrev":"NJ"},
"geometry":{ "type": "Point", "coordinates": [-74.293339,40.399586]}},
{ "type": "Feature", "properties": {"Name":"Budd Lake CDP","State":"New Jersey","State_Abbrev":"NJ"},
"geometry":{ "type": "Point", "coordinates": [-74.736828,40.873494]}},
{ "type": "Feature", "properties": {"Name":"Buena borough","State":"New Jersey","State_Abbrev":"NJ"},
"geometry":{ "type": "Point", "coordinates": [-74.945204,39.52917]}},
{ "type": "Feature", "properties": {"Name":"Burleigh CDP","State":"New Jersey","State_Abbrev":"NJ"},
"geometry":{ "type": "Point", "coordinates": [-74.846651,39.047233]}},
{ "type": "Feature", "properties": {"Name":"Burlington city","State":"New Jersey","State_Abbrev":"NJ"},
"geometry":{ "type": "Point", "coordinates": [-74.852483,40.078824]}},
{ "type": "Feature", "properties": {"Name":"Butler borough","State":"New Jersey","State_Abbrev":"NJ"},
"geometry":{ "type": "Point", "coordinates": [-74.347003,40.997768]}},
{ "type": "Feature", "properties": {"Name":"Buttzville CDP","State":"New Jersey","State_Abbrev":"NJ"},
"geometry":{ "type": "Point", "coordinates": [-75.00617,40.828388]}},
{ "type": "Feature", "properties": {"Name":"Byram Center CDP","State":"New Jersey","State_Abbrev":"NJ"},
"geometry":{ "type": "Point", "coordinates": [-74.71256,40.932164]}},
{ "type": "Feature", "properties": {"Name":"Caldwell borough","State":"New Jersey","State_Abbrev":"NJ"},
"geometry":{ "type": "Point", "coordinates": [-74.277026,40.839235]}},
{ "type": "Feature", "properties": {"Name":"Califon borough","State":"New Jersey","State_Abbrev":"NJ"},
"geometry":{ "type": "Point", "coordinates": [-74.836915,40.719471]}},
{ "type": "Feature", "properties": {"Name":"Camden city","State":"New Jersey","State_Abbrev":"NJ"},
"geometry":{ "type": "Point", "coordinates": [-75.106644,39.936787]}},
{ "type": "Feature", "properties": {"Name":"Cape May city","State":"New Jersey","State_Abbrev":"NJ"},
"geometry":{ "type": "Point", "coordinates": [-74.898372,38.941147]}},
{ "type": "Feature", "properties": {"Name":"Cape May Court House CDP","State":"New Jersey","State_Abbrev":"NJ"},
"geometry":{ "type": "Point", "coordinates": [-74.822549,39.079177]}},
{ "type": "Feature", "properties": {"Name":"Cape May Point borough","State":"New Jersey","State_Abbrev":"NJ"},
"geometry":{ "type": "Point", "coordinates": [-74.965374,38.936909]}},
{ "type": "Feature", "properties": {"Name":"Carlls Corner CDP","State":"New Jersey","State_Abbrev":"NJ"},
"geometry":{ "type": "Point", "coordinates": [-75.203634,39.465903]}},
{ "type": "Feature", "properties": {"Name":"Carlstadt borough","State":"New Jersey","State_Abbrev":"NJ"},
"geometry":{ "type": "Point", "coordinates": [-74.062335,40.826431]}},
{ "type": "Feature", "properties": {"Name":"Carneys Point CDP","State":"New Jersey","State_Abbrev":"NJ"},
"geometry":{ "type": "Point", "coordinates": [-75.467996,39.705328]}},
{ "type": "Feature", "properties": {"Name":"Carteret borough","State":"New Jersey","State_Abbrev":"NJ"},
"geometry":{ "type": "Point", "coordinates": [-74.227457,40.58379]}},
{ "type": "Feature", "properties": {"Name":"Cedar Glen Lakes CDP","State":"New Jersey","State_Abbrev":"NJ"},
"geometry":{ "type": "Point", "coordinates": [-74.400284,39.953737]}},
{ "type": "Feature", "properties": {"Name":"Cedar Glen West CDP","State":"New Jersey","State_Abbrev":"NJ"},
"geometry":{ "type": "Point", "coordinates": [-74.285803,40.038015]}},
{ "type": "Feature", "properties": {"Name":"Cedar Knolls CDP","State":"New Jersey","State_Abbrev":"NJ"},
"geometry":{ "type": "Point", "coordinates": [-74.455194,40.818911]}},
{ "type": "Feature", "properties": {"Name":"Cedarville CDP","State":"New Jersey","State_Abbrev":"NJ"},
"geometry":{ "type": "Point", "coordinates": [-75.214477,39.338581]}},
{ "type": "Feature", "properties": {"Name":"Centre Grove CDP","State":"New Jersey","State_Abbrev":"NJ"},
"geometry":{ "type": "Point", "coordinates": [-75.13648,39.360939]}},
{ "type": "Feature", "properties": {"Name":"Chatham borough","State":"New Jersey","State_Abbrev":"NJ"},
"geometry":{ "type": "Point", "coordinates": [-74.38448,40.740686]}},
{ "type": "Feature", "properties": {"Name":"Cherry Hill Mall CDP","State":"New Jersey","State_Abbrev":"NJ"},
"geometry":{ "type": "Point", "coordinates": [-75.012356,39.938209]}},
{ "type": "Feature", "properties": {"Name":"Chesilhurst borough","State":"New Jersey","State_Abbrev":"NJ"},
"geometry":{ "type": "Point", "coordinates": [-74.880531,39.729795]}},
{ "type": "Feature", "properties": {"Name":"Chester borough","State":"New Jersey","State_Abbrev":"NJ"},
"geometry":{ "type": "Point", "coordinates": [-74.690085,40.790628]}},
{ "type": "Feature", "properties": {"Name":"Clayton borough","State":"New Jersey","State_Abbrev":"NJ"},
"geometry":{ "type": "Point", "coordinates": [-75.074397,39.664063]}},
{ "type": "Feature", "properties": {"Name":"Clearbrook CDP","State":"New Jersey","State_Abbrev":"NJ"},
"geometry":{ "type": "Point", "coordinates": [-74.465188,40.309839]}},
{ "type": "Feature", "properties": {"Name":"Clementon borough","State":"New Jersey","State_Abbrev":"NJ"},
"geometry":{ "type": "Point", "coordinates": [-74.983763,39.802681]}},
{ "type": "Feature", "properties": {"Name":"Cliffside Park borough","State":"New Jersey","State_Abbrev":"NJ"},
"geometry":{ "type": "Point", "coordinates": [-73.987932,40.82205]}},
{ "type": "Feature", "properties": {"Name":"Cliffwood Beach CDP","State":"New Jersey","State_Abbrev":"NJ"},
"geometry":{ "type": "Point", "coordinates": [-74.217841,40.44321]}},
{ "type": "Feature", "properties": {"Name":"Clifton city","State":"New Jersey","State_Abbrev":"NJ"},
"geometry":{ "type": "Point", "coordinates": [-74.160393,40.862137]}},
{ "type": "Feature", "properties": {"Name":"Clinton town","State":"New Jersey","State_Abbrev":"NJ"},
"geometry":{ "type": "Point", "coordinates": [-74.915205,40.636794]}},
{ "type": "Feature", "properties": {"Name":"Closter borough","State":"New Jersey","State_Abbrev":"NJ"},
"geometry":{ "type": "Point", "coordinates": [-73.960315,40.97289]}},
{ "type": "Feature", "properties": {"Name":"Clyde CDP","State":"New Jersey","State_Abbrev":"NJ"},
"geometry":{ "type": "Point", "coordinates": [-74.513189,40.487341]}},
{ "type": "Feature", "properties": {"Name":"Collings Lakes CDP","State":"New Jersey","State_Abbrev":"NJ"},
"geometry":{ "type": "Point", "coordinates": [-74.888418,39.595202]}},
{ "type": "Feature", "properties": {"Name":"Collingswood borough","State":"New Jersey","State_Abbrev":"NJ"},
"geometry":{ "type": "Point", "coordinates": [-75.078391,39.915275]}},
{ "type": "Feature", "properties": {"Name":"Cologne CDP","State":"New Jersey","State_Abbrev":"NJ"},
"geometry":{ "type": "Point", "coordinates": [-74.608404,39.493247]}},
{ "type": "Feature", "properties": {"Name":"Colonia CDP","State":"New Jersey","State_Abbrev":"NJ"},
"geometry":{ "type": "Point", "coordinates": [-74.311415,40.589329]}},
{ "type": "Feature", "properties": {"Name":"Columbia CDP","State":"New Jersey","State_Abbrev":"NJ"},
"geometry":{ "type": "Point", "coordinates": [-75.094062,40.925868]}},
{ "type": "Feature", "properties": {"Name":"Concordia CDP","State":"New Jersey","State_Abbrev":"NJ"},
"geometry":{ "type": "Point", "coordinates": [-74.447362,40.314592]}},
{ "type": "Feature", "properties": {"Name":"Connecticut Farms CDP","State":"New Jersey","State_Abbrev":"NJ"},
"geometry":{ "type": "Point", "coordinates": [-74.271549,40.693015]}},
{ "type": "Feature", "properties": {"Name":"Cookstown CDP","State":"New Jersey","State_Abbrev":"NJ"},
"geometry":{ "type": "Point", "coordinates": [-74.547654,40.043738]}},
{ "type": "Feature", "properties": {"Name":"Corbin City city","State":"New Jersey","State_Abbrev":"NJ"},
"geometry":{ "type": "Point", "coordinates": [-74.705578,39.301674]}},
{ "type": "Feature", "properties": {"Name":"Country Lake Estates CDP","State":"New Jersey","State_Abbrev":"NJ"},
"geometry":{ "type": "Point", "coordinates": [-74.537929,39.948988]}},
{ "type": "Feature", "properties": {"Name":"Cranbury CDP","State":"New Jersey","State_Abbrev":"NJ"},
"geometry":{ "type": "Point", "coordinates": [-74.520233,40.31345]}},
{ "type": "Feature", "properties": {"Name":"Crandon Lakes CDP","State":"New Jersey","State_Abbrev":"NJ"},
"geometry":{ "type": "Point", "coordinates": [-74.840512,41.122727]}},
{ "type": "Feature", "properties": {"Name":"Cranford CDP","State":"New Jersey","State_Abbrev":"NJ"},
"geometry":{ "type": "Point", "coordinates": [-74.308632,40.654374]}},
{ "type": "Feature", "properties": {"Name":"Cream Ridge CDP","State":"New Jersey","State_Abbrev":"NJ"},
"geometry":{ "type": "Point", "coordinates": [-74.537254,40.132217]}},
{ "type": "Feature", "properties": {"Name":"Cresskill borough","State":"New Jersey","State_Abbrev":"NJ"},
"geometry":{ "type": "Point", "coordinates": [-73.958313,40.940018]}},
{ "type": "Feature", "properties": {"Name":"Crestwood Village CDP","State":"New Jersey","State_Abbrev":"NJ"},
"geometry":{ "type": "Point", "coordinates": [-74.352073,39.955096]}},
{ "type": "Feature", "properties": {"Name":"Crosswicks CDP","State":"New Jersey","State_Abbrev":"NJ"},
"geometry":{ "type": "Point", "coordinates": [-74.636524,40.139855]}},
{ "type": "Feature", "properties": {"Name":"Cumberland-Hesstown CDP","State":"New Jersey","State_Abbrev":"NJ"},
"geometry":{ "type": "Point", "coordinates": [-74.914481,39.362237]}},
{ "type": "Feature", "properties": {"Name":"Dayton CDP","State":"New Jersey","State_Abbrev":"NJ"},
"geometry":{ "type": "Point", "coordinates": [-74.507789,40.377854]}},
{ "type": "Feature", "properties": {"Name":"Deal borough","State":"New Jersey","State_Abbrev":"NJ"},
"geometry":{ "type": "Point", "coordinates": [-73.997458,40.249701]}},
{ "type": "Feature", "properties": {"Name":"Deans CDP","State":"New Jersey","State_Abbrev":"NJ"},
"geometry":{ "type": "Point", "coordinates": [-74.515311,40.403154]}},
{ "type": "Feature", "properties": {"Name":"Deerfield Street CDP","State":"New Jersey","State_Abbrev":"NJ"},
"geometry":{ "type": "Point", "coordinates": [-75.243953,39.516398]}},
{ "type": "Feature", "properties": {"Name":"Delaware CDP","State":"New Jersey","State_Abbrev":"NJ"},
"geometry":{ "type": "Point", "coordinates": [-75.069436,40.892819]}},
{ "type": "Feature", "properties": {"Name":"Delaware Park CDP","State":"New Jersey","State_Abbrev":"NJ"},
"geometry":{ "type": "Point", "coordinates": [-75.188273,40.705117]}},
{ "type": "Feature", "properties": {"Name":"Delmont CDP","State":"New Jersey","State_Abbrev":"NJ"},
"geometry":{ "type": "Point", "coordinates": [-74.94944,39.215244]}},
{ "type": "Feature", "properties": {"Name":"Demarest borough","State":"New Jersey","State_Abbrev":"NJ"},
"geometry":{ "type": "Point", "coordinates": [-73.954921,40.954103]}},
{ "type": "Feature", "properties": {"Name":"Dennisville CDP","State":"New Jersey","State_Abbrev":"NJ"},
"geometry":{ "type": "Point", "coordinates": [-74.818386,39.206555]}},
{ "type": "Feature", "properties": {"Name":"Diamond Beach CDP","State":"New Jersey","State_Abbrev":"NJ"},
"geometry":{ "type": "Point", "coordinates": [-74.852865,38.959251]}},
{ "type": "Feature", "properties": {"Name":"Dividing Creek CDP","State":"New Jersey","State_Abbrev":"NJ"},
"geometry":{ "type": "Point", "coordinates": [-75.100213,39.270495]}},
{ "type": "Feature", "properties": {"Name":"Dorchester CDP","State":"New Jersey","State_Abbrev":"NJ"},
"geometry":{ "type": "Point", "coordinates": [-74.971267,39.269887]}},
{ "type": "Feature", "properties": {"Name":"Dorothy CDP","State":"New Jersey","State_Abbrev":"NJ"},
"geometry":{ "type": "Point", "coordinates": [-74.831974,39.404337]}},
{ "type": "Feature", "properties": {"Name":"Dover town","State":"New Jersey","State_Abbrev":"NJ"},
"geometry":{ "type": "Point", "coordinates": [-74.559163,40.8856]}},
{ "type": "Feature", "properties": {"Name":"Dover Beaches North CDP","State":"New Jersey","State_Abbrev":"NJ"},
"geometry":{ "type": "Point", "coordinates": [-74.070657,39.99354]}},
{ "type": "Feature", "properties": {"Name":"Dover Beaches South CDP","State":"New Jersey","State_Abbrev":"NJ"},
"geometry":{ "type": "Point", "coordinates": [-74.081731,39.954884]}},
{ "type": "Feature", "properties": {"Name":"Dumont borough","State":"New Jersey","State_Abbrev":"NJ"},
"geometry":{ "type": "Point", "coordinates": [-73.992428,40.945239]}},
{ "type": "Feature", "properties": {"Name":"Dunellen borough","State":"New Jersey","State_Abbrev":"NJ"},
"geometry":{ "type": "Point", "coordinates": [-74.465652,40.590294]}},
{ "type": "Feature", "properties": {"Name":"Dutch Neck CDP","State":"New Jersey","State_Abbrev":"NJ"},
"geometry":{ "type": "Point", "coordinates": [-75.278671,39.40166]}},
{ "type": "Feature", "properties": {"Name":"East Franklin CDP","State":"New Jersey","State_Abbrev":"NJ"},
"geometry":{ "type": "Point", "coordinates": [-74.471073,40.493307]}},
{ "type": "Feature", "properties": {"Name":"East Freehold CDP","State":"New Jersey","State_Abbrev":"NJ"},
"geometry":{ "type": "Point", "coordinates": [-74.241309,40.275752]}},
{ "type": "Feature", "properties": {"Name":"East Millstone CDP","State":"New Jersey","State_Abbrev":"NJ"},
"geometry":{ "type": "Point", "coordinates": [-74.569735,40.497223]}},
{ "type": "Feature", "properties": {"Name":"East Newark borough","State":"New Jersey","State_Abbrev":"NJ"},
"geometry":{ "type": "Point", "coordinates": [-74.162189,40.752011]}},
{ "type": "Feature", "properties": {"Name":"East Orange city","State":"New Jersey","State_Abbrev":"NJ"},
"geometry":{ "type": "Point", "coordinates": [-74.211655,40.765055]}},
{ "type": "Feature", "properties": {"Name":"East Rocky Hill CDP","State":"New Jersey","State_Abbrev":"NJ"},
"geometry":{ "type": "Point", "coordinates": [-74.618012,40.415152]}},
{ "type": "Feature", "properties": {"Name":"East Rutherford borough","State":"New Jersey","State_Abbrev":"NJ"},
"geometry":{ "type": "Point", "coordinates": [-74.085024,40.817097]}},
{ "type": "Feature", "properties": {"Name":"East Vineland CDP","State":"New Jersey","State_Abbrev":"NJ"},
"geometry":{ "type": "Point", "coordinates": [-74.905702,39.476623]}},
{ "type": "Feature", "properties": {"Name":"Eatontown borough","State":"New Jersey","State_Abbrev":"NJ"},
"geometry":{ "type": "Point", "coordinates": [-74.054123,40.291624]}},
{ "type": "Feature", "properties": {"Name":"Echelon CDP","State":"New Jersey","State_Abbrev":"NJ"},
"geometry":{ "type": "Point", "coordinates": [-74.99368,39.847234]}},
{ "type": "Feature", "properties": {"Name":"Edgewater borough","State":"New Jersey","State_Abbrev":"NJ"},
"geometry":{ "type": "Point", "coordinates": [-73.973793,40.82465]}},
{ "type": "Feature", "properties": {"Name":"Egg Harbor City city","State":"New Jersey","State_Abbrev":"NJ"},
"geometry":{ "type": "Point", "coordinates": [-74.595865,39.563687]}},
{ "type": "Feature", "properties": {"Name":"Elizabeth city","State":"New Jersey","State_Abbrev":"NJ"},
"geometry":{ "type": "Point", "coordinates": [-74.193503,40.666367]}},
{ "type": "Feature", "properties": {"Name":"Ellisburg CDP","State":"New Jersey","State_Abbrev":"NJ"},
"geometry":{ "type": "Point", "coordinates": [-75.009336,39.919889]}},
{ "type": "Feature", "properties": {"Name":"Elmer borough","State":"New Jersey","State_Abbrev":"NJ"},
"geometry":{ "type": "Point", "coordinates": [-75.174569,39.592258]}},
{ "type": "Feature", "properties": {"Name":"Elmwood Park borough","State":"New Jersey","State_Abbrev":"NJ"},
"geometry":{ "type": "Point", "coordinates": [-74.119514,40.904526]}},
{ "type": "Feature", "properties": {"Name":"Elwood CDP","State":"New Jersey","State_Abbrev":"NJ"},
"geometry":{ "type": "Point", "coordinates": [-74.707921,39.569375]}},
{ "type": "Feature", "properties": {"Name":"Emerson borough","State":"New Jersey","State_Abbrev":"NJ"},
"geometry":{ "type": "Point", "coordinates": [-74.023248,40.97499]}},
{ "type": "Feature", "properties": {"Name":"Encore at Monroe CDP","State":"New Jersey","State_Abbrev":"NJ"},
"geometry":{ "type": "Point", "coordinates": [-74.467097,40.319571]}},
{ "type": "Feature", "properties": {"Name":"Englewood city","State":"New Jersey","State_Abbrev":"NJ"},
"geometry":{ "type": "Point", "coordinates": [-73.972515,40.891197]}},
{ "type": "Feature", "properties": {"Name":"Englewood Cliffs borough","State":"New Jersey","State_Abbrev":"NJ"},
"geometry":{ "type": "Point", "coordinates": [-73.944654,40.884634]}},
{ "type": "Feature", "properties": {"Name":"English Creek CDP","State":"New Jersey","State_Abbrev":"NJ"},
"geometry":{ "type": "Point", "coordinates": [-74.65031,39.378511]}},
{ "type": "Feature", "properties": {"Name":"Englishtown borough","State":"New Jersey","State_Abbrev":"NJ"},
"geometry":{ "type": "Point", "coordinates": [-74.359584,40.296141]}},
{ "type": "Feature", "properties": {"Name":"Erma CDP","State":"New Jersey","State_Abbrev":"NJ"},
"geometry":{ "type": "Point", "coordinates": [-74.891954,38.994824]}},
{ "type": "Feature", "properties": {"Name":"Essex Fells borough","State":"New Jersey","State_Abbrev":"NJ"},
"geometry":{ "type": "Point", "coordinates": [-74.276226,40.828102]}},
{ "type": "Feature", "properties": {"Name":"Estell Manor city","State":"New Jersey","State_Abbrev":"NJ"},
"geometry":{ "type": "Point", "coordinates": [-74.775135,39.353933]}},
{ "type": "Feature", "properties": {"Name":"Fair Haven borough","State":"New Jersey","State_Abbrev":"NJ"},
"geometry":{ "type": "Point", "coordinates": [-74.038775,40.36194]}},
{ "type": "Feature", "properties": {"Name":"Fair Lawn borough","State":"New Jersey","State_Abbrev":"NJ"},
"geometry":{ "type": "Point", "coordinates": [-74.117505,40.93583]}},
{ "type": "Feature", "properties": {"Name":"Fairton CDP","State":"New Jersey","State_Abbrev":"NJ"},
"geometry":{ "type": "Point", "coordinates": [-75.208845,39.373352]}},
{ "type": "Feature", "properties": {"Name":"Fairview borough","State":"New Jersey","State_Abbrev":"NJ"},
"geometry":{ "type": "Point", "coordinates": [-74.003032,40.82111]}},
{ "type": "Feature", "properties": {"Name":"Fairview CDP","State":"New Jersey","State_Abbrev":"NJ"},
"geometry":{ "type": "Point", "coordinates": [-74.080588,40.365312]}},
{ "type": "Feature", "properties": {"Name":"Fanwood borough","State":"New Jersey","State_Abbrev":"NJ"},
"geometry":{ "type": "Point", "coordinates": [-74.385692,40.641701]}},
{ "type": "Feature", "properties": {"Name":"Far Hills borough","State":"New Jersey","State_Abbrev":"NJ"},
"geometry":{ "type": "Point", "coordinates": [-74.621537,40.690893]}},
{ "type": "Feature", "properties": {"Name":"Farmingdale borough","State":"New Jersey","State_Abbrev":"NJ"},
"geometry":{ "type": "Point", "coordinates": [-74.170082,40.198357]}},
{ "type": "Feature", "properties": {"Name":"Fieldsboro borough","State":"New Jersey","State_Abbrev":"NJ"},
"geometry":{ "type": "Point", "coordinates": [-74.733355,40.135471]}},
{ "type": "Feature", "properties": {"Name":"Finderne CDP","State":"New Jersey","State_Abbrev":"NJ"},
"geometry":{ "type": "Point", "coordinates": [-74.574237,40.561278]}},
{ "type": "Feature", "properties": {"Name":"Finesville CDP","State":"New Jersey","State_Abbrev":"NJ"},
"geometry":{ "type": "Point", "coordinates": [-75.171543,40.61159]}},
{ "type": "Feature", "properties": {"Name":"Flagtown CDP","State":"New Jersey","State_Abbrev":"NJ"},
"geometry":{ "type": "Point", "coordinates": [-74.691039,40.522523]}},
{ "type": "Feature", "properties": {"Name":"Flanders CDP","State":"New Jersey","State_Abbrev":"NJ"},
"geometry":{ "type": "Point", "coordinates": [-74.709761,40.843893]}},
{ "type": "Feature", "properties": {"Name":"Flemington borough","State":"New Jersey","State_Abbrev":"NJ"},
"geometry":{ "type": "Point", "coordinates": [-74.859869,40.508641]}},
{ "type": "Feature", "properties": {"Name":"Florence CDP","State":"New Jersey","State_Abbrev":"NJ"},
"geometry":{ "type": "Point", "coordinates": [-74.808773,40.11916]}},
{ "type": "Feature", "properties": {"Name":"Florham Park borough","State":"New Jersey","State_Abbrev":"NJ"},
"geometry":{ "type": "Point", "coordinates": [-74.394315,40.775992]}},
{ "type": "Feature", "properties": {"Name":"Folsom borough","State":"New Jersey","State_Abbrev":"NJ"},
"geometry":{ "type": "Point", "coordinates": [-74.843163,39.596745]}},
{ "type": "Feature", "properties": {"Name":"Fords CDP","State":"New Jersey","State_Abbrev":"NJ"},
"geometry":{ "type": "Point", "coordinates": [-74.313545,40.536036]}},
{ "type": "Feature", "properties": {"Name":"Forked River CDP","State":"New Jersey","State_Abbrev":"NJ"},
"geometry":{ "type": "Point", "coordinates": [-74.180757,39.825808]}},
{ "type": "Feature", "properties": {"Name":"Forsgate CDP","State":"New Jersey","State_Abbrev":"NJ"},
"geometry":{ "type": "Point", "coordinates": [-74.467813,40.349285]}},
{ "type": "Feature", "properties": {"Name":"Fort Dix CDP","State":"New Jersey","State_Abbrev":"NJ"},
"geometry":{ "type": "Point", "coordinates": [-74.611072,40.005611]}},
{ "type": "Feature", "properties": {"Name":"Fortescue CDP","State":"New Jersey","State_Abbrev":"NJ"},
"geometry":{ "type": "Point", "coordinates": [-75.170521,39.237004]}},
{ "type": "Feature", "properties": {"Name":"Fort Lee borough","State":"New Jersey","State_Abbrev":"NJ"},
"geometry":{ "type": "Point", "coordinates": [-73.971007,40.85064]}},
{ "type": "Feature", "properties": {"Name":"Franklin borough","State":"New Jersey","State_Abbrev":"NJ"},
"geometry":{ "type": "Point", "coordinates": [-74.588641,41.108997]}},
{ "type": "Feature", "properties": {"Name":"Franklin Center CDP","State":"New Jersey","State_Abbrev":"NJ"},
"geometry":{ "type": "Point", "coordinates": [-74.54141,40.531535]}},
{ "type": "Feature", "properties": {"Name":"Franklin Lakes borough","State":"New Jersey","State_Abbrev":"NJ"},
"geometry":{ "type": "Point", "coordinates": [-74.205653,41.007526]}},
{ "type": "Feature", "properties": {"Name":"Franklin Park CDP","State":"New Jersey","State_Abbrev":"NJ"},
"geometry":{ "type": "Point", "coordinates": [-74.542041,40.444632]}},
{ "type": "Feature", "properties": {"Name":"Franklinville CDP","State":"New Jersey","State_Abbrev":"NJ"},
"geometry":{ "type": "Point", "coordinates": [-75.072981,39.618004]}},
{ "type": "Feature", "properties": {"Name":"Freehold borough","State":"New Jersey","State_Abbrev":"NJ"},
"geometry":{ "type": "Point", "coordinates": [-74.275884,40.260219]}},
{ "type": "Feature", "properties": {"Name":"Frenchtown borough","State":"New Jersey","State_Abbrev":"NJ"},
"geometry":{ "type": "Point", "coordinates": [-75.052846,40.530537]}},
{ "type": "Feature", "properties": {"Name":"Gandys Beach CDP","State":"New Jersey","State_Abbrev":"NJ"},
"geometry":{ "type": "Point", "coordinates": [-75.234386,39.27255]}},
{ "type": "Feature", "properties": {"Name":"Garfield city","State":"New Jersey","State_Abbrev":"NJ"},
"geometry":{ "type": "Point", "coordinates": [-74.10825,40.879797]}},
{ "type": "Feature", "properties": {"Name":"Garwood borough","State":"New Jersey","State_Abbrev":"NJ"},
"geometry":{ "type": "Point", "coordinates": [-74.323152,40.651331]}},
{ "type": "Feature", "properties": {"Name":"Germania CDP","State":"New Jersey","State_Abbrev":"NJ"},
"geometry":{ "type": "Point", "coordinates": [-74.590766,39.514424]}},
{ "type": "Feature", "properties": {"Name":"Gibbsboro borough","State":"New Jersey","State_Abbrev":"NJ"},
"geometry":{ "type": "Point", "coordinates": [-74.966907,39.832567]}},
{ "type": "Feature", "properties": {"Name":"Gibbstown CDP","State":"New Jersey","State_Abbrev":"NJ"},
"geometry":{ "type": "Point", "coordinates": [-75.278082,39.82454]}},
{ "type": "Feature", "properties": {"Name":"Gillette CDP","State":"New Jersey","State_Abbrev":"NJ"},
"geometry":{ "type": "Point", "coordinates": [-74.456871,40.695179]}},
{ "type": "Feature", "properties": {"Name":"Glassboro borough","State":"New Jersey","State_Abbrev":"NJ"},
"geometry":{ "type": "Point", "coordinates": [-75.111423,39.700096]}},
{ "type": "Feature", "properties": {"Name":"Glendora CDP","State":"New Jersey","State_Abbrev":"NJ"},
"geometry":{ "type": "Point", "coordinates": [-75.067211,39.840937]}},
{ "type": "Feature", "properties": {"Name":"Glen Gardner borough","State":"New Jersey","State_Abbrev":"NJ"},
"geometry":{ "type": "Point", "coordinates": [-74.939521,40.700385]}},
{ "type": "Feature", "properties": {"Name":"Glen Ridge borough","State":"New Jersey","State_Abbrev":"NJ"},
"geometry":{ "type": "Point", "coordinates": [-74.204569,40.804798]}},
{ "type": "Feature", "properties": {"Name":"Glen Rock borough","State":"New Jersey","State_Abbrev":"NJ"},
"geometry":{ "type": "Point", "coordinates": [-74.125202,40.959471]}},
{ "type": "Feature", "properties": {"Name":"Gloucester City city","State":"New Jersey","State_Abbrev":"NJ"},
"geometry":{ "type": "Point", "coordinates": [-75.116692,39.891694]}},
{ "type": "Feature", "properties": {"Name":"Golden Triangle CDP","State":"New Jersey","State_Abbrev":"NJ"},
"geometry":{ "type": "Point", "coordinates": [-75.038827,39.928553]}},
{ "type": "Feature", "properties": {"Name":"Goshen CDP","State":"New Jersey","State_Abbrev":"NJ"},
"geometry":{ "type": "Point", "coordinates": [-74.846148,39.148107]}},
{ "type": "Feature", "properties": {"Name":"Gouldtown CDP","State":"New Jersey","State_Abbrev":"NJ"},
"geometry":{ "type": "Point", "coordinates": [-75.19119,39.415169]}},
{ "type": "Feature", "properties": {"Name":"Great Meadows CDP","State":"New Jersey","State_Abbrev":"NJ"},
"geometry":{ "type": "Point", "coordinates": [-74.896582,40.875812]}},
{ "type": "Feature", "properties": {"Name":"Great Notch CDP","State":"New Jersey","State_Abbrev":"NJ"},
"geometry":{ "type": "Point", "coordinates": [-74.208634,40.871476]}},
{ "type": "Feature", "properties": {"Name":"Green Knoll CDP","State":"New Jersey","State_Abbrev":"NJ"},
"geometry":{ "type": "Point", "coordinates": [-74.614511,40.604725]}},
{ "type": "Feature", "properties": {"Name":"Greentree CDP","State":"New Jersey","State_Abbrev":"NJ"},
"geometry":{ "type": "Point", "coordinates": [-74.96168,39.898668]}},
{ "type": "Feature", "properties": {"Name":"Green Village CDP","State":"New Jersey","State_Abbrev":"NJ"},
"geometry":{ "type": "Point", "coordinates": [-74.448347,40.737233]}},
{ "type": "Feature", "properties": {"Name":"Greenwich CDP","State":"New Jersey","State_Abbrev":"NJ"},
"geometry":{ "type": "Point", "coordinates": [-75.344386,39.389168]}},
{ "type": "Feature", "properties": {"Name":"Greenwich CDP","State":"New Jersey","State_Abbrev":"NJ"},
"geometry":{ "type": "Point", "coordinates": [-75.133821,40.684907]}},
{ "type": "Feature", "properties": {"Name":"Grenloch CDP","State":"New Jersey","State_Abbrev":"NJ"},
"geometry":{ "type": "Point", "coordinates": [-75.055456,39.782747]}},
{ "type": "Feature", "properties": {"Name":"Griggstown CDP","State":"New Jersey","State_Abbrev":"NJ"},
"geometry":{ "type": "Point", "coordinates": [-74.598319,40.439868]}},
{ "type": "Feature", "properties": {"Name":"Groveville CDP","State":"New Jersey","State_Abbrev":"NJ"},
"geometry":{ "type": "Point", "coordinates": [-74.651309,40.170087]}},
{ "type": "Feature", "properties": {"Name":"Guttenberg town","State":"New Jersey","State_Abbrev":"NJ"},
"geometry":{ "type": "Point", "coordinates": [-74.004572,40.792784]}},
{ "type": "Feature", "properties": {"Name":"Hackensack city","State":"New Jersey","State_Abbrev":"NJ"},
"geometry":{ "type": "Point", "coordinates": [-74.045698,40.889398]}},
{ "type": "Feature", "properties": {"Name":"Hackettstown town","State":"New Jersey","State_Abbrev":"NJ"},
"geometry":{ "type": "Point", "coordinates": [-74.824877,40.853704]}},
{ "type": "Feature", "properties": {"Name":"Haddonfield borough","State":"New Jersey","State_Abbrev":"NJ"},
"geometry":{ "type": "Point", "coordinates": [-75.034413,39.895416]}},
{ "type": "Feature", "properties": {"Name":"Haddon Heights borough","State":"New Jersey","State_Abbrev":"NJ"},
"geometry":{ "type": "Point", "coordinates": [-75.065918,39.879127]}},
{ "type": "Feature", "properties": {"Name":"Hainesburg CDP","State":"New Jersey","State_Abbrev":"NJ"},
"geometry":{ "type": "Point", "coordinates": [-75.052237,40.957233]}},
{ "type": "Feature", "properties": {"Name":"Haledon borough","State":"New Jersey","State_Abbrev":"NJ"},
"geometry":{ "type": "Point", "coordinates": [-74.188867,40.936989]}},
{ "type": "Feature", "properties": {"Name":"Hamburg borough","State":"New Jersey","State_Abbrev":"NJ"},
"geometry":{ "type": "Point", "coordinates": [-74.573416,41.148763]}},
{ "type": "Feature", "properties": {"Name":"Hamilton Square CDP","State":"New Jersey","State_Abbrev":"NJ"},
"geometry":{ "type": "Point", "coordinates": [-74.65048,40.225029]}},
{ "type": "Feature", "properties": {"Name":"Hammonton town","State":"New Jersey","State_Abbrev":"NJ"},
"geometry":{ "type": "Point", "coordinates": [-74.767021,39.66078]}},
{ "type": "Feature", "properties": {"Name":"Hampton borough","State":"New Jersey","State_Abbrev":"NJ"},
"geometry":{ "type": "Point", "coordinates": [-74.971525,40.70457]}},
{ "type": "Feature", "properties": {"Name":"Hancocks Bridge CDP","State":"New Jersey","State_Abbrev":"NJ"},
"geometry":{ "type": "Point", "coordinates": [-75.459316,39.505308]}},
{ "type": "Feature", "properties": {"Name":"Harlingen CDP","State":"New Jersey","State_Abbrev":"NJ"},
"geometry":{ "type": "Point", "coordinates": [-74.654587,40.451506]}},
{ "type": "Feature", "properties": {"Name":"Harmony CDP","State":"New Jersey","State_Abbrev":"NJ"},
"geometry":{ "type": "Point", "coordinates": [-75.137817,40.751232]}},
{ "type": "Feature", "properties": {"Name":"Harrington Park borough","State":"New Jersey","State_Abbrev":"NJ"},
"geometry":{ "type": "Point", "coordinates": [-73.980202,40.991681]}},
{ "type": "Feature", "properties": {"Name":"Harrison town","State":"New Jersey","State_Abbrev":"NJ"},
"geometry":{ "type": "Point", "coordinates": [-74.152911,40.742978]}},
{ "type": "Feature", "properties": {"Name":"Harrisonville CDP","State":"New Jersey","State_Abbrev":"NJ"},
"geometry":{ "type": "Point", "coordinates": [-75.277309,39.685659]}},
{ "type": "Feature", "properties": {"Name":"Harvey Cedars borough","State":"New Jersey","State_Abbrev":"NJ"},
"geometry":{ "type": "Point", "coordinates": [-74.141511,39.699578]}},
{ "type": "Feature", "properties": {"Name":"Hasbrouck Heights borough","State":"New Jersey","State_Abbrev":"NJ"},
"geometry":{ "type": "Point", "coordinates": [-74.075182,40.862751]}},
{ "type": "Feature", "properties": {"Name":"Haworth borough","State":"New Jersey","State_Abbrev":"NJ"},
"geometry":{ "type": "Point", "coordinates": [-73.99747,40.962737]}},
{ "type": "Feature", "properties": {"Name":"Hawthorne borough","State":"New Jersey","State_Abbrev":"NJ"},
"geometry":{ "type": "Point", "coordinates": [-74.158561,40.956957]}},
{ "type": "Feature", "properties": {"Name":"Heathcote CDP","State":"New Jersey","State_Abbrev":"NJ"},
"geometry":{ "type": "Point", "coordinates": [-74.577665,40.391003]}},
{ "type": "Feature", "properties": {"Name":"Heislerville CDP","State":"New Jersey","State_Abbrev":"NJ"},
"geometry":{ "type": "Point", "coordinates": [-74.991478,39.223659]}},
{ "type": "Feature", "properties": {"Name":"Helmetta borough","State":"New Jersey","State_Abbrev":"NJ"},
"geometry":{ "type": "Point", "coordinates": [-74.423384,40.378417]}},
{ "type": "Feature", "properties": {"Name":"Hewitt CDP","State":"New Jersey","State_Abbrev":"NJ"},
"geometry":{ "type": "Point", "coordinates": [-74.324789,41.176196]}},
{ "type": "Feature", "properties": {"Name":"Hibernia CDP","State":"New Jersey","State_Abbrev":"NJ"},
"geometry":{ "type": "Point", "coordinates": [-74.500876,40.944622]}},
{ "type": "Feature", "properties": {"Name":"High Bridge borough","State":"New Jersey","State_Abbrev":"NJ"},
"geometry":{ "type": "Point", "coordinates": [-74.890212,40.670111]}},
{ "type": "Feature", "properties": {"Name":"Highland Lakes CDP","State":"New Jersey","State_Abbrev":"NJ"},
"geometry":{ "type": "Point", "coordinates": [-74.463226,41.170559]}},
{ "type": "Feature", "properties": {"Name":"Highland Park borough","State":"New Jersey","State_Abbrev":"NJ"},
"geometry":{ "type": "Point", "coordinates": [-74.427911,40.500795]}},
{ "type": "Feature", "properties": {"Name":"Highlands borough","State":"New Jersey","State_Abbrev":"NJ"},
"geometry":{ "type": "Point", "coordinates": [-73.988186,40.404229]}},
{ "type": "Feature", "properties": {"Name":"Hightstown borough","State":"New Jersey","State_Abbrev":"NJ"},
"geometry":{ "type": "Point", "coordinates": [-74.525804,40.268457]}},
{ "type": "Feature", "properties": {"Name":"Hillsborough CDP","State":"New Jersey","State_Abbrev":"NJ"},
"geometry":{ "type": "Point", "coordinates": [-74.65288,40.508074]}},
{ "type": "Feature", "properties": {"Name":"Hillsdale borough","State":"New Jersey","State_Abbrev":"NJ"},
"geometry":{ "type": "Point", "coordinates": [-74.045119,41.007127]}},
{ "type": "Feature", "properties": {"Name":"Hi-Nella borough","State":"New Jersey","State_Abbrev":"NJ"},
"geometry":{ "type": "Point", "coordinates": [-75.021965,39.836516]}},
{ "type": "Feature", "properties": {"Name":"Hoboken city","State":"New Jersey","State_Abbrev":"NJ"},
"geometry":{ "type": "Point", "coordinates": [-74.027926,40.745251]}},
{ "type": "Feature", "properties": {"Name":"Ho-Ho-Kus borough","State":"New Jersey","State_Abbrev":"NJ"},
"geometry":{ "type": "Point", "coordinates": [-74.096583,40.9995]}},
{ "type": "Feature", "properties": {"Name":"Holiday City-Berkeley CDP","State":"New Jersey","State_Abbrev":"NJ"},
"geometry":{ "type": "Point", "coordinates": [-74.279647,39.962813]}},
{ "type": "Feature", "properties": {"Name":"Holiday City South CDP","State":"New Jersey","State_Abbrev":"NJ"},
"geometry":{ "type": "Point", "coordinates": [-74.237294,39.954094]}},
{ "type": "Feature", "properties": {"Name":"Holiday Heights CDP","State":"New Jersey","State_Abbrev":"NJ"},
"geometry":{ "type": "Point", "coordinates": [-74.257202,39.939577]}},
{ "type": "Feature", "properties": {"Name":"Hopatcong borough","State":"New Jersey","State_Abbrev":"NJ"},
"geometry":{ "type": "Point", "coordinates": [-74.662377,40.951649]}},
{ "type": "Feature", "properties": {"Name":"Hope CDP","State":"New Jersey","State_Abbrev":"NJ"},
"geometry":{ "type": "Point", "coordinates": [-74.958895,40.912086]}},
{ "type": "Feature", "properties": {"Name":"Hopelawn CDP","State":"New Jersey","State_Abbrev":"NJ"},
"geometry":{ "type": "Point", "coordinates": [-74.293633,40.528629]}},
{ "type": "Feature", "properties": {"Name":"Hopewell borough","State":"New Jersey","State_Abbrev":"NJ"},
"geometry":{ "type": "Point", "coordinates": [-74.763799,40.389309]}},
{ "type": "Feature", "properties": {"Name":"Hutchinson CDP","State":"New Jersey","State_Abbrev":"NJ"},
"geometry":{ "type": "Point", "coordinates": [-75.119963,40.779249]}},
{ "type": "Feature", "properties": {"Name":"Interlaken borough","State":"New Jersey","State_Abbrev":"NJ"},
"geometry":{ "type": "Point", "coordinates": [-74.015939,40.234313]}},
{ "type": "Feature", "properties": {"Name":"Iselin CDP","State":"New Jersey","State_Abbrev":"NJ"},
"geometry":{ "type": "Point", "coordinates": [-74.316371,40.570142]}},
{ "type": "Feature", "properties": {"Name":"Island Heights borough","State":"New Jersey","State_Abbrev":"NJ"},
"geometry":{ "type": "Point", "coordinates": [-74.143842,39.941804]}},
{ "type": "Feature", "properties": {"Name":"Jamesburg borough","State":"New Jersey","State_Abbrev":"NJ"},
"geometry":{ "type": "Point", "coordinates": [-74.440202,40.349038]}},
{ "type": "Feature", "properties": {"Name":"Jersey City city","State":"New Jersey","State_Abbrev":"NJ"},
"geometry":{ "type": "Point", "coordinates": [-74.06476,40.711417]}},
{ "type": "Feature", "properties": {"Name":"Jobstown CDP","State":"New Jersey","State_Abbrev":"NJ"},
"geometry":{ "type": "Point", "coordinates": [-74.700468,40.030929]}},
{ "type": "Feature", "properties": {"Name":"Johnsonburg CDP","State":"New Jersey","State_Abbrev":"NJ"},
"geometry":{ "type": "Point", "coordinates": [-74.870992,40.963004]}},
{ "type": "Feature", "properties": {"Name":"Juliustown CDP","State":"New Jersey","State_Abbrev":"NJ"},
"geometry":{ "type": "Point", "coordinates": [-74.67153,40.012088]}},
{ "type": "Feature", "properties": {"Name":"Keansburg borough","State":"New Jersey","State_Abbrev":"NJ"},
"geometry":{ "type": "Point", "coordinates": [-74.155634,40.451869]}},
{ "type": "Feature", "properties": {"Name":"Kean University CDP","State":"New Jersey","State_Abbrev":"NJ"},
"geometry":{ "type": "Point", "coordinates": [-74.233133,40.677882]}},
{ "type": "Feature", "properties": {"Name":"Kearny town","State":"New Jersey","State_Abbrev":"NJ"},
"geometry":{ "type": "Point", "coordinates": [-74.123093,40.752332]}},
{ "type": "Feature", "properties": {"Name":"Keasbey CDP","State":"New Jersey","State_Abbrev":"NJ"},
"geometry":{ "type": "Point", "coordinates": [-74.311856,40.514718]}},
{ "type": "Feature", "properties": {"Name":"Kendall Park CDP","State":"New Jersey","State_Abbrev":"NJ"},
"geometry":{ "type": "Point", "coordinates": [-74.562454,40.413402]}},
{ "type": "Feature", "properties": {"Name":"Kenilworth borough","State":"New Jersey","State_Abbrev":"NJ"},
"geometry":{ "type": "Point", "coordinates": [-74.288114,40.678089]}},
{ "type": "Feature", "properties": {"Name":"Kenvil CDP","State":"New Jersey","State_Abbrev":"NJ"},
"geometry":{ "type": "Point", "coordinates": [-74.61966,40.881052]}},
{ "type": "Feature", "properties": {"Name":"Keyport borough","State":"New Jersey","State_Abbrev":"NJ"},
"geometry":{ "type": "Point", "coordinates": [-74.200342,40.432626]}},
{ "type": "Feature", "properties": {"Name":"Kingston CDP","State":"New Jersey","State_Abbrev":"NJ"},
"geometry":{ "type": "Point", "coordinates": [-74.61398,40.38145]}},
{ "type": "Feature", "properties": {"Name":"Kingston Estates CDP","State":"New Jersey","State_Abbrev":"NJ"},
"geometry":{ "type": "Point", "coordinates": [-74.990185,39.918085]}},
{ "type": "Feature", "properties": {"Name":"Kinnelon borough","State":"New Jersey","State_Abbrev":"NJ"},
"geometry":{ "type": "Point", "coordinates": [-74.385896,40.982036]}},
{ "type": "Feature", "properties": {"Name":"Lake Como borough","State":"New Jersey","State_Abbrev":"NJ"},
"geometry":{ "type": "Point", "coordinates": [-74.024861,40.170011]}},
{ "type": "Feature", "properties": {"Name":"Lake Hiawatha CDP","State":"New Jersey","State_Abbrev":"NJ"},
"geometry":{ "type": "Point", "coordinates": [-74.382612,40.881471]}},
{ "type": "Feature", "properties": {"Name":"Lake Hopatcong CDP","State":"New Jersey","State_Abbrev":"NJ"},
"geometry":{ "type": "Point", "coordinates": [-74.609507,40.959562]}},
{ "type": "Feature", "properties": {"Name":"Lakehurst borough","State":"New Jersey","State_Abbrev":"NJ"},
"geometry":{ "type": "Point", "coordinates": [-74.320356,40.013119]}},
{ "type": "Feature", "properties": {"Name":"Lake Mohawk CDP","State":"New Jersey","State_Abbrev":"NJ"},
"geometry":{ "type": "Point", "coordinates": [-74.671481,41.012982]}},
{ "type": "Feature", "properties": {"Name":"Lakeside-Beebe Run CDP","State":"New Jersey","State_Abbrev":"NJ"},
"geometry":{ "type": "Point", "coordinates": [-75.249779,39.452176]}},
{ "type": "Feature", "properties": {"Name":"Lake Telemark CDP","State":"New Jersey","State_Abbrev":"NJ"},
"geometry":{ "type": "Point", "coordinates": [-74.497729,40.959829]}},
{ "type": "Feature", "properties": {"Name":"Lakewood CDP","State":"New Jersey","State_Abbrev":"NJ"},
"geometry":{ "type": "Point", "coordinates": [-74.211478,40.093975]}},
{ "type": "Feature", "properties": {"Name":"Lambertville city","State":"New Jersey","State_Abbrev":"NJ"},
"geometry":{ "type": "Point", "coordinates": [-74.943049,40.368563]}},
{ "type": "Feature", "properties": {"Name":"Lamington CDP","State":"New Jersey","State_Abbrev":"NJ"},
"geometry":{ "type": "Point", "coordinates": [-74.706335,40.671731]}},
{ "type": "Feature", "properties": {"Name":"Landing CDP","State":"New Jersey","State_Abbrev":"NJ"},
"geometry":{ "type": "Point", "coordinates": [-74.66205,40.906904]}},
{ "type": "Feature", "properties": {"Name":"Laurel Heights CDP","State":"New Jersey","State_Abbrev":"NJ"},
"geometry":{ "type": "Point", "coordinates": [-75.22347,39.45695]}},
{ "type": "Feature", "properties": {"Name":"Laurel Lake CDP","State":"New Jersey","State_Abbrev":"NJ"},
"geometry":{ "type": "Point", "coordinates": [-75.03062,39.326293]}},
{ "type": "Feature", "properties": {"Name":"Laurel Springs borough","State":"New Jersey","State_Abbrev":"NJ"},
"geometry":{ "type": "Point", "coordinates": [-75.005445,39.820543]}},
{ "type": "Feature", "properties": {"Name":"Laurence Harbor CDP","State":"New Jersey","State_Abbrev":"NJ"},
"geometry":{ "type": "Point", "coordinates": [-74.259977,40.44685]}},
{ "type": "Feature", "properties": {"Name":"Lavallette borough","State":"New Jersey","State_Abbrev":"NJ"},
"geometry":{ "type": "Point", "coordinates": [-74.07188,39.969474]}},
{ "type": "Feature", "properties": {"Name":"Lawnside borough","State":"New Jersey","State_Abbrev":"NJ"},
"geometry":{ "type": "Point", "coordinates": [-75.028903,39.867308]}},
{ "type": "Feature", "properties": {"Name":"Lawrenceville CDP","State":"New Jersey","State_Abbrev":"NJ"},
"geometry":{ "type": "Point", "coordinates": [-74.73852,40.302621]}},
{ "type": "Feature", "properties": {"Name":"Layton CDP","State":"New Jersey","State_Abbrev":"NJ"},
"geometry":{ "type": "Point", "coordinates": [-74.823479,41.218518]}},
{ "type": "Feature", "properties": {"Name":"Lebanon borough","State":"New Jersey","State_Abbrev":"NJ"},
"geometry":{ "type": "Point", "coordinates": [-74.833312,40.641862]}},
{ "type": "Feature", "properties": {"Name":"Ledgewood CDP","State":"New Jersey","State_Abbrev":"NJ"},
"geometry":{ "type": "Point", "coordinates": [-74.668029,40.883268]}},
{ "type": "Feature", "properties": {"Name":"Leeds Point CDP","State":"New Jersey","State_Abbrev":"NJ"},
"geometry":{ "type": "Point", "coordinates": [-74.443344,39.490613]}},
{ "type": "Feature", "properties": {"Name":"Leesburg CDP","State":"New Jersey","State_Abbrev":"NJ"},
"geometry":{ "type": "Point", "coordinates": [-74.981904,39.262606]}},
{ "type": "Feature", "properties": {"Name":"Leisure Knoll CDP","State":"New Jersey","State_Abbrev":"NJ"},
"geometry":{ "type": "Point", "coordinates": [-74.28963,40.018055]}},
{ "type": "Feature", "properties": {"Name":"Leisuretowne CDP","State":"New Jersey","State_Abbrev":"NJ"},
"geometry":{ "type": "Point", "coordinates": [-74.709479,39.894535]}},
{ "type": "Feature", "properties": {"Name":"Leisure Village CDP","State":"New Jersey","State_Abbrev":"NJ"},
"geometry":{ "type": "Point", "coordinates": [-74.186412,40.043805]}},
{ "type": "Feature", "properties": {"Name":"Leisure Village East CDP","State":"New Jersey","State_Abbrev":"NJ"},
"geometry":{ "type": "Point", "coordinates": [-74.168925,40.040443]}},
{ "type": "Feature", "properties": {"Name":"Leisure Village West CDP","State":"New Jersey","State_Abbrev":"NJ"},
"geometry":{ "type": "Point", "coordinates": [-74.280896,40.010284]}},
{ "type": "Feature", "properties": {"Name":"Leonardo CDP","State":"New Jersey","State_Abbrev":"NJ"},
"geometry":{ "type": "Point", "coordinates": [-74.060211,40.419717]}},
{ "type": "Feature", "properties": {"Name":"Leonia borough","State":"New Jersey","State_Abbrev":"NJ"},
"geometry":{ "type": "Point", "coordinates": [-73.988466,40.863391]}},
{ "type": "Feature", "properties": {"Name":"Liberty Corner CDP","State":"New Jersey","State_Abbrev":"NJ"},
"geometry":{ "type": "Point", "coordinates": [-74.584628,40.662488]}},
{ "type": "Feature", "properties": {"Name":"Lincoln Park borough","State":"New Jersey","State_Abbrev":"NJ"},
"geometry":{ "type": "Point", "coordinates": [-74.304235,40.923751]}},
{ "type": "Feature", "properties": {"Name":"Lincroft CDP","State":"New Jersey","State_Abbrev":"NJ"},
"geometry":{ "type": "Point", "coordinates": [-74.132723,40.335361]}},
{ "type": "Feature", "properties": {"Name":"Linden city","State":"New Jersey","State_Abbrev":"NJ"},
"geometry":{ "type": "Point", "coordinates": [-74.23631,40.627337]}},
{ "type": "Feature", "properties": {"Name":"Lindenwold borough","State":"New Jersey","State_Abbrev":"NJ"},
"geometry":{ "type": "Point", "coordinates": [-74.989966,39.818832]}},
{ "type": "Feature", "properties": {"Name":"Linwood city","State":"New Jersey","State_Abbrev":"NJ"},
"geometry":{ "type": "Point", "coordinates": [-74.571049,39.343718]}},
{ "type": "Feature", "properties": {"Name":"Little Ferry borough","State":"New Jersey","State_Abbrev":"NJ"},
"geometry":{ "type": "Point", "coordinates": [-74.034239,40.843431]}},
{ "type": "Feature", "properties": {"Name":"Little Silver borough","State":"New Jersey","State_Abbrev":"NJ"},
"geometry":{ "type": "Point", "coordinates": [-74.034535,40.336952]}},
{ "type": "Feature", "properties": {"Name":"Llewellyn Park CDP","State":"New Jersey","State_Abbrev":"NJ"},
"geometry":{ "type": "Point", "coordinates": [-74.239681,40.789325]}},
{ "type": "Feature", "properties": {"Name":"Loch Arbour village","State":"New Jersey","State_Abbrev":"NJ"},
"geometry":{ "type": "Point", "coordinates": [-74.000008,40.232296]}},
{ "type": "Feature", "properties": {"Name":"Lodi borough","State":"New Jersey","State_Abbrev":"NJ"},
"geometry":{ "type": "Point", "coordinates": [-74.0825,40.877915]}},
{ "type": "Feature", "properties": {"Name":"Long Branch city","State":"New Jersey","State_Abbrev":"NJ"},
"geometry":{ "type": "Point", "coordinates": [-73.989899,40.295372]}},
{ "type": "Feature", "properties": {"Name":"Longport borough","State":"New Jersey","State_Abbrev":"NJ"},
"geometry":{ "type": "Point", "coordinates": [-74.526957,39.311337]}},
{ "type": "Feature", "properties": {"Name":"Long Valley CDP","State":"New Jersey","State_Abbrev":"NJ"},
"geometry":{ "type": "Point", "coordinates": [-74.776838,40.781633]}},
{ "type": "Feature", "properties": {"Name":"Lopatcong Overlook CDP","State":"New Jersey","State_Abbrev":"NJ"},
"geometry":{ "type": "Point", "coordinates": [-75.145197,40.697115]}},
{ "type": "Feature", "properties": {"Name":"Lower Berkshire Valley CDP","State":"New Jersey","State_Abbrev":"NJ"},
"geometry":{ "type": "Point", "coordinates": [-74.614014,40.912183]}},
{ "type": "Feature", "properties": {"Name":"Lyons CDP","State":"New Jersey","State_Abbrev":"NJ"},
"geometry":{ "type": "Point", "coordinates": [-74.548442,40.680768]}},
{ "type": "Feature", "properties": {"Name":"McGuire AFB CDP","State":"New Jersey","State_Abbrev":"NJ"},
"geometry":{ "type": "Point", "coordinates": [-74.587819,40.027985]}},
{ "type": "Feature", "properties": {"Name":"McKee City CDP","State":"New Jersey","State_Abbrev":"NJ"},
"geometry":{ "type": "Point", "coordinates": [-74.651889,39.443813]}},
{ "type": "Feature", "properties": {"Name":"Macopin CDP","State":"New Jersey","State_Abbrev":"NJ"},
"geometry":{ "type": "Point", "coordinates": [-74.38004,41.026869]}},
{ "type": "Feature", "properties": {"Name":"Madison borough","State":"New Jersey","State_Abbrev":"NJ"},
"geometry":{ "type": "Point", "coordinates": [-74.417807,40.758044]}},
{ "type": "Feature", "properties": {"Name":"Madison Park CDP","State":"New Jersey","State_Abbrev":"NJ"},
"geometry":{ "type": "Point", "coordinates": [-74.29639,40.445963]}},
{ "type": "Feature", "properties": {"Name":"Magnolia borough","State":"New Jersey","State_Abbrev":"NJ"},
"geometry":{ "type": "Point", "coordinates": [-75.036397,39.856195]}},
{ "type": "Feature", "properties": {"Name":"Malaga CDP","State":"New Jersey","State_Abbrev":"NJ"},
"geometry":{ "type": "Point", "coordinates": [-75.056375,39.579668]}},
{ "type": "Feature", "properties": {"Name":"Manahawkin CDP","State":"New Jersey","State_Abbrev":"NJ"},
"geometry":{ "type": "Point", "coordinates": [-74.242653,39.689943]}},
{ "type": "Feature", "properties": {"Name":"Manasquan borough","State":"New Jersey","State_Abbrev":"NJ"},
"geometry":{ "type": "Point", "coordinates": [-74.038159,40.112421]}},
{ "type": "Feature", "properties": {"Name":"Mantoloking borough","State":"New Jersey","State_Abbrev":"NJ"},
"geometry":{ "type": "Point", "coordinates": [-74.04816,40.056688]}},
{ "type": "Feature", "properties": {"Name":"Manville borough","State":"New Jersey","State_Abbrev":"NJ"},
"geometry":{ "type": "Point", "coordinates": [-74.589273,40.541269]}},
{ "type": "Feature", "properties": {"Name":"Margate City city","State":"New Jersey","State_Abbrev":"NJ"},
"geometry":{ "type": "Point", "coordinates": [-74.506849,39.330913]}},
{ "type": "Feature", "properties": {"Name":"Marksboro CDP","State":"New Jersey","State_Abbrev":"NJ"},
"geometry":{ "type": "Point", "coordinates": [-74.902528,40.9793]}},
{ "type": "Feature", "properties": {"Name":"Marlboro CDP","State":"New Jersey","State_Abbrev":"NJ"},
"geometry":{ "type": "Point", "coordinates": [-75.324578,39.487078]}},
{ "type": "Feature", "properties": {"Name":"Marlton CDP","State":"New Jersey","State_Abbrev":"NJ"},
"geometry":{ "type": "Point", "coordinates": [-74.929277,39.901885]}},
{ "type": "Feature", "properties": {"Name":"Marmora CDP","State":"New Jersey","State_Abbrev":"NJ"},
"geometry":{ "type": "Point", "coordinates": [-74.654521,39.260931]}},
{ "type": "Feature", "properties": {"Name":"Marshallville CDP","State":"New Jersey","State_Abbrev":"NJ"},
"geometry":{ "type": "Point", "coordinates": [-74.770462,39.292681]}},
{ "type": "Feature", "properties": {"Name":"Martinsville CDP","State":"New Jersey","State_Abbrev":"NJ"},
"geometry":{ "type": "Point", "coordinates": [-74.575794,40.602946]}},
{ "type": "Feature", "properties": {"Name":"Matawan borough","State":"New Jersey","State_Abbrev":"NJ"},
"geometry":{ "type": "Point", "coordinates": [-74.236534,40.411042]}},
{ "type": "Feature", "properties": {"Name":"Mauricetown CDP","State":"New Jersey","State_Abbrev":"NJ"},
"geometry":{ "type": "Point", "coordinates": [-75.007498,39.29244]}},
{ "type": "Feature", "properties": {"Name":"Mays Landing CDP","State":"New Jersey","State_Abbrev":"NJ"},
"geometry":{ "type": "Point", "coordinates": [-74.707473,39.452263]}},
{ "type": "Feature", "properties": {"Name":"Maywood borough","State":"New Jersey","State_Abbrev":"NJ"},
"geometry":{ "type": "Point", "coordinates": [-74.063457,40.902885]}},
{ "type": "Feature", "properties": {"Name":"Medford Lakes borough","State":"New Jersey","State_Abbrev":"NJ"},
"geometry":{ "type": "Point", "coordinates": [-74.811665,39.853649]}},
{ "type": "Feature", "properties": {"Name":"Mendham borough","State":"New Jersey","State_Abbrev":"NJ"},
"geometry":{ "type": "Point", "coordinates": [-74.597766,40.76729]}},
{ "type": "Feature", "properties": {"Name":"Menlo Park Terrace CDP","State":"New Jersey","State_Abbrev":"NJ"},
"geometry":{ "type": "Point", "coordinates": [-74.324265,40.553407]}},
{ "type": "Feature", "properties": {"Name":"Mercerville CDP","State":"New Jersey","State_Abbrev":"NJ"},
"geometry":{ "type": "Point", "coordinates": [-74.692254,40.235832]}},
{ "type": "Feature", "properties": {"Name":"Merchantville borough","State":"New Jersey","State_Abbrev":"NJ"},
"geometry":{ "type": "Point", "coordinates": [-75.050337,39.950222]}},
{ "type": "Feature", "properties": {"Name":"Metuchen borough","State":"New Jersey","State_Abbrev":"NJ"},
"geometry":{ "type": "Point", "coordinates": [-74.362767,40.542445]}},
{ "type": "Feature", "properties": {"Name":"Mickleton CDP","State":"New Jersey","State_Abbrev":"NJ"},
"geometry":{ "type": "Point", "coordinates": [-75.246173,39.79105]}},
{ "type": "Feature", "properties": {"Name":"Middlebush CDP","State":"New Jersey","State_Abbrev":"NJ"},
"geometry":{ "type": "Point", "coordinates": [-74.535378,40.502043]}},
{ "type": "Feature", "properties": {"Name":"Middlesex borough","State":"New Jersey","State_Abbrev":"NJ"},
"geometry":{ "type": "Point", "coordinates": [-74.498259,40.574627]}},
{ "type": "Feature", "properties": {"Name":"Midland Park borough","State":"New Jersey","State_Abbrev":"NJ"},
"geometry":{ "type": "Point", "coordinates": [-74.141262,40.995809]}},
{ "type": "Feature", "properties": {"Name":"Milford borough","State":"New Jersey","State_Abbrev":"NJ"},
"geometry":{ "type": "Point", "coordinates": [-75.089702,40.573483]}},
{ "type": "Feature", "properties": {"Name":"Millington CDP","State":"New Jersey","State_Abbrev":"NJ"},
"geometry":{ "type": "Point", "coordinates": [-74.514786,40.675044]}},
{ "type": "Feature", "properties": {"Name":"Millstone borough","State":"New Jersey","State_Abbrev":"NJ"},
"geometry":{ "type": "Point", "coordinates": [-74.595529,40.499868]}},
{ "type": "Feature", "properties": {"Name":"Milltown borough","State":"New Jersey","State_Abbrev":"NJ"},
"geometry":{ "type": "Point", "coordinates": [-74.434786,40.450223]}},
{ "type": "Feature", "properties": {"Name":"Millville city","State":"New Jersey","State_Abbrev":"NJ"},
"geometry":{ "type": "Point", "coordinates": [-75.054797,39.390093]}},
{ "type": "Feature", "properties": {"Name":"Milmay CDP","State":"New Jersey","State_Abbrev":"NJ"},
"geometry":{ "type": "Point", "coordinates": [-74.868316,39.439024]}},
{ "type": "Feature", "properties": {"Name":"Mizpah CDP","State":"New Jersey","State_Abbrev":"NJ"},
"geometry":{ "type": "Point", "coordinates": [-74.838324,39.481879]}},
{ "type": "Feature", "properties": {"Name":"Money Island CDP","State":"New Jersey","State_Abbrev":"NJ"},
"geometry":{ "type": "Point", "coordinates": [-75.235145,39.287626]}},
{ "type": "Feature", "properties": {"Name":"Monmouth Beach borough","State":"New Jersey","State_Abbrev":"NJ"},
"geometry":{ "type": "Point", "coordinates": [-73.985608,40.335895]}},
{ "type": "Feature", "properties": {"Name":"Monmouth Junction CDP","State":"New Jersey","State_Abbrev":"NJ"},
"geometry":{ "type": "Point", "coordinates": [-74.557923,40.376068]}},
{ "type": "Feature", "properties": {"Name":"Monroe Manor CDP","State":"New Jersey","State_Abbrev":"NJ"},
"geometry":{ "type": "Point", "coordinates": [-74.474279,40.25902]}},
{ "type": "Feature", "properties": {"Name":"Montclair State University CDP","State":"New Jersey","State_Abbrev":"NJ"},
"geometry":{ "type": "Point", "coordinates": [-74.198359,40.865917]}},
{ "type": "Feature", "properties": {"Name":"Montvale borough","State":"New Jersey","State_Abbrev":"NJ"},
"geometry":{ "type": "Point", "coordinates": [-74.047298,41.054594]}},
{ "type": "Feature", "properties": {"Name":"Moonachie borough","State":"New Jersey","State_Abbrev":"NJ"},
"geometry":{ "type": "Point", "coordinates": [-74.057671,40.841334]}},
{ "type": "Feature", "properties": {"Name":"Moorestown-Lenola CDP","State":"New Jersey","State_Abbrev":"NJ"},
"geometry":{ "type": "Point", "coordinates": [-74.961557,39.966115]}},
{ "type": "Feature", "properties": {"Name":"Morganville CDP","State":"New Jersey","State_Abbrev":"NJ"},
"geometry":{ "type": "Point", "coordinates": [-74.232607,40.376053]}},
{ "type": "Feature", "properties": {"Name":"Morris Plains borough","State":"New Jersey","State_Abbrev":"NJ"},
"geometry":{ "type": "Point", "coordinates": [-74.474196,40.838806]}},
{ "type": "Feature", "properties": {"Name":"Morristown town","State":"New Jersey","State_Abbrev":"NJ"},
"geometry":{ "type": "Point", "coordinates": [-74.477318,40.796562]}},
{ "type": "Feature", "properties": {"Name":"Mountain Lake CDP","State":"New Jersey","State_Abbrev":"NJ"},
"geometry":{ "type": "Point", "coordinates": [-74.987571,40.859796]}},
{ "type": "Feature", "properties": {"Name":"Mountain Lakes borough","State":"New Jersey","State_Abbrev":"NJ"},
"geometry":{ "type": "Point", "coordinates": [-74.442032,40.890853]}},
{ "type": "Feature", "properties": {"Name":"Mountainside borough","State":"New Jersey","State_Abbrev":"NJ"},
"geometry":{ "type": "Point", "coordinates": [-74.360292,40.680722]}},
{ "type": "Feature", "properties": {"Name":"Mount Arlington borough","State":"New Jersey","State_Abbrev":"NJ"},
"geometry":{ "type": "Point", "coordinates": [-74.640791,40.920751]}},
{ "type": "Feature", "properties": {"Name":"Mount Ephraim borough","State":"New Jersey","State_Abbrev":"NJ"},
"geometry":{ "type": "Point", "coordinates": [-75.091814,39.879524]}},
{ "type": "Feature", "properties": {"Name":"Mount Hermon CDP","State":"New Jersey","State_Abbrev":"NJ"},
"geometry":{ "type": "Point", "coordinates": [-74.993997,40.921928]}},
{ "type": "Feature", "properties": {"Name":"Mount Hope CDP","State":"New Jersey","State_Abbrev":"NJ"},
"geometry":{ "type": "Point", "coordinates": [-74.550854,40.918729]}},
{ "type": "Feature", "properties": {"Name":"Mount Royal CDP","State":"New Jersey","State_Abbrev":"NJ"},
"geometry":{ "type": "Point", "coordinates": [-75.214703,39.809972]}},
{ "type": "Feature", "properties": {"Name":"Mount Tabor CDP","State":"New Jersey","State_Abbrev":"NJ"},
"geometry":{ "type": "Point", "coordinates": [-74.473929,40.872284]}},
{ "type": "Feature", "properties": {"Name":"Mullica Hill CDP","State":"New Jersey","State_Abbrev":"NJ"},
"geometry":{ "type": "Point", "coordinates": [-75.210107,39.720693]}},
{ "type": "Feature", "properties": {"Name":"Mystic Island CDP","State":"New Jersey","State_Abbrev":"NJ"},
"geometry":{ "type": "Point", "coordinates": [-74.382941,39.565688]}},
{ "type": "Feature", "properties": {"Name":"National Park borough","State":"New Jersey","State_Abbrev":"NJ"},
"geometry":{ "type": "Point", "coordinates": [-75.185621,39.867297]}},
{ "type": "Feature", "properties": {"Name":"Navesink CDP","State":"New Jersey","State_Abbrev":"NJ"},
"geometry":{ "type": "Point", "coordinates": [-74.044811,40.400292]}},
{ "type": "Feature", "properties": {"Name":"Neptune City borough","State":"New Jersey","State_Abbrev":"NJ"},
"geometry":{ "type": "Point", "coordinates": [-74.033336,40.200478]}},
{ "type": "Feature", "properties": {"Name":"Nesco CDP","State":"New Jersey","State_Abbrev":"NJ"},
"geometry":{ "type": "Point", "coordinates": [-74.689601,39.642642]}},
{ "type": "Feature", "properties": {"Name":"Neshanic CDP","State":"New Jersey","State_Abbrev":"NJ"},
"geometry":{ "type": "Point", "coordinates": [-74.712023,40.505399]}},
{ "type": "Feature", "properties": {"Name":"Neshanic Station CDP","State":"New Jersey","State_Abbrev":"NJ"},
"geometry":{ "type": "Point", "coordinates": [-74.735443,40.52827]}},
{ "type": "Feature", "properties": {"Name":"Netcong borough","State":"New Jersey","State_Abbrev":"NJ"},
"geometry":{ "type": "Point", "coordinates": [-74.700823,40.899232]}},
{ "type": "Feature", "properties": {"Name":"Newark city","State":"New Jersey","State_Abbrev":"NJ"},
"geometry":{ "type": "Point", "coordinates": [-74.172574,40.72422]}},
{ "type": "Feature", "properties": {"Name":"New Brunswick city","State":"New Jersey","State_Abbrev":"NJ"},
"geometry":{ "type": "Point", "coordinates": [-74.444414,40.486677]}},
{ "type": "Feature", "properties": {"Name":"New Egypt CDP","State":"New Jersey","State_Abbrev":"NJ"},
"geometry":{ "type": "Point", "coordinates": [-74.527063,40.065145]}},
{ "type": "Feature", "properties": {"Name":"Newfield borough","State":"New Jersey","State_Abbrev":"NJ"},
"geometry":{ "type": "Point", "coordinates": [-75.010217,39.551041]}},
{ "type": "Feature", "properties": {"Name":"Newfoundland CDP","State":"New Jersey","State_Abbrev":"NJ"},
"geometry":{ "type": "Point", "coordinates": [-74.429154,41.055361]}},
{ "type": "Feature", "properties": {"Name":"New Gretna CDP","State":"New Jersey","State_Abbrev":"NJ"},
"geometry":{ "type": "Point", "coordinates": [-74.45452,39.587769]}},
{ "type": "Feature", "properties": {"Name":"New Milford borough","State":"New Jersey","State_Abbrev":"NJ"},
"geometry":{ "type": "Point", "coordinates": [-74.019453,40.934161]}},
{ "type": "Feature", "properties": {"Name":"Newport CDP","State":"New Jersey","State_Abbrev":"NJ"},
"geometry":{ "type": "Point", "coordinates": [-75.169809,39.291502]}},
{ "type": "Feature", "properties": {"Name":"New Providence borough","State":"New Jersey","State_Abbrev":"NJ"},
"geometry":{ "type": "Point", "coordinates": [-74.406623,40.69889]}},
{ "type": "Feature", "properties": {"Name":"Newton town","State":"New Jersey","State_Abbrev":"NJ"},
"geometry":{ "type": "Point", "coordinates": [-74.753601,41.051487]}},
{ "type": "Feature", "properties": {"Name":"Newtonville CDP","State":"New Jersey","State_Abbrev":"NJ"},
"geometry":{ "type": "Point", "coordinates": [-74.855927,39.563288]}},
{ "type": "Feature", "properties": {"Name":"New Vernon CDP","State":"New Jersey","State_Abbrev":"NJ"},
"geometry":{ "type": "Point", "coordinates": [-74.480459,40.738889]}},
{ "type": "Feature", "properties": {"Name":"New Village CDP","State":"New Jersey","State_Abbrev":"NJ"},
"geometry":{ "type": "Point", "coordinates": [-75.077244,40.718409]}},
{ "type": "Feature", "properties": {"Name":"North Arlington borough","State":"New Jersey","State_Abbrev":"NJ"},
"geometry":{ "type": "Point", "coordinates": [-74.12622,40.786256]}},
{ "type": "Feature", "properties": {"Name":"North Beach Haven CDP","State":"New Jersey","State_Abbrev":"NJ"},
"geometry":{ "type": "Point", "coordinates": [-74.211621,39.600436]}},
{ "type": "Feature", "properties": {"Name":"North Caldwell borough","State":"New Jersey","State_Abbrev":"NJ"},
"geometry":{ "type": "Point", "coordinates": [-74.259996,40.8645]}},
{ "type": "Feature", "properties": {"Name":"North Cape May CDP","State":"New Jersey","State_Abbrev":"NJ"},
"geometry":{ "type": "Point", "coordinates": [-74.951024,38.980849]}},
{ "type": "Feature", "properties": {"Name":"Northfield city","State":"New Jersey","State_Abbrev":"NJ"},
"geometry":{ "type": "Point", "coordinates": [-74.554128,39.373073]}},
{ "type": "Feature", "properties": {"Name":"North Haledon borough","State":"New Jersey","State_Abbrev":"NJ"},
"geometry":{ "type": "Point", "coordinates": [-74.185281,40.963618]}},
{ "type": "Feature", "properties": {"Name":"North Middletown CDP","State":"New Jersey","State_Abbrev":"NJ"},
"geometry":{ "type": "Point", "coordinates": [-74.118521,40.438988]}},
{ "type": "Feature", "properties": {"Name":"North Plainfield borough","State":"New Jersey","State_Abbrev":"NJ"},
"geometry":{ "type": "Point", "coordinates": [-74.439466,40.621255]}},
{ "type": "Feature", "properties": {"Name":"Northvale borough","State":"New Jersey","State_Abbrev":"NJ"},
"geometry":{ "type": "Point", "coordinates": [-73.948553,41.012874]}},
{ "type": "Feature", "properties": {"Name":"North Wildwood city","State":"New Jersey","State_Abbrev":"NJ"},
"geometry":{ "type": "Point", "coordinates": [-74.797505,39.005944]}},
{ "type": "Feature", "properties": {"Name":"Norwood borough","State":"New Jersey","State_Abbrev":"NJ"},
"geometry":{ "type": "Point", "coordinates": [-73.950551,40.992046]}},
{ "type": "Feature", "properties": {"Name":"Oakhurst CDP","State":"New Jersey","State_Abbrev":"NJ"},
"geometry":{ "type": "Point", "coordinates": [-74.02655,40.261486]}},
{ "type": "Feature", "properties": {"Name":"Oakland borough","State":"New Jersey","State_Abbrev":"NJ"},
"geometry":{ "type": "Point", "coordinates": [-74.240502,41.031022]}},
{ "type": "Feature", "properties": {"Name":"Oaklyn borough","State":"New Jersey","State_Abbrev":"NJ"},
"geometry":{ "type": "Point", "coordinates": [-75.080573,39.9023]}},
{ "type": "Feature", "properties": {"Name":"Oak Ridge CDP","State":"New Jersey","State_Abbrev":"NJ"},
"geometry":{ "type": "Point", "coordinates": [-74.498236,41.031046]}},
{ "type": "Feature", "properties": {"Name":"Oak Valley CDP","State":"New Jersey","State_Abbrev":"NJ"},
"geometry":{ "type": "Point", "coordinates": [-75.158815,39.806271]}},
{ "type": "Feature", "properties": {"Name":"Ocean Acres CDP","State":"New Jersey","State_Abbrev":"NJ"},
"geometry":{ "type": "Point", "coordinates": [-74.281061,39.742013]}},
{ "type": "Feature", "properties": {"Name":"Ocean City city","State":"New Jersey","State_Abbrev":"NJ"},
"geometry":{ "type": "Point", "coordinates": [-74.599797,39.269523]}},
{ "type": "Feature", "properties": {"Name":"Ocean Gate borough","State":"New Jersey","State_Abbrev":"NJ"},
"geometry":{ "type": "Point", "coordinates": [-74.134759,39.926453]}},
{ "type": "Feature", "properties": {"Name":"Ocean Grove CDP","State":"New Jersey","State_Abbrev":"NJ"},
"geometry":{ "type": "Point", "coordinates": [-74.006944,40.21182]}},
{ "type": "Feature", "properties": {"Name":"Oceanport borough","State":"New Jersey","State_Abbrev":"NJ"},
"geometry":{ "type": "Point", "coordinates": [-74.020479,40.316012]}},
{ "type": "Feature", "properties": {"Name":"Ocean View CDP","State":"New Jersey","State_Abbrev":"NJ"},
"geometry":{ "type": "Point", "coordinates": [-74.743738,39.201263]}},
{ "type": "Feature", "properties": {"Name":"Oceanville CDP","State":"New Jersey","State_Abbrev":"NJ"},
"geometry":{ "type": "Point", "coordinates": [-74.452637,39.482]}},
{ "type": "Feature", "properties": {"Name":"Ogdensburg borough","State":"New Jersey","State_Abbrev":"NJ"},
"geometry":{ "type": "Point", "coordinates": [-74.597626,41.08009]}},
{ "type": "Feature", "properties": {"Name":"Old Bridge CDP","State":"New Jersey","State_Abbrev":"NJ"},
"geometry":{ "type": "Point", "coordinates": [-74.331185,40.395367]}},
{ "type": "Feature", "properties": {"Name":"Old Tappan borough","State":"New Jersey","State_Abbrev":"NJ"},
"geometry":{ "type": "Point", "coordinates": [-73.984223,41.023305]}},
{ "type": "Feature", "properties": {"Name":"Oldwick CDP","State":"New Jersey","State_Abbrev":"NJ"},
"geometry":{ "type": "Point", "coordinates": [-74.739447,40.66746]}},
{ "type": "Feature", "properties": {"Name":"Olivet CDP","State":"New Jersey","State_Abbrev":"NJ"},
"geometry":{ "type": "Point", "coordinates": [-75.176334,39.538101]}},
{ "type": "Feature", "properties": {"Name":"Oradell borough","State":"New Jersey","State_Abbrev":"NJ"},
"geometry":{ "type": "Point", "coordinates": [-74.032862,40.956653]}},
{ "type": "Feature", "properties": {"Name":"Othello CDP","State":"New Jersey","State_Abbrev":"NJ"},
"geometry":{ "type": "Point", "coordinates": [-75.342047,39.409983]}},
{ "type": "Feature", "properties": {"Name":"Oxford CDP","State":"New Jersey","State_Abbrev":"NJ"},
"geometry":{ "type": "Point", "coordinates": [-74.997317,40.804851]}},
{ "type": "Feature", "properties": {"Name":"Packanack Lake CDP","State":"New Jersey","State_Abbrev":"NJ"},
"geometry":{ "type": "Point", "coordinates": [-74.255839,40.938537]}},
{ "type": "Feature", "properties": {"Name":"Palermo CDP","State":"New Jersey","State_Abbrev":"NJ"},
"geometry":{ "type": "Point", "coordinates": [-74.685809,39.233626]}},
{ "type": "Feature", "properties": {"Name":"Palisades Park borough","State":"New Jersey","State_Abbrev":"NJ"},
"geometry":{ "type": "Point", "coordinates": [-73.997061,40.847017]}},
{ "type": "Feature", "properties": {"Name":"Palmyra borough","State":"New Jersey","State_Abbrev":"NJ"},
"geometry":{ "type": "Point", "coordinates": [-75.035273,40.002615]}},
{ "type": "Feature", "properties": {"Name":"Panther Valley CDP","State":"New Jersey","State_Abbrev":"NJ"},
"geometry":{ "type": "Point", "coordinates": [-74.842002,40.909453]}},
{ "type": "Feature", "properties": {"Name":"Paramus borough","State":"New Jersey","State_Abbrev":"NJ"},
"geometry":{ "type": "Point", "coordinates": [-74.070169,40.947299]}},
{ "type": "Feature", "properties": {"Name":"Park Ridge borough","State":"New Jersey","State_Abbrev":"NJ"},
"geometry":{ "type": "Point", "coordinates": [-74.044293,41.036183]}},
{ "type": "Feature", "properties": {"Name":"Parsippany CDP","State":"New Jersey","State_Abbrev":"NJ"},
"geometry":{ "type": "Point", "coordinates": [-74.41237,40.864056]}},
{ "type": "Feature", "properties": {"Name":"Passaic city","State":"New Jersey","State_Abbrev":"NJ"},
"geometry":{ "type": "Point", "coordinates": [-74.129089,40.857552]}},
{ "type": "Feature", "properties": {"Name":"Paterson city","State":"New Jersey","State_Abbrev":"NJ"},
"geometry":{ "type": "Point", "coordinates": [-74.162829,40.914766]}},
{ "type": "Feature", "properties": {"Name":"Paulsboro borough","State":"New Jersey","State_Abbrev":"NJ"},
"geometry":{ "type": "Point", "coordinates": [-75.23996,39.839975]}},
{ "type": "Feature", "properties": {"Name":"Peapack and Gladstone borough","State":"New Jersey","State_Abbrev":"NJ"},
"geometry":{ "type": "Point", "coordinates": [-74.654054,40.715782]}},
{ "type": "Feature", "properties": {"Name":"Pedricktown CDP","State":"New Jersey","State_Abbrev":"NJ"},
"geometry":{ "type": "Point", "coordinates": [-75.407605,39.766365]}},
{ "type": "Feature", "properties": {"Name":"Pemberton borough","State":"New Jersey","State_Abbrev":"NJ"},
"geometry":{ "type": "Point", "coordinates": [-74.686558,39.97219]}},
{ "type": "Feature", "properties": {"Name":"Pemberton Heights CDP","State":"New Jersey","State_Abbrev":"NJ"},
"geometry":{ "type": "Point", "coordinates": [-74.674924,39.95792]}},
{ "type": "Feature", "properties": {"Name":"Pennington borough","State":"New Jersey","State_Abbrev":"NJ"},
"geometry":{ "type": "Point", "coordinates": [-74.78878,40.324923]}},
{ "type": "Feature", "properties": {"Name":"Penns Grove borough","State":"New Jersey","State_Abbrev":"NJ"},
"geometry":{ "type": "Point", "coordinates": [-75.469035,39.727704]}},
{ "type": "Feature", "properties": {"Name":"Pennsville CDP","State":"New Jersey","State_Abbrev":"NJ"},
"geometry":{ "type": "Point", "coordinates": [-75.500331,39.648258]}},
{ "type": "Feature", "properties": {"Name":"Perth Amboy city","State":"New Jersey","State_Abbrev":"NJ"},
"geometry":{ "type": "Point", "coordinates": [-74.271331,40.52016]}},
{ "type": "Feature", "properties": {"Name":"Phillipsburg town","State":"New Jersey","State_Abbrev":"NJ"},
"geometry":{ "type": "Point", "coordinates": [-75.179006,40.691974]}},
{ "type": "Feature", "properties": {"Name":"Pine Beach borough","State":"New Jersey","State_Abbrev":"NJ"},
"geometry":{ "type": "Point", "coordinates": [-74.169789,39.936058]}},
{ "type": "Feature", "properties": {"Name":"Pine Brook CDP","State":"New Jersey","State_Abbrev":"NJ"},
"geometry":{ "type": "Point", "coordinates": [-74.344241,40.869901]}},
{ "type": "Feature", "properties": {"Name":"Pine Hill borough","State":"New Jersey","State_Abbrev":"NJ"},
"geometry":{ "type": "Point", "coordinates": [-74.980816,39.78572]}},
{ "type": "Feature", "properties": {"Name":"Pine Lake Park CDP","State":"New Jersey","State_Abbrev":"NJ"},
"geometry":{ "type": "Point", "coordinates": [-74.258977,40.001605]}},
{ "type": "Feature", "properties": {"Name":"Pine Ridge at Crestwood CDP","State":"New Jersey","State_Abbrev":"NJ"},
"geometry":{ "type": "Point", "coordinates": [-74.31208,39.961515]}},
{ "type": "Feature", "properties": {"Name":"Pines Lake CDP","State":"New Jersey","State_Abbrev":"NJ"},
"geometry":{ "type": "Point", "coordinates": [-74.263775,40.998672]}},
{ "type": "Feature", "properties": {"Name":"Pitman borough","State":"New Jersey","State_Abbrev":"NJ"},
"geometry":{ "type": "Point", "coordinates": [-75.129673,39.733094]}},
{ "type": "Feature", "properties": {"Name":"Plainfield city","State":"New Jersey","State_Abbrev":"NJ"},
"geometry":{ "type": "Point", "coordinates": [-74.415775,40.615444]}},
{ "type": "Feature", "properties": {"Name":"Plainsboro Center CDP","State":"New Jersey","State_Abbrev":"NJ"},
"geometry":{ "type": "Point", "coordinates": [-74.591588,40.331273]}},
{ "type": "Feature", "properties": {"Name":"Pleasantdale CDP","State":"New Jersey","State_Abbrev":"NJ"},
"geometry":{ "type": "Point", "coordinates": [-74.274634,40.804002]}},
{ "type": "Feature", "properties": {"Name":"Pleasant Plains CDP","State":"New Jersey","State_Abbrev":"NJ"},
"geometry":{ "type": "Point", "coordinates": [-74.576459,40.45312]}},
{ "type": "Feature", "properties": {"Name":"Pleasantville city","State":"New Jersey","State_Abbrev":"NJ"},
"geometry":{ "type": "Point", "coordinates": [-74.514288,39.388801]}},
{ "type": "Feature", "properties": {"Name":"Pluckemin CDP","State":"New Jersey","State_Abbrev":"NJ"},
"geometry":{ "type": "Point", "coordinates": [-74.634631,40.645258]}},
{ "type": "Feature", "properties": {"Name":"Point Pleasant borough","State":"New Jersey","State_Abbrev":"NJ"},
"geometry":{ "type": "Point", "coordinates": [-74.069921,40.077748]}},
{ "type": "Feature", "properties": {"Name":"Point Pleasant Beach borough","State":"New Jersey","State_Abbrev":"NJ"},
"geometry":{ "type": "Point", "coordinates": [-74.045173,40.092566]}},
{ "type": "Feature", "properties": {"Name":"Pomona CDP","State":"New Jersey","State_Abbrev":"NJ"},
"geometry":{ "type": "Point", "coordinates": [-74.550191,39.468784]}},
{ "type": "Feature", "properties": {"Name":"Pompton Lakes borough","State":"New Jersey","State_Abbrev":"NJ"},
"geometry":{ "type": "Point", "coordinates": [-74.286742,41.002734]}},
{ "type": "Feature", "properties": {"Name":"Pompton Plains CDP","State":"New Jersey","State_Abbrev":"NJ"},
"geometry":{ "type": "Point", "coordinates": [-74.306967,40.967407]}},
{ "type": "Feature", "properties": {"Name":"Port Colden CDP","State":"New Jersey","State_Abbrev":"NJ"},
"geometry":{ "type": "Point", "coordinates": [-74.953357,40.76641]}},
{ "type": "Feature", "properties": {"Name":"Port Elizabeth CDP","State":"New Jersey","State_Abbrev":"NJ"},
"geometry":{ "type": "Point", "coordinates": [-74.971365,39.309933]}},
{ "type": "Feature", "properties": {"Name":"Port Monmouth CDP","State":"New Jersey","State_Abbrev":"NJ"},
"geometry":{ "type": "Point", "coordinates": [-74.100665,40.434236]}},
{ "type": "Feature", "properties": {"Name":"Port Morris CDP","State":"New Jersey","State_Abbrev":"NJ"},
"geometry":{ "type": "Point", "coordinates": [-74.684096,40.906261]}},
{ "type": "Feature", "properties": {"Name":"Port Murray CDP","State":"New Jersey","State_Abbrev":"NJ"},
"geometry":{ "type": "Point", "coordinates": [-74.927156,40.792825]}},
{ "type": "Feature", "properties": {"Name":"Port Norris CDP","State":"New Jersey","State_Abbrev":"NJ"},
"geometry":{ "type": "Point", "coordinates": [-75.046503,39.262426]}},
{ "type": "Feature", "properties": {"Name":"Port Reading CDP","State":"New Jersey","State_Abbrev":"NJ"},
"geometry":{ "type": "Point", "coordinates": [-74.244933,40.567422]}},
{ "type": "Feature", "properties": {"Name":"Port Republic city","State":"New Jersey","State_Abbrev":"NJ"},
"geometry":{ "type": "Point", "coordinates": [-74.476099,39.534798]}},
{ "type": "Feature", "properties": {"Name":"Pottersville CDP","State":"New Jersey","State_Abbrev":"NJ"},
"geometry":{ "type": "Point", "coordinates": [-74.725684,40.713641]}},
{ "type": "Feature", "properties": {"Name":"Preakness CDP","State":"New Jersey","State_Abbrev":"NJ"},
"geometry":{ "type": "Point", "coordinates": [-74.224894,40.93821]}},
{ "type": "Feature", "properties": {"Name":"Presidential Lakes Estates CDP","State":"New Jersey","State_Abbrev":"NJ"},
"geometry":{ "type": "Point", "coordinates": [-74.563509,39.914955]}},
{ "type": "Feature", "properties": {"Name":"Princeton","State":"New Jersey","State_Abbrev":"NJ"},
"geometry":{ "type": "Point", "coordinates": [-74.666728,40.358244]}},
{ "type": "Feature", "properties": {"Name":"Princeton Junction CDP","State":"New Jersey","State_Abbrev":"NJ"},
"geometry":{ "type": "Point", "coordinates": [-74.621871,40.323172]}},
{ "type": "Feature", "properties": {"Name":"Princeton Meadows CDP","State":"New Jersey","State_Abbrev":"NJ"},
"geometry":{ "type": "Point", "coordinates": [-74.564746,40.33562]}},
{ "type": "Feature", "properties": {"Name":"Prospect Park borough","State":"New Jersey","State_Abbrev":"NJ"},
"geometry":{ "type": "Point", "coordinates": [-74.174088,40.941559]}},
{ "type": "Feature", "properties": {"Name":"Quinton CDP","State":"New Jersey","State_Abbrev":"NJ"},
"geometry":{ "type": "Point", "coordinates": [-75.410915,39.547478]}},
{ "type": "Feature", "properties": {"Name":"Rahway city","State":"New Jersey","State_Abbrev":"NJ"},
"geometry":{ "type": "Point", "coordinates": [-74.280531,40.607152]}},
{ "type": "Feature", "properties": {"Name":"Rainbow Lakes CDP","State":"New Jersey","State_Abbrev":"NJ"},
"geometry":{ "type": "Point", "coordinates": [-74.455036,40.87411]}},
{ "type": "Feature", "properties": {"Name":"Ramapo College of New Jersey CDP","State":"New Jersey","State_Abbrev":"NJ"},
"geometry":{ "type": "Point", "coordinates": [-74.17412,41.08082]}},
{ "type": "Feature", "properties": {"Name":"Ramblewood CDP","State":"New Jersey","State_Abbrev":"NJ"},
"geometry":{ "type": "Point", "coordinates": [-74.95278,39.932045]}},
{ "type": "Feature", "properties": {"Name":"Ramsey borough","State":"New Jersey","State_Abbrev":"NJ"},
"geometry":{ "type": "Point", "coordinates": [-74.146996,41.061325]}},
{ "type": "Feature", "properties": {"Name":"Ramtown CDP","State":"New Jersey","State_Abbrev":"NJ"},
"geometry":{ "type": "Point", "coordinates": [-74.150158,40.114712]}},
{ "type": "Feature", "properties": {"Name":"Raritan borough","State":"New Jersey","State_Abbrev":"NJ"},
"geometry":{ "type": "Point", "coordinates": [-74.646026,40.571344]}},
{ "type": "Feature", "properties": {"Name":"Red Bank borough","State":"New Jersey","State_Abbrev":"NJ"},
"geometry":{ "type": "Point", "coordinates": [-74.066528,40.348722]}},
{ "type": "Feature", "properties": {"Name":"Regency at Monroe CDP","State":"New Jersey","State_Abbrev":"NJ"},
"geometry":{ "type": "Point", "coordinates": [-74.38626,40.320866]}},
{ "type": "Feature", "properties": {"Name":"Renaissance at Monroe CDP","State":"New Jersey","State_Abbrev":"NJ"},
"geometry":{ "type": "Point", "coordinates": [-74.480702,40.263447]}},
{ "type": "Feature", "properties": {"Name":"Richland CDP","State":"New Jersey","State_Abbrev":"NJ"},
"geometry":{ "type": "Point", "coordinates": [-74.889014,39.490666]}},
{ "type": "Feature", "properties": {"Name":"Richwood CDP","State":"New Jersey","State_Abbrev":"NJ"},
"geometry":{ "type": "Point", "coordinates": [-75.172451,39.716021]}},
{ "type": "Feature", "properties": {"Name":"Ridgefield borough","State":"New Jersey","State_Abbrev":"NJ"},
"geometry":{ "type": "Point", "coordinates": [-74.014088,40.832677]}},
{ "type": "Feature", "properties": {"Name":"Ridgefield Park village","State":"New Jersey","State_Abbrev":"NJ"},
"geometry":{ "type": "Point", "coordinates": [-74.019926,40.854705]}},
{ "type": "Feature", "properties": {"Name":"Ridgewood village","State":"New Jersey","State_Abbrev":"NJ"},
"geometry":{ "type": "Point", "coordinates": [-74.113506,40.981591]}},
{ "type": "Feature", "properties": {"Name":"Ringoes CDP","State":"New Jersey","State_Abbrev":"NJ"},
"geometry":{ "type": "Point", "coordinates": [-74.871795,40.430883]}},
{ "type": "Feature", "properties": {"Name":"Ringwood borough","State":"New Jersey","State_Abbrev":"NJ"},
"geometry":{ "type": "Point", "coordinates": [-74.271138,41.103963]}},
{ "type": "Feature", "properties": {"Name":"Rio Grande CDP","State":"New Jersey","State_Abbrev":"NJ"},
"geometry":{ "type": "Point", "coordinates": [-74.87787,39.019051]}},
{ "type": "Feature", "properties": {"Name":"Riverdale borough","State":"New Jersey","State_Abbrev":"NJ"},
"geometry":{ "type": "Point", "coordinates": [-74.314532,40.995886]}},
{ "type": "Feature", "properties": {"Name":"River Edge borough","State":"New Jersey","State_Abbrev":"NJ"},
"geometry":{ "type": "Point", "coordinates": [-74.037468,40.926766]}},
{ "type": "Feature", "properties": {"Name":"Riverton borough","State":"New Jersey","State_Abbrev":"NJ"},
"geometry":{ "type": "Point", "coordinates": [-75.01474,40.01194]}},
{ "type": "Feature", "properties": {"Name":"Roadstown CDP","State":"New Jersey","State_Abbrev":"NJ"},
"geometry":{ "type": "Point", "coordinates": [-75.316784,39.443184]}},
{ "type": "Feature", "properties": {"Name":"Robbinsville Center CDP","State":"New Jersey","State_Abbrev":"NJ"},
"geometry":{ "type": "Point", "coordinates": [-74.630225,40.219971]}},
{ "type": "Feature", "properties": {"Name":"Robertsville CDP","State":"New Jersey","State_Abbrev":"NJ"},
"geometry":{ "type": "Point", "coordinates": [-74.294374,40.339513]}},
{ "type": "Feature", "properties": {"Name":"Rockaway borough","State":"New Jersey","State_Abbrev":"NJ"},
"geometry":{ "type": "Point", "coordinates": [-74.517323,40.895853]}},
{ "type": "Feature", "properties": {"Name":"Rockleigh borough","State":"New Jersey","State_Abbrev":"NJ"},
"geometry":{ "type": "Point", "coordinates": [-73.934068,41.000241]}},
{ "type": "Feature", "properties": {"Name":"Rocky Hill borough","State":"New Jersey","State_Abbrev":"NJ"},
"geometry":{ "type": "Point", "coordinates": [-74.638922,40.400347]}},
{ "type": "Feature", "properties": {"Name":"Roebling CDP","State":"New Jersey","State_Abbrev":"NJ"},
"geometry":{ "type": "Point", "coordinates": [-74.777844,40.117217]}},
{ "type": "Feature", "properties": {"Name":"Roosevelt borough","State":"New Jersey","State_Abbrev":"NJ"},
"geometry":{ "type": "Point", "coordinates": [-74.470155,40.220742]}},
{ "type": "Feature", "properties": {"Name":"Roseland borough","State":"New Jersey","State_Abbrev":"NJ"},
"geometry":{ "type": "Point", "coordinates": [-74.310147,40.821737]}},
{ "type": "Feature", "properties": {"Name":"Roselle borough","State":"New Jersey","State_Abbrev":"NJ"},
"geometry":{ "type": "Point", "coordinates": [-74.260158,40.652211]}},
{ "type": "Feature", "properties": {"Name":"Roselle Park borough","State":"New Jersey","State_Abbrev":"NJ"},
"geometry":{ "type": "Point", "coordinates": [-74.266558,40.665309]}},
{ "type": "Feature", "properties": {"Name":"Rosenhayn CDP","State":"New Jersey","State_Abbrev":"NJ"},
"geometry":{ "type": "Point", "coordinates": [-75.137962,39.478674]}},
{ "type": "Feature", "properties": {"Name":"Ross Corner CDP","State":"New Jersey","State_Abbrev":"NJ"},
"geometry":{ "type": "Point", "coordinates": [-74.713604,41.128083]}},
{ "type": "Feature", "properties": {"Name":"Rossmoor CDP","State":"New Jersey","State_Abbrev":"NJ"},
"geometry":{ "type": "Point", "coordinates": [-74.470092,40.33475]}},
{ "type": "Feature", "properties": {"Name":"Rumson borough","State":"New Jersey","State_Abbrev":"NJ"},
"geometry":{ "type": "Point", "coordinates": [-74.00451,40.362067]}},
{ "type": "Feature", "properties": {"Name":"Runnemede borough","State":"New Jersey","State_Abbrev":"NJ"},
"geometry":{ "type": "Point", "coordinates": [-75.075502,39.853411]}},
{ "type": "Feature", "properties": {"Name":"Rutgers University-Busch Campus CDP","State":"New Jersey","State_Abbrev":"NJ"},
"geometry":{ "type": "Point", "coordinates": [-74.467483,40.519602]}},
{ "type": "Feature", "properties": {"Name":"Rutgers University-Livingston Campus CDP","State":"New Jersey","State_Abbrev":"NJ"},
"geometry":{ "type": "Point", "coordinates": [-74.444769,40.517715]}},
{ "type": "Feature", "properties": {"Name":"Rutherford borough","State":"New Jersey","State_Abbrev":"NJ"},
"geometry":{ "type": "Point", "coordinates": [-74.106041,40.820314]}},
{ "type": "Feature", "properties": {"Name":"Saddle River borough","State":"New Jersey","State_Abbrev":"NJ"},
"geometry":{ "type": "Point", "coordinates": [-74.092553,41.023696]}},
{ "type": "Feature", "properties": {"Name":"Salem city","State":"New Jersey","State_Abbrev":"NJ"},
"geometry":{ "type": "Point", "coordinates": [-75.472553,39.568236]}},
{ "type": "Feature", "properties": {"Name":"Sayreville borough","State":"New Jersey","State_Abbrev":"NJ"},
"geometry":{ "type": "Point", "coordinates": [-74.320192,40.466945]}},
{ "type": "Feature", "properties": {"Name":"Sea Bright borough","State":"New Jersey","State_Abbrev":"NJ"},
"geometry":{ "type": "Point", "coordinates": [-73.974892,40.359432]}},
{ "type": "Feature", "properties": {"Name":"Seabrook Farms CDP","State":"New Jersey","State_Abbrev":"NJ"},
"geometry":{ "type": "Point", "coordinates": [-75.220355,39.501155]}},
{ "type": "Feature", "properties": {"Name":"Sea Girt borough","State":"New Jersey","State_Abbrev":"NJ"},
"geometry":{ "type": "Point", "coordinates": [-74.033843,40.130499]}},
{ "type": "Feature", "properties": {"Name":"Sea Isle City city","State":"New Jersey","State_Abbrev":"NJ"},
"geometry":{ "type": "Point", "coordinates": [-74.702732,39.150781]}},
{ "type": "Feature", "properties": {"Name":"Seaside Heights borough","State":"New Jersey","State_Abbrev":"NJ"},
"geometry":{ "type": "Point", "coordinates": [-74.07829,39.944912]}},
{ "type": "Feature", "properties": {"Name":"Seaside Park borough","State":"New Jersey","State_Abbrev":"NJ"},
"geometry":{ "type": "Point", "coordinates": [-74.078711,39.926369]}},
{ "type": "Feature", "properties": {"Name":"Seaville CDP","State":"New Jersey","State_Abbrev":"NJ"},
"geometry":{ "type": "Point", "coordinates": [-74.715993,39.207204]}},
{ "type": "Feature", "properties": {"Name":"Secaucus town","State":"New Jersey","State_Abbrev":"NJ"},
"geometry":{ "type": "Point", "coordinates": [-74.067649,40.781958]}},
{ "type": "Feature", "properties": {"Name":"Seeley CDP","State":"New Jersey","State_Abbrev":"NJ"},
"geometry":{ "type": "Point", "coordinates": [-75.241159,39.483349]}},
{ "type": "Feature", "properties": {"Name":"Sewaren CDP","State":"New Jersey","State_Abbrev":"NJ"},
"geometry":{ "type": "Point", "coordinates": [-74.255175,40.548849]}},
{ "type": "Feature", "properties": {"Name":"Sewell CDP","State":"New Jersey","State_Abbrev":"NJ"},
"geometry":{ "type": "Point", "coordinates": [-75.144697,39.769203]}},
{ "type": "Feature", "properties": {"Name":"Shark River Hills CDP","State":"New Jersey","State_Abbrev":"NJ"},
"geometry":{ "type": "Point", "coordinates": [-74.047409,40.192293]}},
{ "type": "Feature", "properties": {"Name":"Sheppards Mill CDP","State":"New Jersey","State_Abbrev":"NJ"},
"geometry":{ "type": "Point", "coordinates": [-75.313673,39.412445]}},
{ "type": "Feature", "properties": {"Name":"Shiloh borough","State":"New Jersey","State_Abbrev":"NJ"},
"geometry":{ "type": "Point", "coordinates": [-75.29244,39.462418]}},
{ "type": "Feature", "properties": {"Name":"Ship Bottom borough","State":"New Jersey","State_Abbrev":"NJ"},
"geometry":{ "type": "Point", "coordinates": [-74.183003,39.645354]}},
{ "type": "Feature", "properties": {"Name":"Short Hills CDP","State":"New Jersey","State_Abbrev":"NJ"},
"geometry":{ "type": "Point", "coordinates": [-74.327442,40.739157]}},
{ "type": "Feature", "properties": {"Name":"Shrewsbury borough","State":"New Jersey","State_Abbrev":"NJ"},
"geometry":{ "type": "Point", "coordinates": [-74.057373,40.32645]}},
{ "type": "Feature", "properties": {"Name":"Sicklerville CDP","State":"New Jersey","State_Abbrev":"NJ"},
"geometry":{ "type": "Point", "coordinates": [-74.990234,39.742512]}},
{ "type": "Feature", "properties": {"Name":"Silver Lake CDP","State":"New Jersey","State_Abbrev":"NJ"},
"geometry":{ "type": "Point", "coordinates": [-75.239822,39.468475]}},
{ "type": "Feature", "properties": {"Name":"Silver Lake CDP","State":"New Jersey","State_Abbrev":"NJ"},
"geometry":{ "type": "Point", "coordinates": [-74.182815,40.780435]}},
{ "type": "Feature", "properties": {"Name":"Silver Lake CDP","State":"New Jersey","State_Abbrev":"NJ"},
"geometry":{ "type": "Point", "coordinates": [-74.950432,40.932116]}},
{ "type": "Feature", "properties": {"Name":"Silver Ridge CDP","State":"New Jersey","State_Abbrev":"NJ"},
"geometry":{ "type": "Point", "coordinates": [-74.235938,39.961716]}},
{ "type": "Feature", "properties": {"Name":"Singac CDP","State":"New Jersey","State_Abbrev":"NJ"},
"geometry":{ "type": "Point", "coordinates": [-74.242912,40.884938]}},
{ "type": "Feature", "properties": {"Name":"Six Mile Run CDP","State":"New Jersey","State_Abbrev":"NJ"},
"geometry":{ "type": "Point", "coordinates": [-74.534049,40.470151]}},
{ "type": "Feature", "properties": {"Name":"Skillman CDP","State":"New Jersey","State_Abbrev":"NJ"},
"geometry":{ "type": "Point", "coordinates": [-74.712293,40.428191]}},
{ "type": "Feature", "properties": {"Name":"Smithville CDP","State":"New Jersey","State_Abbrev":"NJ"},
"geometry":{ "type": "Point", "coordinates": [-74.478633,39.494939]}},
{ "type": "Feature", "properties": {"Name":"Somerdale borough","State":"New Jersey","State_Abbrev":"NJ"},
"geometry":{ "type": "Point", "coordinates": [-75.021701,39.845416]}},
{ "type": "Feature", "properties": {"Name":"Somerset CDP","State":"New Jersey","State_Abbrev":"NJ"},
"geometry":{ "type": "Point", "coordinates": [-74.500207,40.508507]}},
{ "type": "Feature", "properties": {"Name":"Somers Point city","State":"New Jersey","State_Abbrev":"NJ"},
"geometry":{ "type": "Point", "coordinates": [-74.606383,39.317237]}},
{ "type": "Feature", "properties": {"Name":"Somerville borough","State":"New Jersey","State_Abbrev":"NJ"},
"geometry":{ "type": "Point", "coordinates": [-74.607682,40.569749]}},
{ "type": "Feature", "properties": {"Name":"South Amboy city","State":"New Jersey","State_Abbrev":"NJ"},
"geometry":{ "type": "Point", "coordinates": [-74.278762,40.486391]}},
{ "type": "Feature", "properties": {"Name":"South Bound Brook borough","State":"New Jersey","State_Abbrev":"NJ"},
"geometry":{ "type": "Point", "coordinates": [-74.527455,40.553947]}},
{ "type": "Feature", "properties": {"Name":"South Dennis CDP","State":"New Jersey","State_Abbrev":"NJ"},
"geometry":{ "type": "Point", "coordinates": [-74.804356,39.170241]}},
{ "type": "Feature", "properties": {"Name":"South Plainfield borough","State":"New Jersey","State_Abbrev":"NJ"},
"geometry":{ "type": "Point", "coordinates": [-74.4148,40.574413]}},
{ "type": "Feature", "properties": {"Name":"South River borough","State":"New Jersey","State_Abbrev":"NJ"},
"geometry":{ "type": "Point", "coordinates": [-74.378459,40.445652]}},
{ "type": "Feature", "properties": {"Name":"South Seaville CDP","State":"New Jersey","State_Abbrev":"NJ"},
"geometry":{ "type": "Point", "coordinates": [-74.753564,39.186565]}},
{ "type": "Feature", "properties": {"Name":"South Toms River borough","State":"New Jersey","State_Abbrev":"NJ"},
"geometry":{ "type": "Point", "coordinates": [-74.207013,39.93905]}},
{ "type": "Feature", "properties": {"Name":"Spotswood borough","State":"New Jersey","State_Abbrev":"NJ"},
"geometry":{ "type": "Point", "coordinates": [-74.392737,40.393613]}},
{ "type": "Feature", "properties": {"Name":"Springdale CDP","State":"New Jersey","State_Abbrev":"NJ"},
"geometry":{ "type": "Point", "coordinates": [-74.972145,39.876188]}},
{ "type": "Feature", "properties": {"Name":"Springfield CDP","State":"New Jersey","State_Abbrev":"NJ"},
"geometry":{ "type": "Point", "coordinates": [-74.312988,40.706073]}},
{ "type": "Feature", "properties": {"Name":"Spring Lake borough","State":"New Jersey","State_Abbrev":"NJ"},
"geometry":{ "type": "Point", "coordinates": [-74.026853,40.153764]}},
{ "type": "Feature", "properties": {"Name":"Spring Lake Heights borough","State":"New Jersey","State_Abbrev":"NJ"},
"geometry":{ "type": "Point", "coordinates": [-74.046169,40.149483]}},
{ "type": "Feature", "properties": {"Name":"Stanhope borough","State":"New Jersey","State_Abbrev":"NJ"},
"geometry":{ "type": "Point", "coordinates": [-74.70363,40.913366]}},
{ "type": "Feature", "properties": {"Name":"Stewartsville CDP","State":"New Jersey","State_Abbrev":"NJ"},
"geometry":{ "type": "Point", "coordinates": [-75.102241,40.688919]}},
{ "type": "Feature", "properties": {"Name":"Stirling CDP","State":"New Jersey","State_Abbrev":"NJ"},
"geometry":{ "type": "Point", "coordinates": [-74.488915,40.680423]}},
{ "type": "Feature", "properties": {"Name":"Stockton borough","State":"New Jersey","State_Abbrev":"NJ"},
"geometry":{ "type": "Point", "coordinates": [-74.970627,40.405851]}},
{ "type": "Feature", "properties": {"Name":"Stockton University CDP","State":"New Jersey","State_Abbrev":"NJ"},
"geometry":{ "type": "Point", "coordinates": [-74.549,39.484737]}},
{ "type": "Feature", "properties": {"Name":"Stonebridge CDP","State":"New Jersey","State_Abbrev":"NJ"},
"geometry":{ "type": "Point", "coordinates": [-74.46862,40.295465]}},
{ "type": "Feature", "properties": {"Name":"Stone Harbor borough","State":"New Jersey","State_Abbrev":"NJ"},
"geometry":{ "type": "Point", "coordinates": [-74.768837,39.041691]}},
{ "type": "Feature", "properties": {"Name":"Stratford borough","State":"New Jersey","State_Abbrev":"NJ"},
"geometry":{ "type": "Point", "coordinates": [-75.015536,39.82899]}},
{ "type": "Feature", "properties": {"Name":"Strathmere CDP","State":"New Jersey","State_Abbrev":"NJ"},
"geometry":{ "type": "Point", "coordinates": [-74.660373,39.194835]}},
{ "type": "Feature", "properties": {"Name":"Strathmore CDP","State":"New Jersey","State_Abbrev":"NJ"},
"geometry":{ "type": "Point", "coordinates": [-74.221545,40.402018]}},
{ "type": "Feature", "properties": {"Name":"Succasunna CDP","State":"New Jersey","State_Abbrev":"NJ"},
"geometry":{ "type": "Point", "coordinates": [-74.657357,40.85447]}},
{ "type": "Feature", "properties": {"Name":"Summit city","State":"New Jersey","State_Abbrev":"NJ"},
"geometry":{ "type": "Point", "coordinates": [-74.364684,40.715622]}},
{ "type": "Feature", "properties": {"Name":"Sunset Lake CDP","State":"New Jersey","State_Abbrev":"NJ"},
"geometry":{ "type": "Point", "coordinates": [-75.235024,39.45248]}},
{ "type": "Feature", "properties": {"Name":"Surf City borough","State":"New Jersey","State_Abbrev":"NJ"},
"geometry":{ "type": "Point", "coordinates": [-74.17162,39.664316]}},
{ "type": "Feature", "properties": {"Name":"Sussex borough","State":"New Jersey","State_Abbrev":"NJ"},
"geometry":{ "type": "Point", "coordinates": [-74.608241,41.208771]}},
{ "type": "Feature", "properties": {"Name":"Swedesboro borough","State":"New Jersey","State_Abbrev":"NJ"},
"geometry":{ "type": "Point", "coordinates": [-75.310947,39.745884]}},
{ "type": "Feature", "properties": {"Name":"Sweetwater CDP","State":"New Jersey","State_Abbrev":"NJ"},
"geometry":{ "type": "Point", "coordinates": [-74.650768,39.613418]}},
{ "type": "Feature", "properties": {"Name":"Tavistock borough","State":"New Jersey","State_Abbrev":"NJ"},
"geometry":{ "type": "Point", "coordinates": [-75.029807,39.876265]}},
{ "type": "Feature", "properties": {"Name":"Tenafly borough","State":"New Jersey","State_Abbrev":"NJ"},
"geometry":{ "type": "Point", "coordinates": [-73.950523,40.918309]}},
{ "type": "Feature", "properties": {"Name":"Ten Mile Run CDP","State":"New Jersey","State_Abbrev":"NJ"},
"geometry":{ "type": "Point", "coordinates": [-74.587101,40.422923]}},
{ "type": "Feature", "properties": {"Name":"Teterboro borough","State":"New Jersey","State_Abbrev":"NJ"},
"geometry":{ "type": "Point", "coordinates": [-74.059619,40.854573]}},
{ "type": "Feature", "properties": {"Name":"The College of New Jersey CDP","State":"New Jersey","State_Abbrev":"NJ"},
"geometry":{ "type": "Point", "coordinates": [-74.777899,40.268378]}},
{ "type": "Feature", "properties": {"Name":"The Hills CDP","State":"New Jersey","State_Abbrev":"NJ"},
"geometry":{ "type": "Point", "coordinates": [-74.620979,40.65379]}},
{ "type": "Feature", "properties": {"Name":"The Ponds CDP","State":"New Jersey","State_Abbrev":"NJ"},
"geometry":{ "type": "Point", "coordinates": [-74.453212,40.306826]}},
{ "type": "Feature", "properties": {"Name":"Thorofare CDP","State":"New Jersey","State_Abbrev":"NJ"},
"geometry":{ "type": "Point", "coordinates": [-75.198686,39.854728]}},
{ "type": "Feature", "properties": {"Name":"Three Bridges CDP","State":"New Jersey","State_Abbrev":"NJ"},
"geometry":{ "type": "Point", "coordinates": [-74.80017,40.520594]}},
{ "type": "Feature", "properties": {"Name":"Tinton Falls borough","State":"New Jersey","State_Abbrev":"NJ"},
"geometry":{ "type": "Point", "coordinates": [-74.09613,40.266265]}},
{ "type": "Feature", "properties": {"Name":"Titusville CDP","State":"New Jersey","State_Abbrev":"NJ"},
"geometry":{ "type": "Point", "coordinates": [-74.874934,40.308917]}},
{ "type": "Feature", "properties": {"Name":"Toms River CDP","State":"New Jersey","State_Abbrev":"NJ"},
"geometry":{ "type": "Point", "coordinates": [-74.187754,39.994856]}},
{ "type": "Feature", "properties": {"Name":"Totowa borough","State":"New Jersey","State_Abbrev":"NJ"},
"geometry":{ "type": "Point", "coordinates": [-74.219779,40.903415]}},
{ "type": "Feature", "properties": {"Name":"Towaco CDP","State":"New Jersey","State_Abbrev":"NJ"},
"geometry":{ "type": "Point", "coordinates": [-74.342445,40.926918]}},
{ "type": "Feature", "properties": {"Name":"Trenton city","State":"New Jersey","State_Abbrev":"NJ"},
"geometry":{ "type": "Point", "coordinates": [-74.763624,40.223841]}},
{ "type": "Feature", "properties": {"Name":"Troy Hills CDP","State":"New Jersey","State_Abbrev":"NJ"},
"geometry":{ "type": "Point", "coordinates": [-74.396631,40.850586]}},
{ "type": "Feature", "properties": {"Name":"Tuckahoe CDP","State":"New Jersey","State_Abbrev":"NJ"},
"geometry":{ "type": "Point", "coordinates": [-74.749684,39.289182]}},
{ "type": "Feature", "properties": {"Name":"Tuckerton borough","State":"New Jersey","State_Abbrev":"NJ"},
"geometry":{ "type": "Point", "coordinates": [-74.333079,39.592197]}},
{ "type": "Feature", "properties": {"Name":"Turnersville CDP","State":"New Jersey","State_Abbrev":"NJ"},
"geometry":{ "type": "Point", "coordinates": [-75.062003,39.766445]}},
{ "type": "Feature", "properties": {"Name":"Twin Rivers CDP","State":"New Jersey","State_Abbrev":"NJ"},
"geometry":{ "type": "Point", "coordinates": [-74.491923,40.263538]}},
{ "type": "Feature", "properties": {"Name":"Union CDP","State":"New Jersey","State_Abbrev":"NJ"},
"geometry":{ "type": "Point", "coordinates": [-74.269291,40.696539]}},
{ "type": "Feature", "properties": {"Name":"Union Beach borough","State":"New Jersey","State_Abbrev":"NJ"},
"geometry":{ "type": "Point", "coordinates": [-74.170046,40.44749]}},
{ "type": "Feature", "properties": {"Name":"Union City city","State":"New Jersey","State_Abbrev":"NJ"},
"geometry":{ "type": "Point", "coordinates": [-74.032279,40.767425]}},
{ "type": "Feature", "properties": {"Name":"Upper Greenwood Lake CDP","State":"New Jersey","State_Abbrev":"NJ"},
"geometry":{ "type": "Point", "coordinates": [-74.37815,41.18585]}},
{ "type": "Feature", "properties": {"Name":"Upper Montclair CDP","State":"New Jersey","State_Abbrev":"NJ"},
"geometry":{ "type": "Point", "coordinates": [-74.201302,40.842576]}},
{ "type": "Feature", "properties": {"Name":"Upper Pohatcong CDP","State":"New Jersey","State_Abbrev":"NJ"},
"geometry":{ "type": "Point", "coordinates": [-75.155708,40.677394]}},
{ "type": "Feature", "properties": {"Name":"Upper Saddle River borough","State":"New Jersey","State_Abbrev":"NJ"},
"geometry":{ "type": "Point", "coordinates": [-74.099973,41.063162]}},
{ "type": "Feature", "properties": {"Name":"Upper Stewartsville CDP","State":"New Jersey","State_Abbrev":"NJ"},
"geometry":{ "type": "Point", "coordinates": [-75.120558,40.704794]}},
{ "type": "Feature", "properties": {"Name":"Vauxhall CDP","State":"New Jersey","State_Abbrev":"NJ"},
"geometry":{ "type": "Point", "coordinates": [-74.283782,40.717383]}},
{ "type": "Feature", "properties": {"Name":"Ventnor City city","State":"New Jersey","State_Abbrev":"NJ"},
"geometry":{ "type": "Point", "coordinates": [-74.482626,39.342046]}},
{ "type": "Feature", "properties": {"Name":"Vernon Center CDP","State":"New Jersey","State_Abbrev":"NJ"},
"geometry":{ "type": "Point", "coordinates": [-74.504046,41.188789]}},
{ "type": "Feature", "properties": {"Name":"Vernon Valley CDP","State":"New Jersey","State_Abbrev":"NJ"},
"geometry":{ "type": "Point", "coordinates": [-74.486108,41.242216]}},
{ "type": "Feature", "properties": {"Name":"Victory Gardens borough","State":"New Jersey","State_Abbrev":"NJ"},
"geometry":{ "type": "Point", "coordinates": [-74.54353,40.87613]}},
{ "type": "Feature", "properties": {"Name":"Victory Lakes CDP","State":"New Jersey","State_Abbrev":"NJ"},
"geometry":{ "type": "Point", "coordinates": [-74.969218,39.630558]}},
{ "type": "Feature", "properties": {"Name":"Vienna CDP","State":"New Jersey","State_Abbrev":"NJ"},
"geometry":{ "type": "Point", "coordinates": [-74.872519,40.872247]}},
{ "type": "Feature", "properties": {"Name":"Villas CDP","State":"New Jersey","State_Abbrev":"NJ"},
"geometry":{ "type": "Point", "coordinates": [-74.935972,39.016268]}},
{ "type": "Feature", "properties": {"Name":"Vincentown CDP","State":"New Jersey","State_Abbrev":"NJ"},
"geometry":{ "type": "Point", "coordinates": [-74.751191,39.936298]}},
{ "type": "Feature", "properties": {"Name":"Vineland city","State":"New Jersey","State_Abbrev":"NJ"},
"geometry":{ "type": "Point", "coordinates": [-74.997115,39.465007]}},
{ "type": "Feature", "properties": {"Name":"Vista Center CDP","State":"New Jersey","State_Abbrev":"NJ"},
"geometry":{ "type": "Point", "coordinates": [-74.322325,40.159049]}},
{ "type": "Feature", "properties": {"Name":"Voorhees CDP","State":"New Jersey","State_Abbrev":"NJ"},
"geometry":{ "type": "Point", "coordinates": [-74.492506,40.482176]}},
{ "type": "Feature", "properties": {"Name":"Waldwick borough","State":"New Jersey","State_Abbrev":"NJ"},
"geometry":{ "type": "Point", "coordinates": [-74.125217,41.013367]}},
{ "type": "Feature", "properties": {"Name":"Wallington borough","State":"New Jersey","State_Abbrev":"NJ"},
"geometry":{ "type": "Point", "coordinates": [-74.106323,40.853084]}},
{ "type": "Feature", "properties": {"Name":"Wanamassa CDP","State":"New Jersey","State_Abbrev":"NJ"},
"geometry":{ "type": "Point", "coordinates": [-74.028865,40.236816]}},
{ "type": "Feature", "properties": {"Name":"Wanaque borough","State":"New Jersey","State_Abbrev":"NJ"},
"geometry":{ "type": "Point", "coordinates": [-74.288643,41.042424]}},
{ "type": "Feature", "properties": {"Name":"Waretown CDP","State":"New Jersey","State_Abbrev":"NJ"},
"geometry":{ "type": "Point", "coordinates": [-74.19328,39.789813]}},
{ "type": "Feature", "properties": {"Name":"Washington borough","State":"New Jersey","State_Abbrev":"NJ"},
"geometry":{ "type": "Point", "coordinates": [-74.98319,40.758525]}},
{ "type": "Feature", "properties": {"Name":"Washington Crossing CDP","State":"New Jersey","State_Abbrev":"NJ"},
"geometry":{ "type": "Point", "coordinates": [-74.860283,40.296239]}},
{ "type": "Feature", "properties": {"Name":"Watchung borough","State":"New Jersey","State_Abbrev":"NJ"},
"geometry":{ "type": "Point", "coordinates": [-74.436233,40.642845]}},
{ "type": "Feature", "properties": {"Name":"Watsessing CDP","State":"New Jersey","State_Abbrev":"NJ"},
"geometry":{ "type": "Point", "coordinates": [-74.201159,40.786567]}},
{ "type": "Feature", "properties": {"Name":"Wenonah borough","State":"New Jersey","State_Abbrev":"NJ"},
"geometry":{ "type": "Point", "coordinates": [-75.148216,39.792001]}},
{ "type": "Feature", "properties": {"Name":"West Belmar CDP","State":"New Jersey","State_Abbrev":"NJ"},
"geometry":{ "type": "Point", "coordinates": [-74.037582,40.170666]}},
{ "type": "Feature", "properties": {"Name":"West Berlin CDP","State":"New Jersey","State_Abbrev":"NJ"},
"geometry":{ "type": "Point", "coordinates": [-74.941304,39.809682]}},
{ "type": "Feature", "properties": {"Name":"West Cape May borough","State":"New Jersey","State_Abbrev":"NJ"},
"geometry":{ "type": "Point", "coordinates": [-74.939033,38.942226]}},
{ "type": "Feature", "properties": {"Name":"Westfield town","State":"New Jersey","State_Abbrev":"NJ"},
"geometry":{ "type": "Point", "coordinates": [-74.343447,40.651644]}},
{ "type": "Feature", "properties": {"Name":"West Freehold CDP","State":"New Jersey","State_Abbrev":"NJ"},
"geometry":{ "type": "Point", "coordinates": [-74.294073,40.230905]}},
{ "type": "Feature", "properties": {"Name":"West Long Branch borough","State":"New Jersey","State_Abbrev":"NJ"},
"geometry":{ "type": "Point", "coordinates": [-74.020019,40.287904]}},
{ "type": "Feature", "properties": {"Name":"Westmont CDP","State":"New Jersey","State_Abbrev":"NJ"},
"geometry":{ "type": "Point", "coordinates": [-75.054093,39.907832]}},
{ "type": "Feature", "properties": {"Name":"West New York town","State":"New Jersey","State_Abbrev":"NJ"},
"geometry":{ "type": "Point", "coordinates": [-74.009507,40.786032]}},
{ "type": "Feature", "properties": {"Name":"Weston CDP","State":"New Jersey","State_Abbrev":"NJ"},
"geometry":{ "type": "Point", "coordinates": [-74.574121,40.522409]}},
{ "type": "Feature", "properties": {"Name":"West Park CDP","State":"New Jersey","State_Abbrev":"NJ"},
"geometry":{ "type": "Point", "coordinates": [-75.263676,39.440277]}},
{ "type": "Feature", "properties": {"Name":"Westville borough","State":"New Jersey","State_Abbrev":"NJ"},
"geometry":{ "type": "Point", "coordinates": [-75.129888,39.87069]}},
{ "type": "Feature", "properties": {"Name":"West Wildwood borough","State":"New Jersey","State_Abbrev":"NJ"},
"geometry":{ "type": "Point", "coordinates": [-74.823573,39.000598]}},
{ "type": "Feature", "properties": {"Name":"Westwood borough","State":"New Jersey","State_Abbrev":"NJ"},
"geometry":{ "type": "Point", "coordinates": [-74.031872,40.989032]}},
{ "type": "Feature", "properties": {"Name":"Wharton borough","State":"New Jersey","State_Abbrev":"NJ"},
"geometry":{ "type": "Point", "coordinates": [-74.574512,40.897055]}},
{ "type": "Feature", "properties": {"Name":"Whippany CDP","State":"New Jersey","State_Abbrev":"NJ"},
"geometry":{ "type": "Point", "coordinates": [-74.418686,40.823281]}},
{ "type": "Feature", "properties": {"Name":"White Horse CDP","State":"New Jersey","State_Abbrev":"NJ"},
"geometry":{ "type": "Point", "coordinates": [-74.701372,40.191823]}},
{ "type": "Feature", "properties": {"Name":"White House Station CDP","State":"New Jersey","State_Abbrev":"NJ"},
"geometry":{ "type": "Point", "coordinates": [-74.773473,40.620691]}},
{ "type": "Feature", "properties": {"Name":"White Meadow Lake CDP","State":"New Jersey","State_Abbrev":"NJ"},
"geometry":{ "type": "Point", "coordinates": [-74.510481,40.923773]}},
{ "type": "Feature", "properties": {"Name":"Whitesboro CDP","State":"New Jersey","State_Abbrev":"NJ"},
"geometry":{ "type": "Point", "coordinates": [-74.871845,39.049013]}},
{ "type": "Feature", "properties": {"Name":"Whittingham CDP","State":"New Jersey","State_Abbrev":"NJ"},
"geometry":{ "type": "Point", "coordinates": [-74.445474,40.326654]}},
{ "type": "Feature", "properties": {"Name":"Wildwood city","State":"New Jersey","State_Abbrev":"NJ"},
"geometry":{ "type": "Point", "coordinates": [-74.818188,38.98755]}},
{ "type": "Feature", "properties": {"Name":"Wildwood Crest borough","State":"New Jersey","State_Abbrev":"NJ"},
"geometry":{ "type": "Point", "coordinates": [-74.83733,38.971526]}},
{ "type": "Feature", "properties": {"Name":"William Paterson University of New Jersey CDP","State":"New Jersey","State_Abbrev":"NJ"},
"geometry":{ "type": "Point", "coordinates": [-74.198218,40.945824]}},
{ "type": "Feature", "properties": {"Name":"Williamstown CDP","State":"New Jersey","State_Abbrev":"NJ"},
"geometry":{ "type": "Point", "coordinates": [-74.968674,39.684201]}},
{ "type": "Feature", "properties": {"Name":"Windsor CDP","State":"New Jersey","State_Abbrev":"NJ"},
"geometry":{ "type": "Point", "coordinates": [-74.581329,40.247399]}},
{ "type": "Feature", "properties": {"Name":"Woodbine borough","State":"New Jersey","State_Abbrev":"NJ"},
"geometry":{ "type": "Point", "coordinates": [-74.809621,39.22835]}},
{ "type": "Feature", "properties": {"Name":"Woodbridge CDP","State":"New Jersey","State_Abbrev":"NJ"},
"geometry":{ "type": "Point", "coordinates": [-74.286939,40.552857]}},
{ "type": "Feature", "properties": {"Name":"Woodbury city","State":"New Jersey","State_Abbrev":"NJ"},
"geometry":{ "type": "Point", "coordinates": [-75.15153,39.837906]}},
{ "type": "Feature", "properties": {"Name":"Woodbury Heights borough","State":"New Jersey","State_Abbrev":"NJ"},
"geometry":{ "type": "Point", "coordinates": [-75.15065,39.81329]}},
{ "type": "Feature", "properties": {"Name":"Woodcliff Lake borough","State":"New Jersey","State_Abbrev":"NJ"},
"geometry":{ "type": "Point", "coordinates": [-74.061061,41.025977]}},
{ "type": "Feature", "properties": {"Name":"Woodland Park borough","State":"New Jersey","State_Abbrev":"NJ"},
"geometry":{ "type": "Point", "coordinates": [-74.194356,40.889855]}},
{ "type": "Feature", "properties": {"Name":"Woodlynne borough","State":"New Jersey","State_Abbrev":"NJ"},
"geometry":{ "type": "Point", "coordinates": [-75.095549,39.916478]}},
{ "type": "Feature", "properties": {"Name":"Wood-Ridge borough","State":"New Jersey","State_Abbrev":"NJ"},
"geometry":{ "type": "Point", "coordinates": [-74.087068,40.850183]}},
{ "type": "Feature", "properties": {"Name":"Woodstown borough","State":"New Jersey","State_Abbrev":"NJ"},
"geometry":{ "type": "Point", "coordinates": [-75.326232,39.650178]}},
{ "type": "Feature", "properties": {"Name":"Wrightstown borough","State":"New Jersey","State_Abbrev":"NJ"},
"geometry":{ "type": "Point", "coordinates": [-74.631908,40.025589]}},
{ "type": "Feature", "properties": {"Name":"Yardville CDP","State":"New Jersey","State_Abbrev":"NJ"},
"geometry":{ "type": "Point", "coordinates": [-74.663143,40.186607]}},
{ "type": "Feature", "properties": {"Name":"Yorketown CDP","State":"New Jersey","State_Abbrev":"NJ"},
"geometry":{ "type": "Point", "coordinates": [-74.3389,40.305905]}},
{ "type": "Feature", "properties": {"Name":"Zarephath CDP","State":"New Jersey","State_Abbrev":"NJ"},
"geometry":{ "type": "Point", "coordinates": [-74.572371,40.534569]}}]}
