{"type":"FeatureCollection","features":[
{ "type": "Feature", "properties": {"Name":"Alton CDP","State":"New Hampshire","State_Abbrev":"NH"},
"geometry":{ "type": "Point", "coordinates": [-71.222338,43.456398]}},
{ "type": "Feature", "properties": {"Name":"Amherst CDP","State":"New Hampshire","State_Abbrev":"NH"},
"geometry":{ "type": "Point", "coordinates": [-71.623821,42.863576]}},
{ "type": "Feature", "properties": {"Name":"Antrim CDP","State":"New Hampshire","State_Abbrev":"NH"},
"geometry":{ "type": "Point", "coordinates": [-71.951029,43.044018]}},
{ "type": "Feature", "properties": {"Name":"Ashland CDP","State":"New Hampshire","State_Abbrev":"NH"},
"geometry":{ "type": "Point", "coordinates": [-71.634771,43.695909]}},
{ "type": "Feature", "properties": {"Name":"Bartlett CDP","State":"New Hampshire","State_Abbrev":"NH"},
"geometry":{ "type": "Point", "coordinates": [-71.282576,44.073772]}},
{ "type": "Feature", "properties": {"Name":"Belmont CDP","State":"New Hampshire","State_Abbrev":"NH"},
"geometry":{ "type": "Point", "coordinates": [-71.478854,43.439966]}},
{ "type": "Feature", "properties": {"Name":"Bennington CDP","State":"New Hampshire","State_Abbrev":"NH"},
"geometry":{ "type": "Point", "coordinates": [-71.920702,43.003518]}},
{ "type": "Feature", "properties": {"Name":"Berlin city","State":"New Hampshire","State_Abbrev":"NH"},
"geometry":{ "type": "Point", "coordinates": [-71.277123,44.484328]}},
{ "type": "Feature", "properties": {"Name":"Bethlehem CDP","State":"New Hampshire","State_Abbrev":"NH"},
"geometry":{ "type": "Point", "coordinates": [-71.689024,44.278736]}},
{ "type": "Feature", "properties": {"Name":"Blodgett Landing CDP","State":"New Hampshire","State_Abbrev":"NH"},
"geometry":{ "type": "Point", "coordinates": [-72.039241,43.375638]}},
{ "type": "Feature", "properties": {"Name":"Bradford CDP","State":"New Hampshire","State_Abbrev":"NH"},
"geometry":{ "type": "Point", "coordinates": [-71.961816,43.271713]}},
{ "type": "Feature", "properties": {"Name":"Bristol CDP","State":"New Hampshire","State_Abbrev":"NH"},
"geometry":{ "type": "Point", "coordinates": [-71.734173,43.603368]}},
{ "type": "Feature", "properties": {"Name":"Canaan CDP","State":"New Hampshire","State_Abbrev":"NH"},
"geometry":{ "type": "Point", "coordinates": [-72.015956,43.650306]}},
{ "type": "Feature", "properties": {"Name":"Center Ossipee CDP","State":"New Hampshire","State_Abbrev":"NH"},
"geometry":{ "type": "Point", "coordinates": [-71.150814,43.754212]}},
{ "type": "Feature", "properties": {"Name":"Center Sandwich CDP","State":"New Hampshire","State_Abbrev":"NH"},
"geometry":{ "type": "Point", "coordinates": [-71.441441,43.811951]}},
{ "type": "Feature", "properties": {"Name":"Charlestown CDP","State":"New Hampshire","State_Abbrev":"NH"},
"geometry":{ "type": "Point", "coordinates": [-72.422511,43.235548]}},
{ "type": "Feature", "properties": {"Name":"Claremont city","State":"New Hampshire","State_Abbrev":"NH"},
"geometry":{ "type": "Point", "coordinates": [-72.334496,43.38647]}},
{ "type": "Feature", "properties": {"Name":"Colebrook CDP","State":"New Hampshire","State_Abbrev":"NH"},
"geometry":{ "type": "Point", "coordinates": [-71.494433,44.894949]}},
{ "type": "Feature", "properties": {"Name":"Concord city","State":"New Hampshire","State_Abbrev":"NH"},
"geometry":{ "type": "Point", "coordinates": [-71.561252,43.232493]}},
{ "type": "Feature", "properties": {"Name":"Contoocook CDP","State":"New Hampshire","State_Abbrev":"NH"},
"geometry":{ "type": "Point", "coordinates": [-71.713132,43.230669]}},
{ "type": "Feature", "properties": {"Name":"Conway CDP","State":"New Hampshire","State_Abbrev":"NH"},
"geometry":{ "type": "Point", "coordinates": [-71.120357,43.986651]}},
{ "type": "Feature", "properties": {"Name":"Derry CDP","State":"New Hampshire","State_Abbrev":"NH"},
"geometry":{ "type": "Point", "coordinates": [-71.282047,42.887613]}},
{ "type": "Feature", "properties": {"Name":"Dover city","State":"New Hampshire","State_Abbrev":"NH"},
"geometry":{ "type": "Point", "coordinates": [-70.883623,43.18636]}},
{ "type": "Feature", "properties": {"Name":"Durham CDP","State":"New Hampshire","State_Abbrev":"NH"},
"geometry":{ "type": "Point", "coordinates": [-70.925002,43.142752]}},
{ "type": "Feature", "properties": {"Name":"East Merrimack CDP","State":"New Hampshire","State_Abbrev":"NH"},
"geometry":{ "type": "Point", "coordinates": [-71.481056,42.871979]}},
{ "type": "Feature", "properties": {"Name":"Enfield CDP","State":"New Hampshire","State_Abbrev":"NH"},
"geometry":{ "type": "Point", "coordinates": [-72.146872,43.6438]}},
{ "type": "Feature", "properties": {"Name":"Epping CDP","State":"New Hampshire","State_Abbrev":"NH"},
"geometry":{ "type": "Point", "coordinates": [-71.098414,43.034896]}},
{ "type": "Feature", "properties": {"Name":"Exeter CDP","State":"New Hampshire","State_Abbrev":"NH"},
"geometry":{ "type": "Point", "coordinates": [-70.945458,42.976981]}},
{ "type": "Feature", "properties": {"Name":"Farmington CDP","State":"New Hampshire","State_Abbrev":"NH"},
"geometry":{ "type": "Point", "coordinates": [-71.072384,43.399424]}},
{ "type": "Feature", "properties": {"Name":"Francestown CDP","State":"New Hampshire","State_Abbrev":"NH"},
"geometry":{ "type": "Point", "coordinates": [-71.814072,42.989413]}},
{ "type": "Feature", "properties": {"Name":"Franklin city","State":"New Hampshire","State_Abbrev":"NH"},
"geometry":{ "type": "Point", "coordinates": [-71.669893,43.453915]}},
{ "type": "Feature", "properties": {"Name":"Goffstown CDP","State":"New Hampshire","State_Abbrev":"NH"},
"geometry":{ "type": "Point", "coordinates": [-71.598216,43.022734]}},
{ "type": "Feature", "properties": {"Name":"Gorham CDP","State":"New Hampshire","State_Abbrev":"NH"},
"geometry":{ "type": "Point", "coordinates": [-71.19849,44.393423]}},
{ "type": "Feature", "properties": {"Name":"Greenville CDP","State":"New Hampshire","State_Abbrev":"NH"},
"geometry":{ "type": "Point", "coordinates": [-71.80091,42.772936]}},
{ "type": "Feature", "properties": {"Name":"Groveton CDP","State":"New Hampshire","State_Abbrev":"NH"},
"geometry":{ "type": "Point", "coordinates": [-71.517494,44.611437]}},
{ "type": "Feature", "properties": {"Name":"Hampton CDP","State":"New Hampshire","State_Abbrev":"NH"},
"geometry":{ "type": "Point", "coordinates": [-70.825354,42.943902]}},
{ "type": "Feature", "properties": {"Name":"Hampton Beach CDP","State":"New Hampshire","State_Abbrev":"NH"},
"geometry":{ "type": "Point", "coordinates": [-70.811752,42.913965]}},
{ "type": "Feature", "properties": {"Name":"Hancock CDP","State":"New Hampshire","State_Abbrev":"NH"},
"geometry":{ "type": "Point", "coordinates": [-71.980055,42.974555]}},
{ "type": "Feature", "properties": {"Name":"Hanover CDP","State":"New Hampshire","State_Abbrev":"NH"},
"geometry":{ "type": "Point", "coordinates": [-72.273144,43.71159]}},
{ "type": "Feature", "properties": {"Name":"Henniker CDP","State":"New Hampshire","State_Abbrev":"NH"},
"geometry":{ "type": "Point", "coordinates": [-71.818818,43.181516]}},
{ "type": "Feature", "properties": {"Name":"Hillsborough CDP","State":"New Hampshire","State_Abbrev":"NH"},
"geometry":{ "type": "Point", "coordinates": [-71.896797,43.115572]}},
{ "type": "Feature", "properties": {"Name":"Hinsdale CDP","State":"New Hampshire","State_Abbrev":"NH"},
"geometry":{ "type": "Point", "coordinates": [-72.487888,42.792146]}},
{ "type": "Feature", "properties": {"Name":"Hooksett CDP","State":"New Hampshire","State_Abbrev":"NH"},
"geometry":{ "type": "Point", "coordinates": [-71.457096,43.093547]}},
{ "type": "Feature", "properties": {"Name":"Hudson CDP","State":"New Hampshire","State_Abbrev":"NH"},
"geometry":{ "type": "Point", "coordinates": [-71.43201,42.763811]}},
{ "type": "Feature", "properties": {"Name":"Jaffrey CDP","State":"New Hampshire","State_Abbrev":"NH"},
"geometry":{ "type": "Point", "coordinates": [-72.023441,42.811352]}},
{ "type": "Feature", "properties": {"Name":"Keene city","State":"New Hampshire","State_Abbrev":"NH"},
"geometry":{ "type": "Point", "coordinates": [-72.306875,42.953842]}},
{ "type": "Feature", "properties": {"Name":"Klondike Corner CDP","State":"New Hampshire","State_Abbrev":"NH"},
"geometry":{ "type": "Point", "coordinates": [-71.63645,42.959615]}},
{ "type": "Feature", "properties": {"Name":"Laconia city","State":"New Hampshire","State_Abbrev":"NH"},
"geometry":{ "type": "Point", "coordinates": [-71.482263,43.576535]}},
{ "type": "Feature", "properties": {"Name":"Lancaster CDP","State":"New Hampshire","State_Abbrev":"NH"},
"geometry":{ "type": "Point", "coordinates": [-71.574224,44.488623]}},
{ "type": "Feature", "properties": {"Name":"Lebanon city","State":"New Hampshire","State_Abbrev":"NH"},
"geometry":{ "type": "Point", "coordinates": [-72.253837,43.635428]}},
{ "type": "Feature", "properties": {"Name":"Lincoln CDP","State":"New Hampshire","State_Abbrev":"NH"},
"geometry":{ "type": "Point", "coordinates": [-71.670862,44.060725]}},
{ "type": "Feature", "properties": {"Name":"Lisbon CDP","State":"New Hampshire","State_Abbrev":"NH"},
"geometry":{ "type": "Point", "coordinates": [-71.909631,44.211753]}},
{ "type": "Feature", "properties": {"Name":"Littleton CDP","State":"New Hampshire","State_Abbrev":"NH"},
"geometry":{ "type": "Point", "coordinates": [-71.768668,44.330805]}},
{ "type": "Feature", "properties": {"Name":"Londonderry CDP","State":"New Hampshire","State_Abbrev":"NH"},
"geometry":{ "type": "Point", "coordinates": [-71.362425,42.853398]}},
{ "type": "Feature", "properties": {"Name":"Loudon CDP","State":"New Hampshire","State_Abbrev":"NH"},
"geometry":{ "type": "Point", "coordinates": [-71.465082,43.28183]}},
{ "type": "Feature", "properties": {"Name":"Manchester city","State":"New Hampshire","State_Abbrev":"NH"},
"geometry":{ "type": "Point", "coordinates": [-71.444131,42.984941]}},
{ "type": "Feature", "properties": {"Name":"Marlborough CDP","State":"New Hampshire","State_Abbrev":"NH"},
"geometry":{ "type": "Point", "coordinates": [-72.211671,42.904972]}},
{ "type": "Feature", "properties": {"Name":"Melvin Village CDP","State":"New Hampshire","State_Abbrev":"NH"},
"geometry":{ "type": "Point", "coordinates": [-71.307863,43.690923]}},
{ "type": "Feature", "properties": {"Name":"Meredith CDP","State":"New Hampshire","State_Abbrev":"NH"},
"geometry":{ "type": "Point", "coordinates": [-71.49649,43.652687]}},
{ "type": "Feature", "properties": {"Name":"Milford CDP","State":"New Hampshire","State_Abbrev":"NH"},
"geometry":{ "type": "Point", "coordinates": [-71.678708,42.831645]}},
{ "type": "Feature", "properties": {"Name":"Milton CDP","State":"New Hampshire","State_Abbrev":"NH"},
"geometry":{ "type": "Point", "coordinates": [-70.992366,43.402976]}},
{ "type": "Feature", "properties": {"Name":"Milton Mills CDP","State":"New Hampshire","State_Abbrev":"NH"},
"geometry":{ "type": "Point", "coordinates": [-70.966763,43.506548]}},
{ "type": "Feature", "properties": {"Name":"Mountain Lakes CDP","State":"New Hampshire","State_Abbrev":"NH"},
"geometry":{ "type": "Point", "coordinates": [-71.957761,44.124706]}},
{ "type": "Feature", "properties": {"Name":"Nashua city","State":"New Hampshire","State_Abbrev":"NH"},
"geometry":{ "type": "Point", "coordinates": [-71.490544,42.749074]}},
{ "type": "Feature", "properties": {"Name":"New Boston CDP","State":"New Hampshire","State_Abbrev":"NH"},
"geometry":{ "type": "Point", "coordinates": [-71.693897,42.977803]}},
{ "type": "Feature", "properties": {"Name":"Newfields CDP","State":"New Hampshire","State_Abbrev":"NH"},
"geometry":{ "type": "Point", "coordinates": [-70.939042,43.035477]}},
{ "type": "Feature", "properties": {"Name":"New Hampton CDP","State":"New Hampshire","State_Abbrev":"NH"},
"geometry":{ "type": "Point", "coordinates": [-71.652754,43.610629]}},
{ "type": "Feature", "properties": {"Name":"New London CDP","State":"New Hampshire","State_Abbrev":"NH"},
"geometry":{ "type": "Point", "coordinates": [-71.986142,43.415739]}},
{ "type": "Feature", "properties": {"Name":"Newmarket CDP","State":"New Hampshire","State_Abbrev":"NH"},
"geometry":{ "type": "Point", "coordinates": [-70.940711,43.075685]}},
{ "type": "Feature", "properties": {"Name":"Newport CDP","State":"New Hampshire","State_Abbrev":"NH"},
"geometry":{ "type": "Point", "coordinates": [-72.176631,43.364896]}},
{ "type": "Feature", "properties": {"Name":"North Conway CDP","State":"New Hampshire","State_Abbrev":"NH"},
"geometry":{ "type": "Point", "coordinates": [-71.117232,44.035719]}},
{ "type": "Feature", "properties": {"Name":"North Haverhill CDP","State":"New Hampshire","State_Abbrev":"NH"},
"geometry":{ "type": "Point", "coordinates": [-72.022331,44.094493]}},
{ "type": "Feature", "properties": {"Name":"North Walpole CDP","State":"New Hampshire","State_Abbrev":"NH"},
"geometry":{ "type": "Point", "coordinates": [-72.446559,43.146935]}},
{ "type": "Feature", "properties": {"Name":"North Woodstock CDP","State":"New Hampshire","State_Abbrev":"NH"},
"geometry":{ "type": "Point", "coordinates": [-71.695437,44.039578]}},
{ "type": "Feature", "properties": {"Name":"Peterborough CDP","State":"New Hampshire","State_Abbrev":"NH"},
"geometry":{ "type": "Point", "coordinates": [-71.961109,42.877243]}},
{ "type": "Feature", "properties": {"Name":"Pinardville CDP","State":"New Hampshire","State_Abbrev":"NH"},
"geometry":{ "type": "Point", "coordinates": [-71.513482,43.001266]}},
{ "type": "Feature", "properties": {"Name":"Pittsfield CDP","State":"New Hampshire","State_Abbrev":"NH"},
"geometry":{ "type": "Point", "coordinates": [-71.331458,43.300115]}},
{ "type": "Feature", "properties": {"Name":"Plainfield CDP","State":"New Hampshire","State_Abbrev":"NH"},
"geometry":{ "type": "Point", "coordinates": [-72.353638,43.534503]}},
{ "type": "Feature", "properties": {"Name":"Plymouth CDP","State":"New Hampshire","State_Abbrev":"NH"},
"geometry":{ "type": "Point", "coordinates": [-71.702625,43.738775]}},
{ "type": "Feature", "properties": {"Name":"Portsmouth city","State":"New Hampshire","State_Abbrev":"NH"},
"geometry":{ "type": "Point", "coordinates": [-70.780349,43.060594]}},
{ "type": "Feature", "properties": {"Name":"Raymond CDP","State":"New Hampshire","State_Abbrev":"NH"},
"geometry":{ "type": "Point", "coordinates": [-71.175454,43.035577]}},
{ "type": "Feature", "properties": {"Name":"Rochester city","State":"New Hampshire","State_Abbrev":"NH"},
"geometry":{ "type": "Point", "coordinates": [-70.977005,43.298493]}},
{ "type": "Feature", "properties": {"Name":"Sanbornville CDP","State":"New Hampshire","State_Abbrev":"NH"},
"geometry":{ "type": "Point", "coordinates": [-71.029776,43.552498]}},
{ "type": "Feature", "properties": {"Name":"Seabrook Beach CDP","State":"New Hampshire","State_Abbrev":"NH"},
"geometry":{ "type": "Point", "coordinates": [-70.824511,42.880937]}},
{ "type": "Feature", "properties": {"Name":"Somersworth city","State":"New Hampshire","State_Abbrev":"NH"},
"geometry":{ "type": "Point", "coordinates": [-70.887944,43.253476]}},
{ "type": "Feature", "properties": {"Name":"South Hooksett CDP","State":"New Hampshire","State_Abbrev":"NH"},
"geometry":{ "type": "Point", "coordinates": [-71.426844,43.027768]}},
{ "type": "Feature", "properties": {"Name":"Suissevale CDP","State":"New Hampshire","State_Abbrev":"NH"},
"geometry":{ "type": "Point", "coordinates": [-71.363522,43.722537]}},
{ "type": "Feature", "properties": {"Name":"Suncook CDP","State":"New Hampshire","State_Abbrev":"NH"},
"geometry":{ "type": "Point", "coordinates": [-71.450912,43.135573]}},
{ "type": "Feature", "properties": {"Name":"Tilton Northfield CDP","State":"New Hampshire","State_Abbrev":"NH"},
"geometry":{ "type": "Point", "coordinates": [-71.592635,43.444526]}},
{ "type": "Feature", "properties": {"Name":"Troy CDP","State":"New Hampshire","State_Abbrev":"NH"},
"geometry":{ "type": "Point", "coordinates": [-72.182874,42.825843]}},
{ "type": "Feature", "properties": {"Name":"Union CDP","State":"New Hampshire","State_Abbrev":"NH"},
"geometry":{ "type": "Point", "coordinates": [-71.023068,43.491165]}},
{ "type": "Feature", "properties": {"Name":"Walpole CDP","State":"New Hampshire","State_Abbrev":"NH"},
"geometry":{ "type": "Point", "coordinates": [-72.424804,43.078344]}},
{ "type": "Feature", "properties": {"Name":"Warner CDP","State":"New Hampshire","State_Abbrev":"NH"},
"geometry":{ "type": "Point", "coordinates": [-71.824059,43.284261]}},
{ "type": "Feature", "properties": {"Name":"West Stewartstown CDP","State":"New Hampshire","State_Abbrev":"NH"},
"geometry":{ "type": "Point", "coordinates": [-71.530184,44.990616]}},
{ "type": "Feature", "properties": {"Name":"West Swanzey CDP","State":"New Hampshire","State_Abbrev":"NH"},
"geometry":{ "type": "Point", "coordinates": [-72.322406,42.870597]}},
{ "type": "Feature", "properties": {"Name":"Whitefield CDP","State":"New Hampshire","State_Abbrev":"NH"},
"geometry":{ "type": "Point", "coordinates": [-71.609953,44.371308]}},
{ "type": "Feature", "properties": {"Name":"Wilton CDP","State":"New Hampshire","State_Abbrev":"NH"},
"geometry":{ "type": "Point", "coordinates": [-71.73598,42.846973]}},
{ "type": "Feature", "properties": {"Name":"Winchester CDP","State":"New Hampshire","State_Abbrev":"NH"},
"geometry":{ "type": "Point", "coordinates": [-72.384704,42.779751]}},
{ "type": "Feature", "properties": {"Name":"Wolfeboro CDP","State":"New Hampshire","State_Abbrev":"NH"},
"geometry":{ "type": "Point", "coordinates": [-71.211633,43.593631]}},
{ "type": "Feature", "properties": {"Name":"Woodsville CDP","State":"New Hampshire","State_Abbrev":"NH"},
"geometry":{ "type": "Point", "coordinates": [-72.02683,44.141584]}}]}
