{"type":"FeatureCollection","features":[
{ "type": "Feature", "properties": {"Name":"Abeytas CDP","State":"New Mexico","State_Abbrev":"NM"},
"geometry":{ "type": "Point", "coordinates": [-106.813755,34.465202]}},
{ "type": "Feature", "properties": {"Name":"Abiquiu CDP","State":"New Mexico","State_Abbrev":"NM"},
"geometry":{ "type": "Point", "coordinates": [-106.323852,36.201726]}},
{ "type": "Feature", "properties": {"Name":"Acomita Lake CDP","State":"New Mexico","State_Abbrev":"NM"},
"geometry":{ "type": "Point", "coordinates": [-107.614564,35.068881]}},
{ "type": "Feature", "properties": {"Name":"Adelino CDP","State":"New Mexico","State_Abbrev":"NM"},
"geometry":{ "type": "Point", "coordinates": [-106.731823,34.70639]}},
{ "type": "Feature", "properties": {"Name":"Agua Fria CDP","State":"New Mexico","State_Abbrev":"NM"},
"geometry":{ "type": "Point", "coordinates": [-106.014788,35.661557]}},
{ "type": "Feature", "properties": {"Name":"Alamillo CDP","State":"New Mexico","State_Abbrev":"NM"},
"geometry":{ "type": "Point", "coordinates": [-106.9158,34.251883]}},
{ "type": "Feature", "properties": {"Name":"Alamo CDP","State":"New Mexico","State_Abbrev":"NM"},
"geometry":{ "type": "Point", "coordinates": [-107.512485,34.4184]}},
{ "type": "Feature", "properties": {"Name":"Alamogordo city","State":"New Mexico","State_Abbrev":"NM"},
"geometry":{ "type": "Point", "coordinates": [-105.96361,32.883616]}},
{ "type": "Feature", "properties": {"Name":"Albuquerque city","State":"New Mexico","State_Abbrev":"NM"},
"geometry":{ "type": "Point", "coordinates": [-106.646809,35.10478]}},
{ "type": "Feature", "properties": {"Name":"Alcalde CDP","State":"New Mexico","State_Abbrev":"NM"},
"geometry":{ "type": "Point", "coordinates": [-106.057516,36.085393]}},
{ "type": "Feature", "properties": {"Name":"Algodones CDP","State":"New Mexico","State_Abbrev":"NM"},
"geometry":{ "type": "Point", "coordinates": [-106.488878,35.370711]}},
{ "type": "Feature", "properties": {"Name":"Alma CDP","State":"New Mexico","State_Abbrev":"NM"},
"geometry":{ "type": "Point", "coordinates": [-108.894402,33.384508]}},
{ "type": "Feature", "properties": {"Name":"Angel Fire village","State":"New Mexico","State_Abbrev":"NM"},
"geometry":{ "type": "Point", "coordinates": [-105.258839,36.377971]}},
{ "type": "Feature", "properties": {"Name":"Angustura CDP","State":"New Mexico","State_Abbrev":"NM"},
"geometry":{ "type": "Point", "coordinates": [-107.917248,36.712792]}},
{ "type": "Feature", "properties": {"Name":"Animas CDP","State":"New Mexico","State_Abbrev":"NM"},
"geometry":{ "type": "Point", "coordinates": [-108.806459,31.944863]}},
{ "type": "Feature", "properties": {"Name":"Anthony city","State":"New Mexico","State_Abbrev":"NM"},
"geometry":{ "type": "Point", "coordinates": [-106.598396,32.013148]}},
{ "type": "Feature", "properties": {"Name":"Anton Chico CDP","State":"New Mexico","State_Abbrev":"NM"},
"geometry":{ "type": "Point", "coordinates": [-105.143897,35.194869]}},
{ "type": "Feature", "properties": {"Name":"Anzac Village CDP","State":"New Mexico","State_Abbrev":"NM"},
"geometry":{ "type": "Point", "coordinates": [-107.74138,35.062402]}},
{ "type": "Feature", "properties": {"Name":"Apache Creek CDP","State":"New Mexico","State_Abbrev":"NM"},
"geometry":{ "type": "Point", "coordinates": [-108.615044,33.860337]}},
{ "type": "Feature", "properties": {"Name":"Aragon CDP","State":"New Mexico","State_Abbrev":"NM"},
"geometry":{ "type": "Point", "coordinates": [-108.520212,33.88973]}},
{ "type": "Feature", "properties": {"Name":"Arenas Valley CDP","State":"New Mexico","State_Abbrev":"NM"},
"geometry":{ "type": "Point", "coordinates": [-108.203136,32.775647]}},
{ "type": "Feature", "properties": {"Name":"Arrey CDP","State":"New Mexico","State_Abbrev":"NM"},
"geometry":{ "type": "Point", "coordinates": [-107.320347,32.847176]}},
{ "type": "Feature", "properties": {"Name":"Arroyo Hondo CDP","State":"New Mexico","State_Abbrev":"NM"},
"geometry":{ "type": "Point", "coordinates": [-105.944991,35.610294]}},
{ "type": "Feature", "properties": {"Name":"Arroyo Hondo CDP","State":"New Mexico","State_Abbrev":"NM"},
"geometry":{ "type": "Point", "coordinates": [-105.666602,36.534599]}},
{ "type": "Feature", "properties": {"Name":"Arroyo Seco CDP","State":"New Mexico","State_Abbrev":"NM"},
"geometry":{ "type": "Point", "coordinates": [-105.586108,36.521516]}},
{ "type": "Feature", "properties": {"Name":"Artesia city","State":"New Mexico","State_Abbrev":"NM"},
"geometry":{ "type": "Point", "coordinates": [-104.42457,32.852173]}},
{ "type": "Feature", "properties": {"Name":"Atoka CDP","State":"New Mexico","State_Abbrev":"NM"},
"geometry":{ "type": "Point", "coordinates": [-104.393677,32.777976]}},
{ "type": "Feature", "properties": {"Name":"Aztec city","State":"New Mexico","State_Abbrev":"NM"},
"geometry":{ "type": "Point", "coordinates": [-107.970312,36.815898]}},
{ "type": "Feature", "properties": {"Name":"Barton CDP","State":"New Mexico","State_Abbrev":"NM"},
"geometry":{ "type": "Point", "coordinates": [-106.256859,35.065283]}},
{ "type": "Feature", "properties": {"Name":"Bayard city","State":"New Mexico","State_Abbrev":"NM"},
"geometry":{ "type": "Point", "coordinates": [-108.13381,32.758182]}},
{ "type": "Feature", "properties": {"Name":"Becenti CDP","State":"New Mexico","State_Abbrev":"NM"},
"geometry":{ "type": "Point", "coordinates": [-108.170855,35.812278]}},
{ "type": "Feature", "properties": {"Name":"Beclabito CDP","State":"New Mexico","State_Abbrev":"NM"},
"geometry":{ "type": "Point", "coordinates": [-109.003821,36.83347]}},
{ "type": "Feature", "properties": {"Name":"Belen city","State":"New Mexico","State_Abbrev":"NM"},
"geometry":{ "type": "Point", "coordinates": [-106.808512,34.766572]}},
{ "type": "Feature", "properties": {"Name":"Bent CDP","State":"New Mexico","State_Abbrev":"NM"},
"geometry":{ "type": "Point", "coordinates": [-105.87237,33.142547]}},
{ "type": "Feature", "properties": {"Name":"Berino CDP","State":"New Mexico","State_Abbrev":"NM"},
"geometry":{ "type": "Point", "coordinates": [-106.622065,32.069022]}},
{ "type": "Feature", "properties": {"Name":"Bernalillo town","State":"New Mexico","State_Abbrev":"NM"},
"geometry":{ "type": "Point", "coordinates": [-106.554104,35.312363]}},
{ "type": "Feature", "properties": {"Name":"Bibo CDP","State":"New Mexico","State_Abbrev":"NM"},
"geometry":{ "type": "Point", "coordinates": [-107.406978,35.172546]}},
{ "type": "Feature", "properties": {"Name":"Black Hat CDP","State":"New Mexico","State_Abbrev":"NM"},
"geometry":{ "type": "Point", "coordinates": [-108.964078,35.631051]}},
{ "type": "Feature", "properties": {"Name":"Black Rock CDP","State":"New Mexico","State_Abbrev":"NM"},
"geometry":{ "type": "Point", "coordinates": [-108.798214,35.08092]}},
{ "type": "Feature", "properties": {"Name":"Blanco CDP","State":"New Mexico","State_Abbrev":"NM"},
"geometry":{ "type": "Point", "coordinates": [-107.770245,36.76178]}},
{ "type": "Feature", "properties": {"Name":"Bloomfield city","State":"New Mexico","State_Abbrev":"NM"},
"geometry":{ "type": "Point", "coordinates": [-107.973937,36.743306]}},
{ "type": "Feature", "properties": {"Name":"Bluewater CDP","State":"New Mexico","State_Abbrev":"NM"},
"geometry":{ "type": "Point", "coordinates": [-108.205991,35.324306]}},
{ "type": "Feature", "properties": {"Name":"Bluewater Village CDP","State":"New Mexico","State_Abbrev":"NM"},
"geometry":{ "type": "Point", "coordinates": [-107.969468,35.246698]}},
{ "type": "Feature", "properties": {"Name":"Boles Acres CDP","State":"New Mexico","State_Abbrev":"NM"},
"geometry":{ "type": "Point", "coordinates": [-105.97768,32.820016]}},
{ "type": "Feature", "properties": {"Name":"Borrego Pass CDP","State":"New Mexico","State_Abbrev":"NM"},
"geometry":{ "type": "Point", "coordinates": [-108.016484,35.566444]}},
{ "type": "Feature", "properties": {"Name":"Bosque Farms village","State":"New Mexico","State_Abbrev":"NM"},
"geometry":{ "type": "Point", "coordinates": [-106.701049,34.853577]}},
{ "type": "Feature", "properties": {"Name":"Brazos CDP","State":"New Mexico","State_Abbrev":"NM"},
"geometry":{ "type": "Point", "coordinates": [-106.559879,36.752761]}},
{ "type": "Feature", "properties": {"Name":"Brimhall Nizhoni CDP","State":"New Mexico","State_Abbrev":"NM"},
"geometry":{ "type": "Point", "coordinates": [-108.62968,35.791711]}},
{ "type": "Feature", "properties": {"Name":"Broadview CDP","State":"New Mexico","State_Abbrev":"NM"},
"geometry":{ "type": "Point", "coordinates": [-107.876066,35.225717]}},
{ "type": "Feature", "properties": {"Name":"Buckhorn CDP","State":"New Mexico","State_Abbrev":"NM"},
"geometry":{ "type": "Point", "coordinates": [-108.69439,33.03148]}},
{ "type": "Feature", "properties": {"Name":"Butterfield Park CDP","State":"New Mexico","State_Abbrev":"NM"},
"geometry":{ "type": "Point", "coordinates": [-106.645663,32.405228]}},
{ "type": "Feature", "properties": {"Name":"Caballo CDP","State":"New Mexico","State_Abbrev":"NM"},
"geometry":{ "type": "Point", "coordinates": [-107.307479,32.980627]}},
{ "type": "Feature", "properties": {"Name":"Cañada de los Alamos CDP","State":"New Mexico","State_Abbrev":"NM"},
"geometry":{ "type": "Point", "coordinates": [-105.859754,35.592655]}},
{ "type": "Feature", "properties": {"Name":"Candy Kitchen CDP","State":"New Mexico","State_Abbrev":"NM"},
"geometry":{ "type": "Point", "coordinates": [-108.496452,34.909301]}},
{ "type": "Feature", "properties": {"Name":"Canjilon CDP","State":"New Mexico","State_Abbrev":"NM"},
"geometry":{ "type": "Point", "coordinates": [-106.42402,36.483678]}},
{ "type": "Feature", "properties": {"Name":"Cannon AFB CDP","State":"New Mexico","State_Abbrev":"NM"},
"geometry":{ "type": "Point", "coordinates": [-103.316944,34.382137]}},
{ "type": "Feature", "properties": {"Name":"Cañon CDP","State":"New Mexico","State_Abbrev":"NM"},
"geometry":{ "type": "Point", "coordinates": [-106.752682,35.671759]}},
{ "type": "Feature", "properties": {"Name":"Cañoncito CDP","State":"New Mexico","State_Abbrev":"NM"},
"geometry":{ "type": "Point", "coordinates": [-105.838875,35.535238]}},
{ "type": "Feature", "properties": {"Name":"Cañones CDP","State":"New Mexico","State_Abbrev":"NM"},
"geometry":{ "type": "Point", "coordinates": [-106.419355,36.176434]}},
{ "type": "Feature", "properties": {"Name":"Canova CDP","State":"New Mexico","State_Abbrev":"NM"},
"geometry":{ "type": "Point", "coordinates": [-105.988802,36.167839]}},
{ "type": "Feature", "properties": {"Name":"Capitan village","State":"New Mexico","State_Abbrev":"NM"},
"geometry":{ "type": "Point", "coordinates": [-105.598242,33.539248]}},
{ "type": "Feature", "properties": {"Name":"Capulin CDP","State":"New Mexico","State_Abbrev":"NM"},
"geometry":{ "type": "Point", "coordinates": [-104.00213,36.746498]}},
{ "type": "Feature", "properties": {"Name":"Carlsbad city","State":"New Mexico","State_Abbrev":"NM"},
"geometry":{ "type": "Point", "coordinates": [-104.241012,32.40079]}},
{ "type": "Feature", "properties": {"Name":"Carnuel CDP","State":"New Mexico","State_Abbrev":"NM"},
"geometry":{ "type": "Point", "coordinates": [-106.457172,35.061172]}},
{ "type": "Feature", "properties": {"Name":"Carrizozo town","State":"New Mexico","State_Abbrev":"NM"},
"geometry":{ "type": "Point", "coordinates": [-105.841132,33.643341]}},
{ "type": "Feature", "properties": {"Name":"Casa Colorada CDP","State":"New Mexico","State_Abbrev":"NM"},
"geometry":{ "type": "Point", "coordinates": [-106.73987,34.550932]}},
{ "type": "Feature", "properties": {"Name":"Casas Adobes CDP","State":"New Mexico","State_Abbrev":"NM"},
"geometry":{ "type": "Point", "coordinates": [-107.93898,32.809425]}},
{ "type": "Feature", "properties": {"Name":"Catalpa Canyon CDP","State":"New Mexico","State_Abbrev":"NM"},
"geometry":{ "type": "Point", "coordinates": [-108.720568,35.494211]}},
{ "type": "Feature", "properties": {"Name":"Causey village","State":"New Mexico","State_Abbrev":"NM"},
"geometry":{ "type": "Point", "coordinates": [-103.125226,33.866663]}},
{ "type": "Feature", "properties": {"Name":"Cedar Crest CDP","State":"New Mexico","State_Abbrev":"NM"},
"geometry":{ "type": "Point", "coordinates": [-106.380083,35.114724]}},
{ "type": "Feature", "properties": {"Name":"Cedar Grove CDP","State":"New Mexico","State_Abbrev":"NM"},
"geometry":{ "type": "Point", "coordinates": [-106.166914,35.177201]}},
{ "type": "Feature", "properties": {"Name":"Cedar Hill CDP","State":"New Mexico","State_Abbrev":"NM"},
"geometry":{ "type": "Point", "coordinates": [-107.883474,36.946037]}},
{ "type": "Feature", "properties": {"Name":"Cedro CDP","State":"New Mexico","State_Abbrev":"NM"},
"geometry":{ "type": "Point", "coordinates": [-106.35083,35.018055]}},
{ "type": "Feature", "properties": {"Name":"Center Point CDP","State":"New Mexico","State_Abbrev":"NM"},
"geometry":{ "type": "Point", "coordinates": [-107.95539,36.870997]}},
{ "type": "Feature", "properties": {"Name":"Chama village","State":"New Mexico","State_Abbrev":"NM"},
"geometry":{ "type": "Point", "coordinates": [-106.584163,36.890126]}},
{ "type": "Feature", "properties": {"Name":"Chamberino CDP","State":"New Mexico","State_Abbrev":"NM"},
"geometry":{ "type": "Point", "coordinates": [-106.677625,32.036366]}},
{ "type": "Feature", "properties": {"Name":"Chamisal CDP","State":"New Mexico","State_Abbrev":"NM"},
"geometry":{ "type": "Point", "coordinates": [-105.745963,36.172542]}},
{ "type": "Feature", "properties": {"Name":"Chamita CDP","State":"New Mexico","State_Abbrev":"NM"},
"geometry":{ "type": "Point", "coordinates": [-106.093754,36.069263]}},
{ "type": "Feature", "properties": {"Name":"Chamizal CDP","State":"New Mexico","State_Abbrev":"NM"},
"geometry":{ "type": "Point", "coordinates": [-106.915108,34.218262]}},
{ "type": "Feature", "properties": {"Name":"Chaparral CDP","State":"New Mexico","State_Abbrev":"NM"},
"geometry":{ "type": "Point", "coordinates": [-106.4061,32.044254]}},
{ "type": "Feature", "properties": {"Name":"Chical CDP","State":"New Mexico","State_Abbrev":"NM"},
"geometry":{ "type": "Point", "coordinates": [-106.667091,34.865786]}},
{ "type": "Feature", "properties": {"Name":"Chili CDP","State":"New Mexico","State_Abbrev":"NM"},
"geometry":{ "type": "Point", "coordinates": [-106.152714,36.10501]}},
{ "type": "Feature", "properties": {"Name":"Chilili CDP","State":"New Mexico","State_Abbrev":"NM"},
"geometry":{ "type": "Point", "coordinates": [-106.233133,34.897374]}},
{ "type": "Feature", "properties": {"Name":"Chimayo CDP","State":"New Mexico","State_Abbrev":"NM"},
"geometry":{ "type": "Point", "coordinates": [-105.945035,35.99859]}},
{ "type": "Feature", "properties": {"Name":"Chupadero CDP","State":"New Mexico","State_Abbrev":"NM"},
"geometry":{ "type": "Point", "coordinates": [-105.919743,35.8144]}},
{ "type": "Feature", "properties": {"Name":"Church Rock CDP","State":"New Mexico","State_Abbrev":"NM"},
"geometry":{ "type": "Point", "coordinates": [-108.573042,35.569203]}},
{ "type": "Feature", "properties": {"Name":"Cimarron village","State":"New Mexico","State_Abbrev":"NM"},
"geometry":{ "type": "Point", "coordinates": [-104.910354,36.508302]}},
{ "type": "Feature", "properties": {"Name":"City of the Sun CDP","State":"New Mexico","State_Abbrev":"NM"},
"geometry":{ "type": "Point", "coordinates": [-107.65039,31.846639]}},
{ "type": "Feature", "properties": {"Name":"Clayton town","State":"New Mexico","State_Abbrev":"NM"},
"geometry":{ "type": "Point", "coordinates": [-103.148863,36.446033]}},
{ "type": "Feature", "properties": {"Name":"Cliff CDP","State":"New Mexico","State_Abbrev":"NM"},
"geometry":{ "type": "Point", "coordinates": [-108.617594,32.965957]}},
{ "type": "Feature", "properties": {"Name":"Cloudcroft village","State":"New Mexico","State_Abbrev":"NM"},
"geometry":{ "type": "Point", "coordinates": [-105.732436,32.95219]}},
{ "type": "Feature", "properties": {"Name":"Clovis city","State":"New Mexico","State_Abbrev":"NM"},
"geometry":{ "type": "Point", "coordinates": [-103.194194,34.438569]}},
{ "type": "Feature", "properties": {"Name":"Cobre CDP","State":"New Mexico","State_Abbrev":"NM"},
"geometry":{ "type": "Point", "coordinates": [-108.11061,32.78042]}},
{ "type": "Feature", "properties": {"Name":"Cochiti CDP","State":"New Mexico","State_Abbrev":"NM"},
"geometry":{ "type": "Point", "coordinates": [-106.350143,35.610354]}},
{ "type": "Feature", "properties": {"Name":"Cochiti Lake CDP","State":"New Mexico","State_Abbrev":"NM"},
"geometry":{ "type": "Point", "coordinates": [-106.342537,35.647835]}},
{ "type": "Feature", "properties": {"Name":"Columbus village","State":"New Mexico","State_Abbrev":"NM"},
"geometry":{ "type": "Point", "coordinates": [-107.642294,31.827418]}},
{ "type": "Feature", "properties": {"Name":"Conchas Dam CDP","State":"New Mexico","State_Abbrev":"NM"},
"geometry":{ "type": "Point", "coordinates": [-104.195361,35.354827]}},
{ "type": "Feature", "properties": {"Name":"Conejo CDP","State":"New Mexico","State_Abbrev":"NM"},
"geometry":{ "type": "Point", "coordinates": [-105.942334,35.62871]}},
{ "type": "Feature", "properties": {"Name":"Continental Divide CDP","State":"New Mexico","State_Abbrev":"NM"},
"geometry":{ "type": "Point", "coordinates": [-108.33582,35.432904]}},
{ "type": "Feature", "properties": {"Name":"Cordova CDP","State":"New Mexico","State_Abbrev":"NM"},
"geometry":{ "type": "Point", "coordinates": [-105.856648,36.012769]}},
{ "type": "Feature", "properties": {"Name":"Corona village","State":"New Mexico","State_Abbrev":"NM"},
"geometry":{ "type": "Point", "coordinates": [-105.596979,34.250106]}},
{ "type": "Feature", "properties": {"Name":"Corrales village","State":"New Mexico","State_Abbrev":"NM"},
"geometry":{ "type": "Point", "coordinates": [-106.627061,35.239575]}},
{ "type": "Feature", "properties": {"Name":"Costilla CDP","State":"New Mexico","State_Abbrev":"NM"},
"geometry":{ "type": "Point", "coordinates": [-105.535268,36.978472]}},
{ "type": "Feature", "properties": {"Name":"Cotton City CDP","State":"New Mexico","State_Abbrev":"NM"},
"geometry":{ "type": "Point", "coordinates": [-108.88013,32.110519]}},
{ "type": "Feature", "properties": {"Name":"Coyote CDP","State":"New Mexico","State_Abbrev":"NM"},
"geometry":{ "type": "Point", "coordinates": [-106.607588,36.150899]}},
{ "type": "Feature", "properties": {"Name":"Crestview CDP","State":"New Mexico","State_Abbrev":"NM"},
"geometry":{ "type": "Point", "coordinates": [-108.857396,35.487784]}},
{ "type": "Feature", "properties": {"Name":"Crouch Mesa CDP","State":"New Mexico","State_Abbrev":"NM"},
"geometry":{ "type": "Point", "coordinates": [-108.085278,36.74804]}},
{ "type": "Feature", "properties": {"Name":"Crownpoint CDP","State":"New Mexico","State_Abbrev":"NM"},
"geometry":{ "type": "Point", "coordinates": [-108.155415,35.734328]}},
{ "type": "Feature", "properties": {"Name":"Cruzville CDP","State":"New Mexico","State_Abbrev":"NM"},
"geometry":{ "type": "Point", "coordinates": [-108.66769,33.81099]}},
{ "type": "Feature", "properties": {"Name":"Crystal CDP","State":"New Mexico","State_Abbrev":"NM"},
"geometry":{ "type": "Point", "coordinates": [-108.989215,36.030009]}},
{ "type": "Feature", "properties": {"Name":"Cuartelez CDP","State":"New Mexico","State_Abbrev":"NM"},
"geometry":{ "type": "Point", "coordinates": [-106.019682,35.992837]}},
{ "type": "Feature", "properties": {"Name":"Cuba village","State":"New Mexico","State_Abbrev":"NM"},
"geometry":{ "type": "Point", "coordinates": [-106.968011,36.014583]}},
{ "type": "Feature", "properties": {"Name":"Cubero CDP","State":"New Mexico","State_Abbrev":"NM"},
"geometry":{ "type": "Point", "coordinates": [-107.5261,35.090454]}},
{ "type": "Feature", "properties": {"Name":"Cundiyo CDP","State":"New Mexico","State_Abbrev":"NM"},
"geometry":{ "type": "Point", "coordinates": [-105.900856,35.960838]}},
{ "type": "Feature", "properties": {"Name":"Cuyamungue CDP","State":"New Mexico","State_Abbrev":"NM"},
"geometry":{ "type": "Point", "coordinates": [-106.009623,35.864784]}},
{ "type": "Feature", "properties": {"Name":"Cuyamungue Grant CDP","State":"New Mexico","State_Abbrev":"NM"},
"geometry":{ "type": "Point", "coordinates": [-105.994872,35.846423]}},
{ "type": "Feature", "properties": {"Name":"Datil CDP","State":"New Mexico","State_Abbrev":"NM"},
"geometry":{ "type": "Point", "coordinates": [-107.841329,34.138871]}},
{ "type": "Feature", "properties": {"Name":"Deer Canyon CDP","State":"New Mexico","State_Abbrev":"NM"},
"geometry":{ "type": "Point", "coordinates": [-106.284041,34.423568]}},
{ "type": "Feature", "properties": {"Name":"Deming city","State":"New Mexico","State_Abbrev":"NM"},
"geometry":{ "type": "Point", "coordinates": [-107.75249,32.263076]}},
{ "type": "Feature", "properties": {"Name":"Des Moines village","State":"New Mexico","State_Abbrev":"NM"},
"geometry":{ "type": "Point", "coordinates": [-103.834074,36.761265]}},
{ "type": "Feature", "properties": {"Name":"Dexter town","State":"New Mexico","State_Abbrev":"NM"},
"geometry":{ "type": "Point", "coordinates": [-104.368898,33.194827]}},
{ "type": "Feature", "properties": {"Name":"Dixon CDP","State":"New Mexico","State_Abbrev":"NM"},
"geometry":{ "type": "Point", "coordinates": [-105.891039,36.179591]}},
{ "type": "Feature", "properties": {"Name":"Doña Ana CDP","State":"New Mexico","State_Abbrev":"NM"},
"geometry":{ "type": "Point", "coordinates": [-106.817714,32.393941]}},
{ "type": "Feature", "properties": {"Name":"Dora village","State":"New Mexico","State_Abbrev":"NM"},
"geometry":{ "type": "Point", "coordinates": [-103.33855,33.925866]}},
{ "type": "Feature", "properties": {"Name":"Dulce CDP","State":"New Mexico","State_Abbrev":"NM"},
"geometry":{ "type": "Point", "coordinates": [-107.000284,36.953773]}},
{ "type": "Feature", "properties": {"Name":"Duran CDP","State":"New Mexico","State_Abbrev":"NM"},
"geometry":{ "type": "Point", "coordinates": [-105.380715,34.463621]}},
{ "type": "Feature", "properties": {"Name":"Eagle Nest village","State":"New Mexico","State_Abbrev":"NM"},
"geometry":{ "type": "Point", "coordinates": [-105.260701,36.546987]}},
{ "type": "Feature", "properties": {"Name":"East Pecos CDP","State":"New Mexico","State_Abbrev":"NM"},
"geometry":{ "type": "Point", "coordinates": [-105.649963,35.576552]}},
{ "type": "Feature", "properties": {"Name":"Edgewood town","State":"New Mexico","State_Abbrev":"NM"},
"geometry":{ "type": "Point", "coordinates": [-106.220161,35.131319]}},
{ "type": "Feature", "properties": {"Name":"Edith Enclave CDP","State":"New Mexico","State_Abbrev":"NM"},
"geometry":{ "type": "Point", "coordinates": [-106.585879,35.211181]}},
{ "type": "Feature", "properties": {"Name":"El Cerro CDP","State":"New Mexico","State_Abbrev":"NM"},
"geometry":{ "type": "Point", "coordinates": [-106.69571,34.780465]}},
{ "type": "Feature", "properties": {"Name":"El Cerro Mission CDP","State":"New Mexico","State_Abbrev":"NM"},
"geometry":{ "type": "Point", "coordinates": [-106.64468,34.768734]}},
{ "type": "Feature", "properties": {"Name":"Eldorado at Santa Fe CDP","State":"New Mexico","State_Abbrev":"NM"},
"geometry":{ "type": "Point", "coordinates": [-105.93397,35.527245]}},
{ "type": "Feature", "properties": {"Name":"El Duende CDP","State":"New Mexico","State_Abbrev":"NM"},
"geometry":{ "type": "Point", "coordinates": [-106.130136,36.068438]}},
{ "type": "Feature", "properties": {"Name":"Elephant Butte city","State":"New Mexico","State_Abbrev":"NM"},
"geometry":{ "type": "Point", "coordinates": [-107.221556,33.182437]}},
{ "type": "Feature", "properties": {"Name":"Elida town","State":"New Mexico","State_Abbrev":"NM"},
"geometry":{ "type": "Point", "coordinates": [-103.653118,33.946904]}},
{ "type": "Feature", "properties": {"Name":"El Morro Valley CDP","State":"New Mexico","State_Abbrev":"NM"},
"geometry":{ "type": "Point", "coordinates": [-108.322607,35.036104]}},
{ "type": "Feature", "properties": {"Name":"El Rancho CDP","State":"New Mexico","State_Abbrev":"NM"},
"geometry":{ "type": "Point", "coordinates": [-106.085633,35.892761]}},
{ "type": "Feature", "properties": {"Name":"El Rito CDP","State":"New Mexico","State_Abbrev":"NM"},
"geometry":{ "type": "Point", "coordinates": [-106.174147,36.332589]}},
{ "type": "Feature", "properties": {"Name":"El Valle de Arroyo Seco CDP","State":"New Mexico","State_Abbrev":"NM"},
"geometry":{ "type": "Point", "coordinates": [-106.025957,35.952619]}},
{ "type": "Feature", "properties": {"Name":"Encantado CDP","State":"New Mexico","State_Abbrev":"NM"},
"geometry":{ "type": "Point", "coordinates": [-105.911133,35.793367]}},
{ "type": "Feature", "properties": {"Name":"Encinal CDP","State":"New Mexico","State_Abbrev":"NM"},
"geometry":{ "type": "Point", "coordinates": [-107.465131,35.111199]}},
{ "type": "Feature", "properties": {"Name":"Encino village","State":"New Mexico","State_Abbrev":"NM"},
"geometry":{ "type": "Point", "coordinates": [-105.458577,34.651828]}},
{ "type": "Feature", "properties": {"Name":"Ensenada CDP","State":"New Mexico","State_Abbrev":"NM"},
"geometry":{ "type": "Point", "coordinates": [-106.536813,36.730925]}},
{ "type": "Feature", "properties": {"Name":"Escondida CDP","State":"New Mexico","State_Abbrev":"NM"},
"geometry":{ "type": "Point", "coordinates": [-106.897407,34.101314]}},
{ "type": "Feature", "properties": {"Name":"Escudilla Bonita CDP","State":"New Mexico","State_Abbrev":"NM"},
"geometry":{ "type": "Point", "coordinates": [-109.02277,34.110067]}},
{ "type": "Feature", "properties": {"Name":"Española city","State":"New Mexico","State_Abbrev":"NM"},
"geometry":{ "type": "Point", "coordinates": [-106.070131,36.003959]}},
{ "type": "Feature", "properties": {"Name":"Estancia town","State":"New Mexico","State_Abbrev":"NM"},
"geometry":{ "type": "Point", "coordinates": [-106.038558,34.764273]}},
{ "type": "Feature", "properties": {"Name":"Eunice city","State":"New Mexico","State_Abbrev":"NM"},
"geometry":{ "type": "Point", "coordinates": [-103.149043,32.436147]}},
{ "type": "Feature", "properties": {"Name":"Fairacres CDP","State":"New Mexico","State_Abbrev":"NM"},
"geometry":{ "type": "Point", "coordinates": [-106.836643,32.304724]}},
{ "type": "Feature", "properties": {"Name":"Farmington city","State":"New Mexico","State_Abbrev":"NM"},
"geometry":{ "type": "Point", "coordinates": [-108.18053,36.753833]}},
{ "type": "Feature", "properties": {"Name":"Faywood CDP","State":"New Mexico","State_Abbrev":"NM"},
"geometry":{ "type": "Point", "coordinates": [-107.875276,32.624613]}},
{ "type": "Feature", "properties": {"Name":"Fence Lake CDP","State":"New Mexico","State_Abbrev":"NM"},
"geometry":{ "type": "Point", "coordinates": [-108.67378,34.653375]}},
{ "type": "Feature", "properties": {"Name":"Flora Vista CDP","State":"New Mexico","State_Abbrev":"NM"},
"geometry":{ "type": "Point", "coordinates": [-108.090194,36.803059]}},
{ "type": "Feature", "properties": {"Name":"Floyd village","State":"New Mexico","State_Abbrev":"NM"},
"geometry":{ "type": "Point", "coordinates": [-103.576059,34.228598]}},
{ "type": "Feature", "properties": {"Name":"Folsom village","State":"New Mexico","State_Abbrev":"NM"},
"geometry":{ "type": "Point", "coordinates": [-103.91761,36.84777]}},
{ "type": "Feature", "properties": {"Name":"Fort Sumner village","State":"New Mexico","State_Abbrev":"NM"},
"geometry":{ "type": "Point", "coordinates": [-104.217668,34.486944]}},
{ "type": "Feature", "properties": {"Name":"Fort Wingate CDP","State":"New Mexico","State_Abbrev":"NM"},
"geometry":{ "type": "Point", "coordinates": [-108.543861,35.470846]}},
{ "type": "Feature", "properties": {"Name":"Fruitland CDP","State":"New Mexico","State_Abbrev":"NM"},
"geometry":{ "type": "Point", "coordinates": [-108.394938,36.743477]}},
{ "type": "Feature", "properties": {"Name":"Galisteo CDP","State":"New Mexico","State_Abbrev":"NM"},
"geometry":{ "type": "Point", "coordinates": [-105.957183,35.398388]}},
{ "type": "Feature", "properties": {"Name":"Gallina CDP","State":"New Mexico","State_Abbrev":"NM"},
"geometry":{ "type": "Point", "coordinates": [-106.82788,36.234856]}},
{ "type": "Feature", "properties": {"Name":"Gallup city","State":"New Mexico","State_Abbrev":"NM"},
"geometry":{ "type": "Point", "coordinates": [-108.743733,35.513753]}},
{ "type": "Feature", "properties": {"Name":"Gamerco CDP","State":"New Mexico","State_Abbrev":"NM"},
"geometry":{ "type": "Point", "coordinates": [-108.764121,35.569992]}},
{ "type": "Feature", "properties": {"Name":"Garfield CDP","State":"New Mexico","State_Abbrev":"NM"},
"geometry":{ "type": "Point", "coordinates": [-107.266455,32.756811]}},
{ "type": "Feature", "properties": {"Name":"Gila CDP","State":"New Mexico","State_Abbrev":"NM"},
"geometry":{ "type": "Point", "coordinates": [-108.570533,32.941344]}},
{ "type": "Feature", "properties": {"Name":"Gila Hot Springs CDP","State":"New Mexico","State_Abbrev":"NM"},
"geometry":{ "type": "Point", "coordinates": [-108.204519,33.190223]}},
{ "type": "Feature", "properties": {"Name":"Glen Acres CDP","State":"New Mexico","State_Abbrev":"NM"},
"geometry":{ "type": "Point", "coordinates": [-108.716268,32.375044]}},
{ "type": "Feature", "properties": {"Name":"Glenwood CDP","State":"New Mexico","State_Abbrev":"NM"},
"geometry":{ "type": "Point", "coordinates": [-108.875163,33.317641]}},
{ "type": "Feature", "properties": {"Name":"Glorieta CDP","State":"New Mexico","State_Abbrev":"NM"},
"geometry":{ "type": "Point", "coordinates": [-105.762876,35.583959]}},
{ "type": "Feature", "properties": {"Name":"Golden CDP","State":"New Mexico","State_Abbrev":"NM"},
"geometry":{ "type": "Point", "coordinates": [-106.222984,35.26368]}},
{ "type": "Feature", "properties": {"Name":"Golden Acres CDP","State":"New Mexico","State_Abbrev":"NM"},
"geometry":{ "type": "Point", "coordinates": [-107.918343,35.211215]}},
{ "type": "Feature", "properties": {"Name":"Grady village","State":"New Mexico","State_Abbrev":"NM"},
"geometry":{ "type": "Point", "coordinates": [-103.315267,34.821998]}},
{ "type": "Feature", "properties": {"Name":"Grants city","State":"New Mexico","State_Abbrev":"NM"},
"geometry":{ "type": "Point", "coordinates": [-107.834531,35.15422]}},
{ "type": "Feature", "properties": {"Name":"Grenville village","State":"New Mexico","State_Abbrev":"NM"},
"geometry":{ "type": "Point", "coordinates": [-103.614573,36.590533]}},
{ "type": "Feature", "properties": {"Name":"Hachita CDP","State":"New Mexico","State_Abbrev":"NM"},
"geometry":{ "type": "Point", "coordinates": [-108.325207,31.915328]}},
{ "type": "Feature", "properties": {"Name":"Hagerman town","State":"New Mexico","State_Abbrev":"NM"},
"geometry":{ "type": "Point", "coordinates": [-104.331925,33.115832]}},
{ "type": "Feature", "properties": {"Name":"Hanover CDP","State":"New Mexico","State_Abbrev":"NM"},
"geometry":{ "type": "Point", "coordinates": [-108.089691,32.814827]}},
{ "type": "Feature", "properties": {"Name":"Happy Valley CDP","State":"New Mexico","State_Abbrev":"NM"},
"geometry":{ "type": "Point", "coordinates": [-104.289846,32.427939]}},
{ "type": "Feature", "properties": {"Name":"Hatch village","State":"New Mexico","State_Abbrev":"NM"},
"geometry":{ "type": "Point", "coordinates": [-107.161993,32.673119]}},
{ "type": "Feature", "properties": {"Name":"Haystack CDP","State":"New Mexico","State_Abbrev":"NM"},
"geometry":{ "type": "Point", "coordinates": [-107.938943,35.354503]}},
{ "type": "Feature", "properties": {"Name":"Hernandez CDP","State":"New Mexico","State_Abbrev":"NM"},
"geometry":{ "type": "Point", "coordinates": [-106.117799,36.056857]}},
{ "type": "Feature", "properties": {"Name":"Highland Meadows CDP","State":"New Mexico","State_Abbrev":"NM"},
"geometry":{ "type": "Point", "coordinates": [-107.166495,34.938569]}},
{ "type": "Feature", "properties": {"Name":"High Rolls CDP","State":"New Mexico","State_Abbrev":"NM"},
"geometry":{ "type": "Point", "coordinates": [-105.802659,32.933741]}},
{ "type": "Feature", "properties": {"Name":"Hillsboro CDP","State":"New Mexico","State_Abbrev":"NM"},
"geometry":{ "type": "Point", "coordinates": [-107.577174,32.92183]}},
{ "type": "Feature", "properties": {"Name":"Hobbs city","State":"New Mexico","State_Abbrev":"NM"},
"geometry":{ "type": "Point", "coordinates": [-103.160828,32.729088]}},
{ "type": "Feature", "properties": {"Name":"Holloman AFB CDP","State":"New Mexico","State_Abbrev":"NM"},
"geometry":{ "type": "Point", "coordinates": [-106.095926,32.845979]}},
{ "type": "Feature", "properties": {"Name":"Homer C Jones CDP","State":"New Mexico","State_Abbrev":"NM"},
"geometry":{ "type": "Point", "coordinates": [-108.096597,35.307796]}},
{ "type": "Feature", "properties": {"Name":"Homestead CDP","State":"New Mexico","State_Abbrev":"NM"},
"geometry":{ "type": "Point", "coordinates": [-107.878167,34.145537]}},
{ "type": "Feature", "properties": {"Name":"Hope village","State":"New Mexico","State_Abbrev":"NM"},
"geometry":{ "type": "Point", "coordinates": [-104.736933,32.817372]}},
{ "type": "Feature", "properties": {"Name":"Hot Springs Landing CDP","State":"New Mexico","State_Abbrev":"NM"},
"geometry":{ "type": "Point", "coordinates": [-107.209958,33.204667]}},
{ "type": "Feature", "properties": {"Name":"House village","State":"New Mexico","State_Abbrev":"NM"},
"geometry":{ "type": "Point", "coordinates": [-103.90375,34.64945]}},
{ "type": "Feature", "properties": {"Name":"Hurley town","State":"New Mexico","State_Abbrev":"NM"},
"geometry":{ "type": "Point", "coordinates": [-108.131112,32.698546]}},
{ "type": "Feature", "properties": {"Name":"Hyde Park CDP","State":"New Mexico","State_Abbrev":"NM"},
"geometry":{ "type": "Point", "coordinates": [-105.886598,35.71124]}},
{ "type": "Feature", "properties": {"Name":"Indian Hills CDP","State":"New Mexico","State_Abbrev":"NM"},
"geometry":{ "type": "Point", "coordinates": [-106.139764,34.983178]}},
{ "type": "Feature", "properties": {"Name":"Isleta CDP","State":"New Mexico","State_Abbrev":"NM"},
"geometry":{ "type": "Point", "coordinates": [-106.699015,34.904273]}},
{ "type": "Feature", "properties": {"Name":"Iyanbito CDP","State":"New Mexico","State_Abbrev":"NM"},
"geometry":{ "type": "Point", "coordinates": [-108.48771,35.515982]}},
{ "type": "Feature", "properties": {"Name":"Jacona CDP","State":"New Mexico","State_Abbrev":"NM"},
"geometry":{ "type": "Point", "coordinates": [-106.038628,35.888706]}},
{ "type": "Feature", "properties": {"Name":"Jaconita CDP","State":"New Mexico","State_Abbrev":"NM"},
"geometry":{ "type": "Point", "coordinates": [-106.06111,35.885631]}},
{ "type": "Feature", "properties": {"Name":"Jal city","State":"New Mexico","State_Abbrev":"NM"},
"geometry":{ "type": "Point", "coordinates": [-103.189996,32.114838]}},
{ "type": "Feature", "properties": {"Name":"Jamestown CDP","State":"New Mexico","State_Abbrev":"NM"},
"geometry":{ "type": "Point", "coordinates": [-108.439555,35.469295]}},
{ "type": "Feature", "properties": {"Name":"Jarales CDP","State":"New Mexico","State_Abbrev":"NM"},
"geometry":{ "type": "Point", "coordinates": [-106.76058,34.61548]}},
{ "type": "Feature", "properties": {"Name":"Jemez Pueblo CDP","State":"New Mexico","State_Abbrev":"NM"},
"geometry":{ "type": "Point", "coordinates": [-106.732155,35.606602]}},
{ "type": "Feature", "properties": {"Name":"Jemez Springs village","State":"New Mexico","State_Abbrev":"NM"},
"geometry":{ "type": "Point", "coordinates": [-106.691026,35.773099]}},
{ "type": "Feature", "properties": {"Name":"Keeler Farm CDP","State":"New Mexico","State_Abbrev":"NM"},
"geometry":{ "type": "Point", "coordinates": [-107.760226,32.316066]}},
{ "type": "Feature", "properties": {"Name":"Kingston CDP","State":"New Mexico","State_Abbrev":"NM"},
"geometry":{ "type": "Point", "coordinates": [-107.709555,32.917335]}},
{ "type": "Feature", "properties": {"Name":"Kirtland town","State":"New Mexico","State_Abbrev":"NM"},
"geometry":{ "type": "Point", "coordinates": [-108.367456,36.758875]}},
{ "type": "Feature", "properties": {"Name":"Kirtland AFB CDP","State":"New Mexico","State_Abbrev":"NM"},
"geometry":{ "type": "Point", "coordinates": [-106.561025,35.04775]}},
{ "type": "Feature", "properties": {"Name":"La Bajada CDP","State":"New Mexico","State_Abbrev":"NM"},
"geometry":{ "type": "Point", "coordinates": [-106.243609,35.556524]}},
{ "type": "Feature", "properties": {"Name":"La Boca CDP","State":"New Mexico","State_Abbrev":"NM"},
"geometry":{ "type": "Point", "coordinates": [-107.606445,36.994467]}},
{ "type": "Feature", "properties": {"Name":"La Cienega CDP","State":"New Mexico","State_Abbrev":"NM"},
"geometry":{ "type": "Point", "coordinates": [-106.113075,35.579438]}},
{ "type": "Feature", "properties": {"Name":"La Cueva CDP","State":"New Mexico","State_Abbrev":"NM"},
"geometry":{ "type": "Point", "coordinates": [-106.648507,35.869447]}},
{ "type": "Feature", "properties": {"Name":"La Cueva CDP","State":"New Mexico","State_Abbrev":"NM"},
"geometry":{ "type": "Point", "coordinates": [-105.733884,35.577622]}},
{ "type": "Feature", "properties": {"Name":"Laguna CDP","State":"New Mexico","State_Abbrev":"NM"},
"geometry":{ "type": "Point", "coordinates": [-107.401739,35.047377]}},
{ "type": "Feature", "properties": {"Name":"La Hacienda CDP","State":"New Mexico","State_Abbrev":"NM"},
"geometry":{ "type": "Point", "coordinates": [-107.725067,32.205992]}},
{ "type": "Feature", "properties": {"Name":"La Huerta CDP","State":"New Mexico","State_Abbrev":"NM"},
"geometry":{ "type": "Point", "coordinates": [-104.222519,32.448862]}},
{ "type": "Feature", "properties": {"Name":"La Jara CDP","State":"New Mexico","State_Abbrev":"NM"},
"geometry":{ "type": "Point", "coordinates": [-106.941912,36.105499]}},
{ "type": "Feature", "properties": {"Name":"La Joya CDP","State":"New Mexico","State_Abbrev":"NM"},
"geometry":{ "type": "Point", "coordinates": [-106.846655,34.344952]}},
{ "type": "Feature", "properties": {"Name":"Lake Arthur town","State":"New Mexico","State_Abbrev":"NM"},
"geometry":{ "type": "Point", "coordinates": [-104.363695,32.99939]}},
{ "type": "Feature", "properties": {"Name":"Lake Roberts CDP","State":"New Mexico","State_Abbrev":"NM"},
"geometry":{ "type": "Point", "coordinates": [-108.168832,33.031351]}},
{ "type": "Feature", "properties": {"Name":"Lake Roberts Heights CDP","State":"New Mexico","State_Abbrev":"NM"},
"geometry":{ "type": "Point", "coordinates": [-108.138148,33.027078]}},
{ "type": "Feature", "properties": {"Name":"Lake Sumner CDP","State":"New Mexico","State_Abbrev":"NM"},
"geometry":{ "type": "Point", "coordinates": [-104.40219,34.62361]}},
{ "type": "Feature", "properties": {"Name":"Lake Valley CDP","State":"New Mexico","State_Abbrev":"NM"},
"geometry":{ "type": "Point", "coordinates": [-108.164155,36.090055]}},
{ "type": "Feature", "properties": {"Name":"La Luz CDP","State":"New Mexico","State_Abbrev":"NM"},
"geometry":{ "type": "Point", "coordinates": [-105.939658,32.971633]}},
{ "type": "Feature", "properties": {"Name":"La Madera CDP","State":"New Mexico","State_Abbrev":"NM"},
"geometry":{ "type": "Point", "coordinates": [-106.043173,36.376682]}},
{ "type": "Feature", "properties": {"Name":"La Madera CDP","State":"New Mexico","State_Abbrev":"NM"},
"geometry":{ "type": "Point", "coordinates": [-106.334012,35.234536]}},
{ "type": "Feature", "properties": {"Name":"La Mesa CDP","State":"New Mexico","State_Abbrev":"NM"},
"geometry":{ "type": "Point", "coordinates": [-106.70901,32.124433]}},
{ "type": "Feature", "properties": {"Name":"La Mesilla CDP","State":"New Mexico","State_Abbrev":"NM"},
"geometry":{ "type": "Point", "coordinates": [-106.064054,35.941881]}},
{ "type": "Feature", "properties": {"Name":"Lamy CDP","State":"New Mexico","State_Abbrev":"NM"},
"geometry":{ "type": "Point", "coordinates": [-105.886293,35.485476]}},
{ "type": "Feature", "properties": {"Name":"La Plata CDP","State":"New Mexico","State_Abbrev":"NM"},
"geometry":{ "type": "Point", "coordinates": [-108.200795,36.896404]}},
{ "type": "Feature", "properties": {"Name":"La Puebla CDP","State":"New Mexico","State_Abbrev":"NM"},
"geometry":{ "type": "Point", "coordinates": [-106.000566,35.988177]}},
{ "type": "Feature", "properties": {"Name":"Las Campanas CDP","State":"New Mexico","State_Abbrev":"NM"},
"geometry":{ "type": "Point", "coordinates": [-106.058127,35.715849]}},
{ "type": "Feature", "properties": {"Name":"Las Cruces city","State":"New Mexico","State_Abbrev":"NM"},
"geometry":{ "type": "Point", "coordinates": [-106.789695,32.326444]}},
{ "type": "Feature", "properties": {"Name":"Las Maravillas CDP","State":"New Mexico","State_Abbrev":"NM"},
"geometry":{ "type": "Point", "coordinates": [-106.664995,34.734863]}},
{ "type": "Feature", "properties": {"Name":"Las Nutrias CDP","State":"New Mexico","State_Abbrev":"NM"},
"geometry":{ "type": "Point", "coordinates": [-106.770811,34.469841]}},
{ "type": "Feature", "properties": {"Name":"Las Palomas CDP","State":"New Mexico","State_Abbrev":"NM"},
"geometry":{ "type": "Point", "coordinates": [-107.298245,33.058914]}},
{ "type": "Feature", "properties": {"Name":"Las Tusas CDP","State":"New Mexico","State_Abbrev":"NM"},
"geometry":{ "type": "Point", "coordinates": [-108.126378,35.27313]}},
{ "type": "Feature", "properties": {"Name":"Las Vegas city","State":"New Mexico","State_Abbrev":"NM"},
"geometry":{ "type": "Point", "coordinates": [-105.217023,35.604818]}},
{ "type": "Feature", "properties": {"Name":"La Tierra CDP","State":"New Mexico","State_Abbrev":"NM"},
"geometry":{ "type": "Point", "coordinates": [-106.030871,35.747337]}},
{ "type": "Feature", "properties": {"Name":"La Union CDP","State":"New Mexico","State_Abbrev":"NM"},
"geometry":{ "type": "Point", "coordinates": [-106.662143,31.950754]}},
{ "type": "Feature", "properties": {"Name":"La Villita CDP","State":"New Mexico","State_Abbrev":"NM"},
"geometry":{ "type": "Point", "coordinates": [-106.055488,36.101231]}},
{ "type": "Feature", "properties": {"Name":"Lee Acres CDP","State":"New Mexico","State_Abbrev":"NM"},
"geometry":{ "type": "Point", "coordinates": [-108.061522,36.704779]}},
{ "type": "Feature", "properties": {"Name":"Lemitar CDP","State":"New Mexico","State_Abbrev":"NM"},
"geometry":{ "type": "Point", "coordinates": [-106.912241,34.155034]}},
{ "type": "Feature", "properties": {"Name":"Lindrith CDP","State":"New Mexico","State_Abbrev":"NM"},
"geometry":{ "type": "Point", "coordinates": [-107.03919,36.315452]}},
{ "type": "Feature", "properties": {"Name":"Little Walnut Village CDP","State":"New Mexico","State_Abbrev":"NM"},
"geometry":{ "type": "Point", "coordinates": [-108.286719,32.825625]}},
{ "type": "Feature", "properties": {"Name":"Livingston Wheeler CDP","State":"New Mexico","State_Abbrev":"NM"},
"geometry":{ "type": "Point", "coordinates": [-104.202816,32.391697]}},
{ "type": "Feature", "properties": {"Name":"Llano del Medio CDP","State":"New Mexico","State_Abbrev":"NM"},
"geometry":{ "type": "Point", "coordinates": [-105.116326,35.188081]}},
{ "type": "Feature", "properties": {"Name":"Lobo Canyon CDP","State":"New Mexico","State_Abbrev":"NM"},
"geometry":{ "type": "Point", "coordinates": [-107.720977,35.223778]}},
{ "type": "Feature", "properties": {"Name":"Loco Hills CDP","State":"New Mexico","State_Abbrev":"NM"},
"geometry":{ "type": "Point", "coordinates": [-103.978353,32.819669]}},
{ "type": "Feature", "properties": {"Name":"Logan village","State":"New Mexico","State_Abbrev":"NM"},
"geometry":{ "type": "Point", "coordinates": [-103.45302,35.355482]}},
{ "type": "Feature", "properties": {"Name":"Lordsburg city","State":"New Mexico","State_Abbrev":"NM"},
"geometry":{ "type": "Point", "coordinates": [-108.70212,32.343777]}},
{ "type": "Feature", "properties": {"Name":"Los Alamos CDP","State":"New Mexico","State_Abbrev":"NM"},
"geometry":{ "type": "Point", "coordinates": [-106.290025,35.893959]}},
{ "type": "Feature", "properties": {"Name":"Los Cerrillos CDP","State":"New Mexico","State_Abbrev":"NM"},
"geometry":{ "type": "Point", "coordinates": [-106.121172,35.427201]}},
{ "type": "Feature", "properties": {"Name":"Los Chaves CDP","State":"New Mexico","State_Abbrev":"NM"},
"geometry":{ "type": "Point", "coordinates": [-106.761102,34.733432]}},
{ "type": "Feature", "properties": {"Name":"Los Luceros CDP","State":"New Mexico","State_Abbrev":"NM"},
"geometry":{ "type": "Point", "coordinates": [-106.03719,36.114411]}},
{ "type": "Feature", "properties": {"Name":"Los Lunas village","State":"New Mexico","State_Abbrev":"NM"},
"geometry":{ "type": "Point", "coordinates": [-106.788691,34.80087]}},
{ "type": "Feature", "properties": {"Name":"Los Ojos CDP","State":"New Mexico","State_Abbrev":"NM"},
"geometry":{ "type": "Point", "coordinates": [-106.561657,36.738548]}},
{ "type": "Feature", "properties": {"Name":"Los Ranchos de Albuquerque village","State":"New Mexico","State_Abbrev":"NM"},
"geometry":{ "type": "Point", "coordinates": [-106.645737,35.161952]}},
{ "type": "Feature", "properties": {"Name":"Loving village","State":"New Mexico","State_Abbrev":"NM"},
"geometry":{ "type": "Point", "coordinates": [-104.097756,32.286235]}},
{ "type": "Feature", "properties": {"Name":"Lovington city","State":"New Mexico","State_Abbrev":"NM"},
"geometry":{ "type": "Point", "coordinates": [-103.349225,32.944466]}},
{ "type": "Feature", "properties": {"Name":"Lower Frisco CDP","State":"New Mexico","State_Abbrev":"NM"},
"geometry":{ "type": "Point", "coordinates": [-108.787558,33.653035]}},
{ "type": "Feature", "properties": {"Name":"Luis Lopez CDP","State":"New Mexico","State_Abbrev":"NM"},
"geometry":{ "type": "Point", "coordinates": [-106.887768,33.990467]}},
{ "type": "Feature", "properties": {"Name":"Lumberton CDP","State":"New Mexico","State_Abbrev":"NM"},
"geometry":{ "type": "Point", "coordinates": [-106.935366,36.932771]}},
{ "type": "Feature", "properties": {"Name":"Luna CDP","State":"New Mexico","State_Abbrev":"NM"},
"geometry":{ "type": "Point", "coordinates": [-108.941249,33.81755]}},
{ "type": "Feature", "properties": {"Name":"Lybrook CDP","State":"New Mexico","State_Abbrev":"NM"},
"geometry":{ "type": "Point", "coordinates": [-107.557858,36.22409]}},
{ "type": "Feature", "properties": {"Name":"Lyden CDP","State":"New Mexico","State_Abbrev":"NM"},
"geometry":{ "type": "Point", "coordinates": [-106.014661,36.153669]}},
{ "type": "Feature", "properties": {"Name":"McCartys Village CDP","State":"New Mexico","State_Abbrev":"NM"},
"geometry":{ "type": "Point", "coordinates": [-107.663452,35.061341]}},
{ "type": "Feature", "properties": {"Name":"McGaffey CDP","State":"New Mexico","State_Abbrev":"NM"},
"geometry":{ "type": "Point", "coordinates": [-108.516475,35.370111]}},
{ "type": "Feature", "properties": {"Name":"McIntosh CDP","State":"New Mexico","State_Abbrev":"NM"},
"geometry":{ "type": "Point", "coordinates": [-106.055946,34.881926]}},
{ "type": "Feature", "properties": {"Name":"Madrid CDP","State":"New Mexico","State_Abbrev":"NM"},
"geometry":{ "type": "Point", "coordinates": [-106.153788,35.403259]}},
{ "type": "Feature", "properties": {"Name":"Madrone CDP","State":"New Mexico","State_Abbrev":"NM"},
"geometry":{ "type": "Point", "coordinates": [-106.728478,34.579214]}},
{ "type": "Feature", "properties": {"Name":"Magdalena village","State":"New Mexico","State_Abbrev":"NM"},
"geometry":{ "type": "Point", "coordinates": [-107.23183,34.109529]}},
{ "type": "Feature", "properties": {"Name":"Malaga CDP","State":"New Mexico","State_Abbrev":"NM"},
"geometry":{ "type": "Point", "coordinates": [-104.065972,32.22091]}},
{ "type": "Feature", "properties": {"Name":"Manuelito CDP","State":"New Mexico","State_Abbrev":"NM"},
"geometry":{ "type": "Point", "coordinates": [-108.994582,35.438742]}},
{ "type": "Feature", "properties": {"Name":"Manzano CDP","State":"New Mexico","State_Abbrev":"NM"},
"geometry":{ "type": "Point", "coordinates": [-106.367054,34.643694]}},
{ "type": "Feature", "properties": {"Name":"Manzano Springs CDP","State":"New Mexico","State_Abbrev":"NM"},
"geometry":{ "type": "Point", "coordinates": [-106.232645,34.961358]}},
{ "type": "Feature", "properties": {"Name":"Maxwell village","State":"New Mexico","State_Abbrev":"NM"},
"geometry":{ "type": "Point", "coordinates": [-104.543047,36.541088]}},
{ "type": "Feature", "properties": {"Name":"Mayhill CDP","State":"New Mexico","State_Abbrev":"NM"},
"geometry":{ "type": "Point", "coordinates": [-105.504437,32.890216]}},
{ "type": "Feature", "properties": {"Name":"Meadow Lake CDP","State":"New Mexico","State_Abbrev":"NM"},
"geometry":{ "type": "Point", "coordinates": [-106.570358,34.803137]}},
{ "type": "Feature", "properties": {"Name":"Medanales CDP","State":"New Mexico","State_Abbrev":"NM"},
"geometry":{ "type": "Point", "coordinates": [-106.177743,36.176525]}},
{ "type": "Feature", "properties": {"Name":"Melrose village","State":"New Mexico","State_Abbrev":"NM"},
"geometry":{ "type": "Point", "coordinates": [-103.629365,34.429478]}},
{ "type": "Feature", "properties": {"Name":"Mescalero CDP","State":"New Mexico","State_Abbrev":"NM"},
"geometry":{ "type": "Point", "coordinates": [-105.799934,33.134561]}},
{ "type": "Feature", "properties": {"Name":"Mesilla town","State":"New Mexico","State_Abbrev":"NM"},
"geometry":{ "type": "Point", "coordinates": [-106.809108,32.269307]}},
{ "type": "Feature", "properties": {"Name":"Mesita CDP","State":"New Mexico","State_Abbrev":"NM"},
"geometry":{ "type": "Point", "coordinates": [-107.316303,35.005802]}},
{ "type": "Feature", "properties": {"Name":"Mesquite CDP","State":"New Mexico","State_Abbrev":"NM"},
"geometry":{ "type": "Point", "coordinates": [-106.688496,32.166993]}},
{ "type": "Feature", "properties": {"Name":"Middle Frisco CDP","State":"New Mexico","State_Abbrev":"NM"},
"geometry":{ "type": "Point", "coordinates": [-108.764499,33.695112]}},
{ "type": "Feature", "properties": {"Name":"Middle Mesa CDP","State":"New Mexico","State_Abbrev":"NM"},
"geometry":{ "type": "Point", "coordinates": [-107.507281,36.979999]}},
{ "type": "Feature", "properties": {"Name":"Midway CDP","State":"New Mexico","State_Abbrev":"NM"},
"geometry":{ "type": "Point", "coordinates": [-104.451159,33.297263]}},
{ "type": "Feature", "properties": {"Name":"Milan village","State":"New Mexico","State_Abbrev":"NM"},
"geometry":{ "type": "Point", "coordinates": [-107.892371,35.196782]}},
{ "type": "Feature", "properties": {"Name":"Mimbres CDP","State":"New Mexico","State_Abbrev":"NM"},
"geometry":{ "type": "Point", "coordinates": [-107.960194,32.839225]}},
{ "type": "Feature", "properties": {"Name":"Mogollon CDP","State":"New Mexico","State_Abbrev":"NM"},
"geometry":{ "type": "Point", "coordinates": [-108.799639,33.406933]}},
{ "type": "Feature", "properties": {"Name":"Monterey Park CDP","State":"New Mexico","State_Abbrev":"NM"},
"geometry":{ "type": "Point", "coordinates": [-106.653065,34.751074]}},
{ "type": "Feature", "properties": {"Name":"Monument CDP","State":"New Mexico","State_Abbrev":"NM"},
"geometry":{ "type": "Point", "coordinates": [-103.27764,32.624249]}},
{ "type": "Feature", "properties": {"Name":"Moquino CDP","State":"New Mexico","State_Abbrev":"NM"},
"geometry":{ "type": "Point", "coordinates": [-107.363877,35.169853]}},
{ "type": "Feature", "properties": {"Name":"Mora CDP","State":"New Mexico","State_Abbrev":"NM"},
"geometry":{ "type": "Point", "coordinates": [-105.331279,35.963479]}},
{ "type": "Feature", "properties": {"Name":"Moriarty city","State":"New Mexico","State_Abbrev":"NM"},
"geometry":{ "type": "Point", "coordinates": [-106.044427,35.003368]}},
{ "type": "Feature", "properties": {"Name":"Morningside CDP","State":"New Mexico","State_Abbrev":"NM"},
"geometry":{ "type": "Point", "coordinates": [-104.397072,32.861002]}},
{ "type": "Feature", "properties": {"Name":"Mosquero village","State":"New Mexico","State_Abbrev":"NM"},
"geometry":{ "type": "Point", "coordinates": [-103.954413,35.77431]}},
{ "type": "Feature", "properties": {"Name":"Mountainair town","State":"New Mexico","State_Abbrev":"NM"},
"geometry":{ "type": "Point", "coordinates": [-106.239324,34.52119]}},
{ "type": "Feature", "properties": {"Name":"Mountain View CDP","State":"New Mexico","State_Abbrev":"NM"},
"geometry":{ "type": "Point", "coordinates": [-108.397889,35.00458]}},
{ "type": "Feature", "properties": {"Name":"Mountain View CDP","State":"New Mexico","State_Abbrev":"NM"},
"geometry":{ "type": "Point", "coordinates": [-107.746202,32.228808]}},
{ "type": "Feature", "properties": {"Name":"Mount Taylor CDP","State":"New Mexico","State_Abbrev":"NM"},
"geometry":{ "type": "Point", "coordinates": [-107.807469,35.124147]}},
{ "type": "Feature", "properties": {"Name":"Nadine CDP","State":"New Mexico","State_Abbrev":"NM"},
"geometry":{ "type": "Point", "coordinates": [-103.103229,32.610531]}},
{ "type": "Feature", "properties": {"Name":"Nageezi CDP","State":"New Mexico","State_Abbrev":"NM"},
"geometry":{ "type": "Point", "coordinates": [-107.751167,36.246251]}},
{ "type": "Feature", "properties": {"Name":"Nakaibito CDP","State":"New Mexico","State_Abbrev":"NM"},
"geometry":{ "type": "Point", "coordinates": [-108.803908,35.782628]}},
{ "type": "Feature", "properties": {"Name":"Nambe CDP","State":"New Mexico","State_Abbrev":"NM"},
"geometry":{ "type": "Point", "coordinates": [-105.966676,35.898416]}},
{ "type": "Feature", "properties": {"Name":"Napi Headquarters CDP","State":"New Mexico","State_Abbrev":"NM"},
"geometry":{ "type": "Point", "coordinates": [-108.214503,36.650487]}},
{ "type": "Feature", "properties": {"Name":"Nara Visa CDP","State":"New Mexico","State_Abbrev":"NM"},
"geometry":{ "type": "Point", "coordinates": [-103.104294,35.606865]}},
{ "type": "Feature", "properties": {"Name":"Naschitti CDP","State":"New Mexico","State_Abbrev":"NM"},
"geometry":{ "type": "Point", "coordinates": [-108.680001,36.062563]}},
{ "type": "Feature", "properties": {"Name":"Navajo CDP","State":"New Mexico","State_Abbrev":"NM"},
"geometry":{ "type": "Point", "coordinates": [-109.032083,35.902431]}},
{ "type": "Feature", "properties": {"Name":"Navajo Dam CDP","State":"New Mexico","State_Abbrev":"NM"},
"geometry":{ "type": "Point", "coordinates": [-107.623216,36.872922]}},
{ "type": "Feature", "properties": {"Name":"Nenahnezad CDP","State":"New Mexico","State_Abbrev":"NM"},
"geometry":{ "type": "Point", "coordinates": [-108.434462,36.730783]}},
{ "type": "Feature", "properties": {"Name":"Newcomb CDP","State":"New Mexico","State_Abbrev":"NM"},
"geometry":{ "type": "Point", "coordinates": [-108.711608,36.285184]}},
{ "type": "Feature", "properties": {"Name":"Newkirk CDP","State":"New Mexico","State_Abbrev":"NM"},
"geometry":{ "type": "Point", "coordinates": [-104.271496,35.063517]}},
{ "type": "Feature", "properties": {"Name":"Nogal CDP","State":"New Mexico","State_Abbrev":"NM"},
"geometry":{ "type": "Point", "coordinates": [-105.711874,33.538223]}},
{ "type": "Feature", "properties": {"Name":"North Acomita Village CDP","State":"New Mexico","State_Abbrev":"NM"},
"geometry":{ "type": "Point", "coordinates": [-107.56484,35.067299]}},
{ "type": "Feature", "properties": {"Name":"North Hobbs CDP","State":"New Mexico","State_Abbrev":"NM"},
"geometry":{ "type": "Point", "coordinates": [-103.1234,32.77326]}},
{ "type": "Feature", "properties": {"Name":"North Hurley CDP","State":"New Mexico","State_Abbrev":"NM"},
"geometry":{ "type": "Point", "coordinates": [-108.1285,32.719838]}},
{ "type": "Feature", "properties": {"Name":"North Light Plant CDP","State":"New Mexico","State_Abbrev":"NM"},
"geometry":{ "type": "Point", "coordinates": [-108.033143,36.866982]}},
{ "type": "Feature", "properties": {"Name":"North San Ysidro CDP","State":"New Mexico","State_Abbrev":"NM"},
"geometry":{ "type": "Point", "coordinates": [-105.566044,35.474642]}},
{ "type": "Feature", "properties": {"Name":"North Valley CDP","State":"New Mexico","State_Abbrev":"NM"},
"geometry":{ "type": "Point", "coordinates": [-106.622788,35.173116]}},
{ "type": "Feature", "properties": {"Name":"Oasis CDP","State":"New Mexico","State_Abbrev":"NM"},
"geometry":{ "type": "Point", "coordinates": [-107.316417,32.927701]}},
{ "type": "Feature", "properties": {"Name":"Ohkay Owingeh CDP","State":"New Mexico","State_Abbrev":"NM"},
"geometry":{ "type": "Point", "coordinates": [-106.045938,36.045305]}},
{ "type": "Feature", "properties": {"Name":"Ojo Amarillo CDP","State":"New Mexico","State_Abbrev":"NM"},
"geometry":{ "type": "Point", "coordinates": [-108.37036,36.694138]}},
{ "type": "Feature", "properties": {"Name":"Ojo Caliente CDP","State":"New Mexico","State_Abbrev":"NM"},
"geometry":{ "type": "Point", "coordinates": [-106.037406,36.314662]}},
{ "type": "Feature", "properties": {"Name":"Ojo Encino CDP","State":"New Mexico","State_Abbrev":"NM"},
"geometry":{ "type": "Point", "coordinates": [-107.344499,35.952534]}},
{ "type": "Feature", "properties": {"Name":"Ojo Sarco CDP","State":"New Mexico","State_Abbrev":"NM"},
"geometry":{ "type": "Point", "coordinates": [-105.784459,36.12492]}},
{ "type": "Feature", "properties": {"Name":"Old Town CDP","State":"New Mexico","State_Abbrev":"NM"},
"geometry":{ "type": "Point", "coordinates": [-107.923162,32.512394]}},
{ "type": "Feature", "properties": {"Name":"Organ CDP","State":"New Mexico","State_Abbrev":"NM"},
"geometry":{ "type": "Point", "coordinates": [-106.602407,32.425082]}},
{ "type": "Feature", "properties": {"Name":"Orogrande CDP","State":"New Mexico","State_Abbrev":"NM"},
"geometry":{ "type": "Point", "coordinates": [-106.108507,32.389294]}},
{ "type": "Feature", "properties": {"Name":"Paa-Ko CDP","State":"New Mexico","State_Abbrev":"NM"},
"geometry":{ "type": "Point", "coordinates": [-106.333746,35.199821]}},
{ "type": "Feature", "properties": {"Name":"Paguate CDP","State":"New Mexico","State_Abbrev":"NM"},
"geometry":{ "type": "Point", "coordinates": [-107.400679,35.156401]}},
{ "type": "Feature", "properties": {"Name":"Pajarito Mesa CDP","State":"New Mexico","State_Abbrev":"NM"},
"geometry":{ "type": "Point", "coordinates": [-106.780501,34.979634]}},
{ "type": "Feature", "properties": {"Name":"Paradise Hills CDP","State":"New Mexico","State_Abbrev":"NM"},
"geometry":{ "type": "Point", "coordinates": [-106.702397,35.198144]}},
{ "type": "Feature", "properties": {"Name":"Paraje CDP","State":"New Mexico","State_Abbrev":"NM"},
"geometry":{ "type": "Point", "coordinates": [-107.468194,35.044379]}},
{ "type": "Feature", "properties": {"Name":"Pastura CDP","State":"New Mexico","State_Abbrev":"NM"},
"geometry":{ "type": "Point", "coordinates": [-104.942098,34.785104]}},
{ "type": "Feature", "properties": {"Name":"Peak Place CDP","State":"New Mexico","State_Abbrev":"NM"},
"geometry":{ "type": "Point", "coordinates": [-105.943204,35.791172]}},
{ "type": "Feature", "properties": {"Name":"Pecan Park CDP","State":"New Mexico","State_Abbrev":"NM"},
"geometry":{ "type": "Point", "coordinates": [-107.67399,32.270417]}},
{ "type": "Feature", "properties": {"Name":"Pecos village","State":"New Mexico","State_Abbrev":"NM"},
"geometry":{ "type": "Point", "coordinates": [-105.678407,35.575706]}},
{ "type": "Feature", "properties": {"Name":"Peña Blanca CDP","State":"New Mexico","State_Abbrev":"NM"},
"geometry":{ "type": "Point", "coordinates": [-106.331955,35.570919]}},
{ "type": "Feature", "properties": {"Name":"Peñasco CDP","State":"New Mexico","State_Abbrev":"NM"},
"geometry":{ "type": "Point", "coordinates": [-105.69072,36.17032]}},
{ "type": "Feature", "properties": {"Name":"Peralta town","State":"New Mexico","State_Abbrev":"NM"},
"geometry":{ "type": "Point", "coordinates": [-106.685963,34.82834]}},
{ "type": "Feature", "properties": {"Name":"Picacho Hills CDP","State":"New Mexico","State_Abbrev":"NM"},
"geometry":{ "type": "Point", "coordinates": [-106.878497,32.315804]}},
{ "type": "Feature", "properties": {"Name":"Picuris Pueblo CDP","State":"New Mexico","State_Abbrev":"NM"},
"geometry":{ "type": "Point", "coordinates": [-105.723504,36.200146]}},
{ "type": "Feature", "properties": {"Name":"Pie Town CDP","State":"New Mexico","State_Abbrev":"NM"},
"geometry":{ "type": "Point", "coordinates": [-108.176599,34.340383]}},
{ "type": "Feature", "properties": {"Name":"Pinedale CDP","State":"New Mexico","State_Abbrev":"NM"},
"geometry":{ "type": "Point", "coordinates": [-108.425703,35.607143]}},
{ "type": "Feature", "properties": {"Name":"Pinehaven CDP","State":"New Mexico","State_Abbrev":"NM"},
"geometry":{ "type": "Point", "coordinates": [-108.670939,35.335694]}},
{ "type": "Feature", "properties": {"Name":"Pinehill CDP","State":"New Mexico","State_Abbrev":"NM"},
"geometry":{ "type": "Point", "coordinates": [-108.422357,34.892166]}},
{ "type": "Feature", "properties": {"Name":"Pinon CDP","State":"New Mexico","State_Abbrev":"NM"},
"geometry":{ "type": "Point", "coordinates": [-105.376919,32.61953]}},
{ "type": "Feature", "properties": {"Name":"Pinos Altos CDP","State":"New Mexico","State_Abbrev":"NM"},
"geometry":{ "type": "Point", "coordinates": [-108.222027,32.866469]}},
{ "type": "Feature", "properties": {"Name":"Placitas CDP","State":"New Mexico","State_Abbrev":"NM"},
"geometry":{ "type": "Point", "coordinates": [-107.16982,32.665524]}},
{ "type": "Feature", "properties": {"Name":"Placitas CDP","State":"New Mexico","State_Abbrev":"NM"},
"geometry":{ "type": "Point", "coordinates": [-106.442918,35.322593]}},
{ "type": "Feature", "properties": {"Name":"Playas CDP","State":"New Mexico","State_Abbrev":"NM"},
"geometry":{ "type": "Point", "coordinates": [-108.536315,31.912585]}},
{ "type": "Feature", "properties": {"Name":"Pleasanton CDP","State":"New Mexico","State_Abbrev":"NM"},
"geometry":{ "type": "Point", "coordinates": [-108.880873,33.279793]}},
{ "type": "Feature", "properties": {"Name":"Pojoaque CDP","State":"New Mexico","State_Abbrev":"NM"},
"geometry":{ "type": "Point", "coordinates": [-106.010472,35.896198]}},
{ "type": "Feature", "properties": {"Name":"Polvadera CDP","State":"New Mexico","State_Abbrev":"NM"},
"geometry":{ "type": "Point", "coordinates": [-106.917202,34.202039]}},
{ "type": "Feature", "properties": {"Name":"Ponderosa CDP","State":"New Mexico","State_Abbrev":"NM"},
"geometry":{ "type": "Point", "coordinates": [-106.654459,35.655493]}},
{ "type": "Feature", "properties": {"Name":"Ponderosa Pine CDP","State":"New Mexico","State_Abbrev":"NM"},
"geometry":{ "type": "Point", "coordinates": [-106.339616,34.970897]}},
{ "type": "Feature", "properties": {"Name":"Portales city","State":"New Mexico","State_Abbrev":"NM"},
"geometry":{ "type": "Point", "coordinates": [-103.355084,34.177289]}},
{ "type": "Feature", "properties": {"Name":"Prewitt CDP","State":"New Mexico","State_Abbrev":"NM"},
"geometry":{ "type": "Point", "coordinates": [-108.074858,35.368255]}},
{ "type": "Feature", "properties": {"Name":"Pueblito CDP","State":"New Mexico","State_Abbrev":"NM"},
"geometry":{ "type": "Point", "coordinates": [-106.081107,36.072716]}},
{ "type": "Feature", "properties": {"Name":"Pueblitos CDP","State":"New Mexico","State_Abbrev":"NM"},
"geometry":{ "type": "Point", "coordinates": [-106.781001,34.612079]}},
{ "type": "Feature", "properties": {"Name":"Pueblo CDP","State":"New Mexico","State_Abbrev":"NM"},
"geometry":{ "type": "Point", "coordinates": [-105.435352,35.32725]}},
{ "type": "Feature", "properties": {"Name":"Pueblo of Sandia Village CDP","State":"New Mexico","State_Abbrev":"NM"},
"geometry":{ "type": "Point", "coordinates": [-106.570575,35.253738]}},
{ "type": "Feature", "properties": {"Name":"Pueblo Pintado CDP","State":"New Mexico","State_Abbrev":"NM"},
"geometry":{ "type": "Point", "coordinates": [-107.622355,35.961351]}},
{ "type": "Feature", "properties": {"Name":"Puerto de Luna CDP","State":"New Mexico","State_Abbrev":"NM"},
"geometry":{ "type": "Point", "coordinates": [-104.622173,34.829713]}},
{ "type": "Feature", "properties": {"Name":"Pulpotio Bareas CDP","State":"New Mexico","State_Abbrev":"NM"},
"geometry":{ "type": "Point", "coordinates": [-107.772816,32.21789]}},
{ "type": "Feature", "properties": {"Name":"Punta de Agua CDP","State":"New Mexico","State_Abbrev":"NM"},
"geometry":{ "type": "Point", "coordinates": [-106.292238,34.601584]}},
{ "type": "Feature", "properties": {"Name":"Purty Rock CDP","State":"New Mexico","State_Abbrev":"NM"},
"geometry":{ "type": "Point", "coordinates": [-108.895324,35.490251]}},
{ "type": "Feature", "properties": {"Name":"Quemado CDP","State":"New Mexico","State_Abbrev":"NM"},
"geometry":{ "type": "Point", "coordinates": [-108.506148,34.340633]}},
{ "type": "Feature", "properties": {"Name":"Questa village","State":"New Mexico","State_Abbrev":"NM"},
"geometry":{ "type": "Point", "coordinates": [-105.599204,36.712379]}},
{ "type": "Feature", "properties": {"Name":"Radium Springs CDP","State":"New Mexico","State_Abbrev":"NM"},
"geometry":{ "type": "Point", "coordinates": [-106.903074,32.478231]}},
{ "type": "Feature", "properties": {"Name":"Ramah CDP","State":"New Mexico","State_Abbrev":"NM"},
"geometry":{ "type": "Point", "coordinates": [-108.506292,35.126354]}},
{ "type": "Feature", "properties": {"Name":"Rancho Grande CDP","State":"New Mexico","State_Abbrev":"NM"},
"geometry":{ "type": "Point", "coordinates": [-108.858158,33.682001]}},
{ "type": "Feature", "properties": {"Name":"Ranchos de Taos CDP","State":"New Mexico","State_Abbrev":"NM"},
"geometry":{ "type": "Point", "coordinates": [-105.601583,36.361935]}},
{ "type": "Feature", "properties": {"Name":"Raton city","State":"New Mexico","State_Abbrev":"NM"},
"geometry":{ "type": "Point", "coordinates": [-104.439572,36.884966]}},
{ "type": "Feature", "properties": {"Name":"Red River town","State":"New Mexico","State_Abbrev":"NM"},
"geometry":{ "type": "Point", "coordinates": [-105.418495,36.709768]}},
{ "type": "Feature", "properties": {"Name":"Redrock CDP","State":"New Mexico","State_Abbrev":"NM"},
"geometry":{ "type": "Point", "coordinates": [-108.740631,32.688566]}},
{ "type": "Feature", "properties": {"Name":"Red Rock Ranch CDP","State":"New Mexico","State_Abbrev":"NM"},
"geometry":{ "type": "Point", "coordinates": [-108.026272,35.424169]}},
{ "type": "Feature", "properties": {"Name":"Regina CDP","State":"New Mexico","State_Abbrev":"NM"},
"geometry":{ "type": "Point", "coordinates": [-106.945947,36.194874]}},
{ "type": "Feature", "properties": {"Name":"Reserve village","State":"New Mexico","State_Abbrev":"NM"},
"geometry":{ "type": "Point", "coordinates": [-108.761384,33.70898]}},
{ "type": "Feature", "properties": {"Name":"Ribera CDP","State":"New Mexico","State_Abbrev":"NM"},
"geometry":{ "type": "Point", "coordinates": [-105.444092,35.36996]}},
{ "type": "Feature", "properties": {"Name":"Rincon CDP","State":"New Mexico","State_Abbrev":"NM"},
"geometry":{ "type": "Point", "coordinates": [-107.075831,32.672534]}},
{ "type": "Feature", "properties": {"Name":"Rio Chiquito CDP","State":"New Mexico","State_Abbrev":"NM"},
"geometry":{ "type": "Point", "coordinates": [-105.906935,35.994854]}},
{ "type": "Feature", "properties": {"Name":"Rio Communities city","State":"New Mexico","State_Abbrev":"NM"},
"geometry":{ "type": "Point", "coordinates": [-106.715779,34.645157]}},
{ "type": "Feature", "properties": {"Name":"Rio en Medio CDP","State":"New Mexico","State_Abbrev":"NM"},
"geometry":{ "type": "Point", "coordinates": [-105.900907,35.82221]}},
{ "type": "Feature", "properties": {"Name":"Rio Lucio CDP","State":"New Mexico","State_Abbrev":"NM"},
"geometry":{ "type": "Point", "coordinates": [-105.720033,36.192177]}},
{ "type": "Feature", "properties": {"Name":"Rio Rancho city","State":"New Mexico","State_Abbrev":"NM"},
"geometry":{ "type": "Point", "coordinates": [-106.698867,35.28507]}},
{ "type": "Feature", "properties": {"Name":"Rio Rancho Estates CDP","State":"New Mexico","State_Abbrev":"NM"},
"geometry":{ "type": "Point", "coordinates": [-106.798499,35.300369]}},
{ "type": "Feature", "properties": {"Name":"Rivers CDP","State":"New Mexico","State_Abbrev":"NM"},
"geometry":{ "type": "Point", "coordinates": [-108.779453,33.674601]}},
{ "type": "Feature", "properties": {"Name":"Rock Springs CDP","State":"New Mexico","State_Abbrev":"NM"},
"geometry":{ "type": "Point", "coordinates": [-108.83454,35.618787]}},
{ "type": "Feature", "properties": {"Name":"Rodeo CDP","State":"New Mexico","State_Abbrev":"NM"},
"geometry":{ "type": "Point", "coordinates": [-109.026644,31.839654]}},
{ "type": "Feature", "properties": {"Name":"Rodey CDP","State":"New Mexico","State_Abbrev":"NM"},
"geometry":{ "type": "Point", "coordinates": [-107.135742,32.653776]}},
{ "type": "Feature", "properties": {"Name":"Rosedale CDP","State":"New Mexico","State_Abbrev":"NM"},
"geometry":{ "type": "Point", "coordinates": [-108.243476,32.764663]}},
{ "type": "Feature", "properties": {"Name":"Roswell city","State":"New Mexico","State_Abbrev":"NM"},
"geometry":{ "type": "Point", "coordinates": [-104.529393,33.373442]}},
{ "type": "Feature", "properties": {"Name":"Rowe CDP","State":"New Mexico","State_Abbrev":"NM"},
"geometry":{ "type": "Point", "coordinates": [-105.671511,35.492211]}},
{ "type": "Feature", "properties": {"Name":"Roy village","State":"New Mexico","State_Abbrev":"NM"},
"geometry":{ "type": "Point", "coordinates": [-104.196288,35.945095]}},
{ "type": "Feature", "properties": {"Name":"Ruidoso village","State":"New Mexico","State_Abbrev":"NM"},
"geometry":{ "type": "Point", "coordinates": [-105.668809,33.349549]}},
{ "type": "Feature", "properties": {"Name":"Ruidoso Downs city","State":"New Mexico","State_Abbrev":"NM"},
"geometry":{ "type": "Point", "coordinates": [-105.596772,33.331181]}},
{ "type": "Feature", "properties": {"Name":"Sacramento CDP","State":"New Mexico","State_Abbrev":"NM"},
"geometry":{ "type": "Point", "coordinates": [-105.565101,32.784486]}},
{ "type": "Feature", "properties": {"Name":"Sagar CDP","State":"New Mexico","State_Abbrev":"NM"},
"geometry":{ "type": "Point", "coordinates": [-108.767056,35.247418]}},
{ "type": "Feature", "properties": {"Name":"Salem CDP","State":"New Mexico","State_Abbrev":"NM"},
"geometry":{ "type": "Point", "coordinates": [-107.205621,32.71209]}},
{ "type": "Feature", "properties": {"Name":"San Acacia CDP","State":"New Mexico","State_Abbrev":"NM"},
"geometry":{ "type": "Point", "coordinates": [-106.902282,34.254937]}},
{ "type": "Feature", "properties": {"Name":"San Antonio CDP","State":"New Mexico","State_Abbrev":"NM"},
"geometry":{ "type": "Point", "coordinates": [-106.870022,33.916165]}},
{ "type": "Feature", "properties": {"Name":"San Antonito CDP","State":"New Mexico","State_Abbrev":"NM"},
"geometry":{ "type": "Point", "coordinates": [-106.347512,35.157518]}},
{ "type": "Feature", "properties": {"Name":"San Antonito CDP","State":"New Mexico","State_Abbrev":"NM"},
"geometry":{ "type": "Point", "coordinates": [-106.879946,33.891806]}},
{ "type": "Feature", "properties": {"Name":"San Cristobal CDP","State":"New Mexico","State_Abbrev":"NM"},
"geometry":{ "type": "Point", "coordinates": [-105.631801,36.610127]}},
{ "type": "Feature", "properties": {"Name":"Sandia Heights CDP","State":"New Mexico","State_Abbrev":"NM"},
"geometry":{ "type": "Point", "coordinates": [-106.48841,35.174626]}},
{ "type": "Feature", "properties": {"Name":"Sandia Knolls CDP","State":"New Mexico","State_Abbrev":"NM"},
"geometry":{ "type": "Point", "coordinates": [-106.298751,35.160434]}},
{ "type": "Feature", "properties": {"Name":"Sandia Park CDP","State":"New Mexico","State_Abbrev":"NM"},
"geometry":{ "type": "Point", "coordinates": [-106.365744,35.16477]}},
{ "type": "Feature", "properties": {"Name":"San Felipe Pueblo CDP","State":"New Mexico","State_Abbrev":"NM"},
"geometry":{ "type": "Point", "coordinates": [-106.41321,35.438327]}},
{ "type": "Feature", "properties": {"Name":"San Fidel CDP","State":"New Mexico","State_Abbrev":"NM"},
"geometry":{ "type": "Point", "coordinates": [-107.597533,35.102566]}},
{ "type": "Feature", "properties": {"Name":"San Ildefonso Pueblo CDP","State":"New Mexico","State_Abbrev":"NM"},
"geometry":{ "type": "Point", "coordinates": [-106.129195,35.888315]}},
{ "type": "Feature", "properties": {"Name":"San Jon village","State":"New Mexico","State_Abbrev":"NM"},
"geometry":{ "type": "Point", "coordinates": [-103.336299,35.111299]}},
{ "type": "Feature", "properties": {"Name":"San Jose CDP","State":"New Mexico","State_Abbrev":"NM"},
"geometry":{ "type": "Point", "coordinates": [-106.100442,36.036727]}},
{ "type": "Feature", "properties": {"Name":"San Jose CDP","State":"New Mexico","State_Abbrev":"NM"},
"geometry":{ "type": "Point", "coordinates": [-105.475887,35.395553]}},
{ "type": "Feature", "properties": {"Name":"San Lorenzo CDP","State":"New Mexico","State_Abbrev":"NM"},
"geometry":{ "type": "Point", "coordinates": [-107.920207,32.805352]}},
{ "type": "Feature", "properties": {"Name":"San Luis CDP","State":"New Mexico","State_Abbrev":"NM"},
"geometry":{ "type": "Point", "coordinates": [-107.04308,35.700913]}},
{ "type": "Feature", "properties": {"Name":"San Mateo CDP","State":"New Mexico","State_Abbrev":"NM"},
"geometry":{ "type": "Point", "coordinates": [-107.646091,35.338061]}},
{ "type": "Feature", "properties": {"Name":"San Miguel CDP","State":"New Mexico","State_Abbrev":"NM"},
"geometry":{ "type": "Point", "coordinates": [-106.726841,32.153465]}},
{ "type": "Feature", "properties": {"Name":"Sanostee CDP","State":"New Mexico","State_Abbrev":"NM"},
"geometry":{ "type": "Point", "coordinates": [-108.862957,36.430481]}},
{ "type": "Feature", "properties": {"Name":"San Pablo CDP","State":"New Mexico","State_Abbrev":"NM"},
"geometry":{ "type": "Point", "coordinates": [-106.762599,32.250657]}},
{ "type": "Feature", "properties": {"Name":"San Pedro CDP","State":"New Mexico","State_Abbrev":"NM"},
"geometry":{ "type": "Point", "coordinates": [-106.184714,35.227991]}},
{ "type": "Feature", "properties": {"Name":"San Rafael CDP","State":"New Mexico","State_Abbrev":"NM"},
"geometry":{ "type": "Point", "coordinates": [-107.904921,35.098163]}},
{ "type": "Feature", "properties": {"Name":"Santa Ana Pueblo CDP","State":"New Mexico","State_Abbrev":"NM"},
"geometry":{ "type": "Point", "coordinates": [-106.515378,35.352287]}},
{ "type": "Feature", "properties": {"Name":"Santa Clara village","State":"New Mexico","State_Abbrev":"NM"},
"geometry":{ "type": "Point", "coordinates": [-108.149317,32.779959]}},
{ "type": "Feature", "properties": {"Name":"Santa Clara Pueblo CDP","State":"New Mexico","State_Abbrev":"NM"},
"geometry":{ "type": "Point", "coordinates": [-106.102081,35.970766]}},
{ "type": "Feature", "properties": {"Name":"Santa Cruz CDP","State":"New Mexico","State_Abbrev":"NM"},
"geometry":{ "type": "Point", "coordinates": [-106.035821,35.993969]}},
{ "type": "Feature", "properties": {"Name":"Santa Fe city","State":"New Mexico","State_Abbrev":"NM"},
"geometry":{ "type": "Point", "coordinates": [-105.981815,35.661981]}},
{ "type": "Feature", "properties": {"Name":"Santa Fe Foothills CDP","State":"New Mexico","State_Abbrev":"NM"},
"geometry":{ "type": "Point", "coordinates": [-105.898063,35.627965]}},
{ "type": "Feature", "properties": {"Name":"Santa Rosa city","State":"New Mexico","State_Abbrev":"NM"},
"geometry":{ "type": "Point", "coordinates": [-104.675021,34.936051]}},
{ "type": "Feature", "properties": {"Name":"Santa Teresa CDP","State":"New Mexico","State_Abbrev":"NM"},
"geometry":{ "type": "Point", "coordinates": [-106.673424,31.87136]}},
{ "type": "Feature", "properties": {"Name":"Santo Domingo Pueblo CDP","State":"New Mexico","State_Abbrev":"NM"},
"geometry":{ "type": "Point", "coordinates": [-106.36756,35.522443]}},
{ "type": "Feature", "properties": {"Name":"San Ysidro CDP","State":"New Mexico","State_Abbrev":"NM"},
"geometry":{ "type": "Point", "coordinates": [-106.812892,32.356752]}},
{ "type": "Feature", "properties": {"Name":"San Ysidro village","State":"New Mexico","State_Abbrev":"NM"},
"geometry":{ "type": "Point", "coordinates": [-106.773503,35.560552]}},
{ "type": "Feature", "properties": {"Name":"Sausal CDP","State":"New Mexico","State_Abbrev":"NM"},
"geometry":{ "type": "Point", "coordinates": [-106.758903,34.680316]}},
{ "type": "Feature", "properties": {"Name":"Seama CDP","State":"New Mexico","State_Abbrev":"NM"},
"geometry":{ "type": "Point", "coordinates": [-107.539628,35.050808]}},
{ "type": "Feature", "properties": {"Name":"Seboyeta CDP","State":"New Mexico","State_Abbrev":"NM"},
"geometry":{ "type": "Point", "coordinates": [-107.382673,35.198908]}},
{ "type": "Feature", "properties": {"Name":"Sedillo CDP","State":"New Mexico","State_Abbrev":"NM"},
"geometry":{ "type": "Point", "coordinates": [-106.287808,35.087001]}},
{ "type": "Feature", "properties": {"Name":"Sena CDP","State":"New Mexico","State_Abbrev":"NM"},
"geometry":{ "type": "Point", "coordinates": [-105.391313,35.303605]}},
{ "type": "Feature", "properties": {"Name":"Seton Village CDP","State":"New Mexico","State_Abbrev":"NM"},
"geometry":{ "type": "Point", "coordinates": [-105.933516,35.599814]}},
{ "type": "Feature", "properties": {"Name":"Sheep Springs CDP","State":"New Mexico","State_Abbrev":"NM"},
"geometry":{ "type": "Point", "coordinates": [-108.690526,36.159213]}},
{ "type": "Feature", "properties": {"Name":"Shiprock CDP","State":"New Mexico","State_Abbrev":"NM"},
"geometry":{ "type": "Point", "coordinates": [-108.696053,36.790744]}},
{ "type": "Feature", "properties": {"Name":"Silver City town","State":"New Mexico","State_Abbrev":"NM"},
"geometry":{ "type": "Point", "coordinates": [-108.269409,32.778581]}},
{ "type": "Feature", "properties": {"Name":"Skyline-Ganipa CDP","State":"New Mexico","State_Abbrev":"NM"},
"geometry":{ "type": "Point", "coordinates": [-107.616176,35.03612]}},
{ "type": "Feature", "properties": {"Name":"Socorro city","State":"New Mexico","State_Abbrev":"NM"},
"geometry":{ "type": "Point", "coordinates": [-106.906199,34.054535]}},
{ "type": "Feature", "properties": {"Name":"Soham CDP","State":"New Mexico","State_Abbrev":"NM"},
"geometry":{ "type": "Point", "coordinates": [-105.498497,35.416866]}},
{ "type": "Feature", "properties": {"Name":"Sombrillo CDP","State":"New Mexico","State_Abbrev":"NM"},
"geometry":{ "type": "Point", "coordinates": [-106.035245,35.980191]}},
{ "type": "Feature", "properties": {"Name":"South Acomita Village CDP","State":"New Mexico","State_Abbrev":"NM"},
"geometry":{ "type": "Point", "coordinates": [-107.572254,35.05331]}},
{ "type": "Feature", "properties": {"Name":"South River CDP","State":"New Mexico","State_Abbrev":"NM"},
"geometry":{ "type": "Point", "coordinates": [-108.057678,36.785942]}},
{ "type": "Feature", "properties": {"Name":"South Valley CDP","State":"New Mexico","State_Abbrev":"NM"},
"geometry":{ "type": "Point", "coordinates": [-106.682218,35.008623]}},
{ "type": "Feature", "properties": {"Name":"Spencerville CDP","State":"New Mexico","State_Abbrev":"NM"},
"geometry":{ "type": "Point", "coordinates": [-108.061632,36.82957]}},
{ "type": "Feature", "properties": {"Name":"Springer town","State":"New Mexico","State_Abbrev":"NM"},
"geometry":{ "type": "Point", "coordinates": [-104.600218,36.365411]}},
{ "type": "Feature", "properties": {"Name":"Stanley CDP","State":"New Mexico","State_Abbrev":"NM"},
"geometry":{ "type": "Point", "coordinates": [-105.976287,35.154157]}},
{ "type": "Feature", "properties": {"Name":"Stoneridge CDP","State":"New Mexico","State_Abbrev":"NM"},
"geometry":{ "type": "Point", "coordinates": [-108.10343,35.30187]}},
{ "type": "Feature", "properties": {"Name":"Sundance CDP","State":"New Mexico","State_Abbrev":"NM"},
"geometry":{ "type": "Point", "coordinates": [-108.639694,35.510539]}},
{ "type": "Feature", "properties": {"Name":"Sunland Park city","State":"New Mexico","State_Abbrev":"NM"},
"geometry":{ "type": "Point", "coordinates": [-106.600264,31.823559]}},
{ "type": "Feature", "properties": {"Name":"Sunlit Hills CDP","State":"New Mexico","State_Abbrev":"NM"},
"geometry":{ "type": "Point", "coordinates": [-105.920992,35.595709]}},
{ "type": "Feature", "properties": {"Name":"Sunshine CDP","State":"New Mexico","State_Abbrev":"NM"},
"geometry":{ "type": "Point", "coordinates": [-107.783798,32.134393]}},
{ "type": "Feature", "properties": {"Name":"Tajique CDP","State":"New Mexico","State_Abbrev":"NM"},
"geometry":{ "type": "Point", "coordinates": [-106.301019,34.760038]}},
{ "type": "Feature", "properties": {"Name":"Talpa CDP","State":"New Mexico","State_Abbrev":"NM"},
"geometry":{ "type": "Point", "coordinates": [-105.5922,36.340147]}},
{ "type": "Feature", "properties": {"Name":"Tano Road CDP","State":"New Mexico","State_Abbrev":"NM"},
"geometry":{ "type": "Point", "coordinates": [-105.981898,35.737386]}},
{ "type": "Feature", "properties": {"Name":"Taos town","State":"New Mexico","State_Abbrev":"NM"},
"geometry":{ "type": "Point", "coordinates": [-105.580409,36.387127]}},
{ "type": "Feature", "properties": {"Name":"Taos Pueblo CDP","State":"New Mexico","State_Abbrev":"NM"},
"geometry":{ "type": "Point", "coordinates": [-105.563449,36.465675]}},
{ "type": "Feature", "properties": {"Name":"Taos Ski Valley village","State":"New Mexico","State_Abbrev":"NM"},
"geometry":{ "type": "Point", "coordinates": [-105.436929,36.590042]}},
{ "type": "Feature", "properties": {"Name":"Tatum town","State":"New Mexico","State_Abbrev":"NM"},
"geometry":{ "type": "Point", "coordinates": [-103.310822,33.255394]}},
{ "type": "Feature", "properties": {"Name":"Tecolote CDP","State":"New Mexico","State_Abbrev":"NM"},
"geometry":{ "type": "Point", "coordinates": [-105.284209,35.460419]}},
{ "type": "Feature", "properties": {"Name":"Tecolotito CDP","State":"New Mexico","State_Abbrev":"NM"},
"geometry":{ "type": "Point", "coordinates": [-105.163043,35.230702]}},
{ "type": "Feature", "properties": {"Name":"Tesuque CDP","State":"New Mexico","State_Abbrev":"NM"},
"geometry":{ "type": "Point", "coordinates": [-105.920922,35.748647]}},
{ "type": "Feature", "properties": {"Name":"Tesuque Pueblo CDP","State":"New Mexico","State_Abbrev":"NM"},
"geometry":{ "type": "Point", "coordinates": [-105.975178,35.809034]}},
{ "type": "Feature", "properties": {"Name":"Texico city","State":"New Mexico","State_Abbrev":"NM"},
"geometry":{ "type": "Point", "coordinates": [-103.050682,34.389212]}},
{ "type": "Feature", "properties": {"Name":"Thoreau CDP","State":"New Mexico","State_Abbrev":"NM"},
"geometry":{ "type": "Point", "coordinates": [-108.200103,35.423455]}},
{ "type": "Feature", "properties": {"Name":"Thunder Mountain CDP","State":"New Mexico","State_Abbrev":"NM"},
"geometry":{ "type": "Point", "coordinates": [-106.22356,35.10166]}},
{ "type": "Feature", "properties": {"Name":"Tierra Amarilla CDP","State":"New Mexico","State_Abbrev":"NM"},
"geometry":{ "type": "Point", "coordinates": [-106.565132,36.705901]}},
{ "type": "Feature", "properties": {"Name":"Tijeras village","State":"New Mexico","State_Abbrev":"NM"},
"geometry":{ "type": "Point", "coordinates": [-106.377629,35.086172]}},
{ "type": "Feature", "properties": {"Name":"Timberlake CDP","State":"New Mexico","State_Abbrev":"NM"},
"geometry":{ "type": "Point", "coordinates": [-108.484254,35.201222]}},
{ "type": "Feature", "properties": {"Name":"Timberon CDP","State":"New Mexico","State_Abbrev":"NM"},
"geometry":{ "type": "Point", "coordinates": [-105.695249,32.636306]}},
{ "type": "Feature", "properties": {"Name":"Tohatchi CDP","State":"New Mexico","State_Abbrev":"NM"},
"geometry":{ "type": "Point", "coordinates": [-108.751573,35.843431]}},
{ "type": "Feature", "properties": {"Name":"Tome CDP","State":"New Mexico","State_Abbrev":"NM"},
"geometry":{ "type": "Point", "coordinates": [-106.725154,34.738985]}},
{ "type": "Feature", "properties": {"Name":"Torreon CDP","State":"New Mexico","State_Abbrev":"NM"},
"geometry":{ "type": "Point", "coordinates": [-107.212402,35.793153]}},
{ "type": "Feature", "properties": {"Name":"Torreon CDP","State":"New Mexico","State_Abbrev":"NM"},
"geometry":{ "type": "Point", "coordinates": [-106.300782,34.724196]}},
{ "type": "Feature", "properties": {"Name":"Tortugas CDP","State":"New Mexico","State_Abbrev":"NM"},
"geometry":{ "type": "Point", "coordinates": [-106.754568,32.269714]}},
{ "type": "Feature", "properties": {"Name":"Totah Vista CDP","State":"New Mexico","State_Abbrev":"NM"},
"geometry":{ "type": "Point", "coordinates": [-108.2063,36.710685]}},
{ "type": "Feature", "properties": {"Name":"Tres Arroyos CDP","State":"New Mexico","State_Abbrev":"NM"},
"geometry":{ "type": "Point", "coordinates": [-106.03986,35.679822]}},
{ "type": "Feature", "properties": {"Name":"Trout Valley CDP","State":"New Mexico","State_Abbrev":"NM"},
"geometry":{ "type": "Point", "coordinates": [-108.189261,33.036224]}},
{ "type": "Feature", "properties": {"Name":"Truchas CDP","State":"New Mexico","State_Abbrev":"NM"},
"geometry":{ "type": "Point", "coordinates": [-105.812546,36.036692]}},
{ "type": "Feature", "properties": {"Name":"Truth or Consequences city","State":"New Mexico","State_Abbrev":"NM"},
"geometry":{ "type": "Point", "coordinates": [-107.276237,33.23764]}},
{ "type": "Feature", "properties": {"Name":"Tse Bonito CDP","State":"New Mexico","State_Abbrev":"NM"},
"geometry":{ "type": "Point", "coordinates": [-109.007047,35.646588]}},
{ "type": "Feature", "properties": {"Name":"Tucumcari city","State":"New Mexico","State_Abbrev":"NM"},
"geometry":{ "type": "Point", "coordinates": [-103.705046,35.170291]}},
{ "type": "Feature", "properties": {"Name":"Tularosa village","State":"New Mexico","State_Abbrev":"NM"},
"geometry":{ "type": "Point", "coordinates": [-106.017299,33.075001]}},
{ "type": "Feature", "properties": {"Name":"Turley CDP","State":"New Mexico","State_Abbrev":"NM"},
"geometry":{ "type": "Point", "coordinates": [-107.792147,36.736661]}},
{ "type": "Feature", "properties": {"Name":"Twin Forks CDP","State":"New Mexico","State_Abbrev":"NM"},
"geometry":{ "type": "Point", "coordinates": [-105.646395,32.938514]}},
{ "type": "Feature", "properties": {"Name":"Twin Lakes CDP","State":"New Mexico","State_Abbrev":"NM"},
"geometry":{ "type": "Point", "coordinates": [-108.770905,35.683352]}},
{ "type": "Feature", "properties": {"Name":"Tyrone CDP","State":"New Mexico","State_Abbrev":"NM"},
"geometry":{ "type": "Point", "coordinates": [-108.302738,32.709932]}},
{ "type": "Feature", "properties": {"Name":"University Park CDP","State":"New Mexico","State_Abbrev":"NM"},
"geometry":{ "type": "Point", "coordinates": [-106.746191,32.276738]}},
{ "type": "Feature", "properties": {"Name":"Upper Fruitland CDP","State":"New Mexico","State_Abbrev":"NM"},
"geometry":{ "type": "Point", "coordinates": [-108.321483,36.720034]}},
{ "type": "Feature", "properties": {"Name":"Ute Park CDP","State":"New Mexico","State_Abbrev":"NM"},
"geometry":{ "type": "Point", "coordinates": [-105.103801,36.546688]}},
{ "type": "Feature", "properties": {"Name":"Vadito CDP","State":"New Mexico","State_Abbrev":"NM"},
"geometry":{ "type": "Point", "coordinates": [-105.675328,36.192924]}},
{ "type": "Feature", "properties": {"Name":"Vado CDP","State":"New Mexico","State_Abbrev":"NM"},
"geometry":{ "type": "Point", "coordinates": [-106.657073,32.127881]}},
{ "type": "Feature", "properties": {"Name":"Valencia CDP","State":"New Mexico","State_Abbrev":"NM"},
"geometry":{ "type": "Point", "coordinates": [-105.790814,35.578015]}},
{ "type": "Feature", "properties": {"Name":"Valencia CDP","State":"New Mexico","State_Abbrev":"NM"},
"geometry":{ "type": "Point", "coordinates": [-106.686912,34.805297]}},
{ "type": "Feature", "properties": {"Name":"Valle Vista CDP","State":"New Mexico","State_Abbrev":"NM"},
"geometry":{ "type": "Point", "coordinates": [-106.058449,35.583959]}},
{ "type": "Feature", "properties": {"Name":"Vanderwagen CDP","State":"New Mexico","State_Abbrev":"NM"},
"geometry":{ "type": "Point", "coordinates": [-108.744447,35.27455]}},
{ "type": "Feature", "properties": {"Name":"Vaughn town","State":"New Mexico","State_Abbrev":"NM"},
"geometry":{ "type": "Point", "coordinates": [-105.212594,34.607206]}},
{ "type": "Feature", "properties": {"Name":"Veguita CDP","State":"New Mexico","State_Abbrev":"NM"},
"geometry":{ "type": "Point", "coordinates": [-106.767915,34.514686]}},
{ "type": "Feature", "properties": {"Name":"Velarde CDP","State":"New Mexico","State_Abbrev":"NM"},
"geometry":{ "type": "Point", "coordinates": [-105.958756,36.159292]}},
{ "type": "Feature", "properties": {"Name":"Ventura CDP","State":"New Mexico","State_Abbrev":"NM"},
"geometry":{ "type": "Point", "coordinates": [-107.683198,32.243769]}},
{ "type": "Feature", "properties": {"Name":"Villanueva CDP","State":"New Mexico","State_Abbrev":"NM"},
"geometry":{ "type": "Point", "coordinates": [-105.360208,35.265923]}},
{ "type": "Feature", "properties": {"Name":"Virden village","State":"New Mexico","State_Abbrev":"NM"},
"geometry":{ "type": "Point", "coordinates": [-109.001333,32.688872]}},
{ "type": "Feature", "properties": {"Name":"Wagon Mound village","State":"New Mexico","State_Abbrev":"NM"},
"geometry":{ "type": "Point", "coordinates": [-104.709192,36.004722]}},
{ "type": "Feature", "properties": {"Name":"Waterflow CDP","State":"New Mexico","State_Abbrev":"NM"},
"geometry":{ "type": "Point", "coordinates": [-108.469456,36.755425]}},
{ "type": "Feature", "properties": {"Name":"Watrous CDP","State":"New Mexico","State_Abbrev":"NM"},
"geometry":{ "type": "Point", "coordinates": [-104.982515,35.789151]}},
{ "type": "Feature", "properties": {"Name":"Weed CDP","State":"New Mexico","State_Abbrev":"NM"},
"geometry":{ "type": "Point", "coordinates": [-105.530851,32.796855]}},
{ "type": "Feature", "properties": {"Name":"West Hammond CDP","State":"New Mexico","State_Abbrev":"NM"},
"geometry":{ "type": "Point", "coordinates": [-108.043784,36.681984]}},
{ "type": "Feature", "properties": {"Name":"White Cliffs CDP","State":"New Mexico","State_Abbrev":"NM"},
"geometry":{ "type": "Point", "coordinates": [-108.664318,35.549023]}},
{ "type": "Feature", "properties": {"Name":"White Rock CDP","State":"New Mexico","State_Abbrev":"NM"},
"geometry":{ "type": "Point", "coordinates": [-106.208121,35.808645]}},
{ "type": "Feature", "properties": {"Name":"White Sands CDP","State":"New Mexico","State_Abbrev":"NM"},
"geometry":{ "type": "Point", "coordinates": [-106.479113,32.38044]}},
{ "type": "Feature", "properties": {"Name":"Whites City CDP","State":"New Mexico","State_Abbrev":"NM"},
"geometry":{ "type": "Point", "coordinates": [-104.373797,32.176645]}},
{ "type": "Feature", "properties": {"Name":"White Signal CDP","State":"New Mexico","State_Abbrev":"NM"},
"geometry":{ "type": "Point", "coordinates": [-108.349021,32.567749]}},
{ "type": "Feature", "properties": {"Name":"Willard village","State":"New Mexico","State_Abbrev":"NM"},
"geometry":{ "type": "Point", "coordinates": [-106.032289,34.594879]}},
{ "type": "Feature", "properties": {"Name":"Williams Acres CDP","State":"New Mexico","State_Abbrev":"NM"},
"geometry":{ "type": "Point", "coordinates": [-108.86998,35.496938]}},
{ "type": "Feature", "properties": {"Name":"Williamsburg village","State":"New Mexico","State_Abbrev":"NM"},
"geometry":{ "type": "Point", "coordinates": [-107.294462,33.11593]}},
{ "type": "Feature", "properties": {"Name":"Windmill CDP","State":"New Mexico","State_Abbrev":"NM"},
"geometry":{ "type": "Point", "coordinates": [-108.631504,31.976871]}},
{ "type": "Feature", "properties": {"Name":"Winston CDP","State":"New Mexico","State_Abbrev":"NM"},
"geometry":{ "type": "Point", "coordinates": [-107.648743,33.346112]}},
{ "type": "Feature", "properties": {"Name":"Yah-ta-hey CDP","State":"New Mexico","State_Abbrev":"NM"},
"geometry":{ "type": "Point", "coordinates": [-108.792667,35.629103]}},
{ "type": "Feature", "properties": {"Name":"Youngsville CDP","State":"New Mexico","State_Abbrev":"NM"},
"geometry":{ "type": "Point", "coordinates": [-106.566931,36.194985]}},
{ "type": "Feature", "properties": {"Name":"Zia Pueblo CDP","State":"New Mexico","State_Abbrev":"NM"},
"geometry":{ "type": "Point", "coordinates": [-106.716961,35.529992]}},
{ "type": "Feature", "properties": {"Name":"Zuni Pueblo CDP","State":"New Mexico","State_Abbrev":"NM"},
"geometry":{ "type": "Point", "coordinates": [-108.855832,35.069351]}}]}
