{"type":"FeatureCollection","features":[
{ "type": "Feature", "properties": {"Abercrombie city":"Adams city","North Dakota":"North Dakota","ND":"ND"},
"geometry":{ "type": "Point", "coordinates": [-98.073958,48.420545]}},
{ "type": "Feature", "properties": {"Abercrombie city":"Alamo city","North Dakota":"North Dakota","ND":"ND"},
"geometry":{ "type": "Point", "coordinates": [-103.467443,48.581977]}},
{ "type": "Feature", "properties": {"Abercrombie city":"Alexander city","North Dakota":"North Dakota","ND":"ND"},
"geometry":{ "type": "Point", "coordinates": [-103.643203,47.838058]}},
{ "type": "Feature", "properties": {"Abercrombie city":"Alice city","North Dakota":"North Dakota","ND":"ND"},
"geometry":{ "type": "Point", "coordinates": [-97.556248,46.760046]}},
{ "type": "Feature", "properties": {"Abercrombie city":"Almont city","North Dakota":"North Dakota","ND":"ND"},
"geometry":{ "type": "Point", "coordinates": [-101.502652,46.728335]}},
{ "type": "Feature", "properties": {"Abercrombie city":"Alsen city","North Dakota":"North Dakota","ND":"ND"},
"geometry":{ "type": "Point", "coordinates": [-98.704271,48.630456]}},
{ "type": "Feature", "properties": {"Abercrombie city":"Ambrose city","North Dakota":"North Dakota","ND":"ND"},
"geometry":{ "type": "Point", "coordinates": [-103.481255,48.955902]}},
{ "type": "Feature", "properties": {"Abercrombie city":"Amenia city","North Dakota":"North Dakota","ND":"ND"},
"geometry":{ "type": "Point", "coordinates": [-97.224104,47.006485]}},
{ "type": "Feature", "properties": {"Abercrombie city":"Amidon city","North Dakota":"North Dakota","ND":"ND"},
"geometry":{ "type": "Point", "coordinates": [-103.319601,46.482247]}},
{ "type": "Feature", "properties": {"Abercrombie city":"Anamoose city","North Dakota":"North Dakota","ND":"ND"},
"geometry":{ "type": "Point", "coordinates": [-100.24226,47.883068]}},
{ "type": "Feature", "properties": {"Abercrombie city":"Aneta city","North Dakota":"North Dakota","ND":"ND"},
"geometry":{ "type": "Point", "coordinates": [-97.988984,47.679719]}},
{ "type": "Feature", "properties": {"Abercrombie city":"Antler city","North Dakota":"North Dakota","ND":"ND"},
"geometry":{ "type": "Point", "coordinates": [-101.283164,48.971319]}},
{ "type": "Feature", "properties": {"Abercrombie city":"Apple Valley CDP","North Dakota":"North Dakota","ND":"ND"},
"geometry":{ "type": "Point", "coordinates": [-100.599484,46.820971]}},
{ "type": "Feature", "properties": {"Abercrombie city":"Ardoch city","North Dakota":"North Dakota","ND":"ND"},
"geometry":{ "type": "Point", "coordinates": [-97.338033,48.205446]}},
{ "type": "Feature", "properties": {"Abercrombie city":"Argusville city","North Dakota":"North Dakota","ND":"ND"},
"geometry":{ "type": "Point", "coordinates": [-96.943141,47.050068]}},
{ "type": "Feature", "properties": {"Abercrombie city":"Arnegard city","North Dakota":"North Dakota","ND":"ND"},
"geometry":{ "type": "Point", "coordinates": [-103.442573,47.806523]}},
{ "type": "Feature", "properties": {"Abercrombie city":"Arthur city","North Dakota":"North Dakota","ND":"ND"},
"geometry":{ "type": "Point", "coordinates": [-97.218355,47.104268]}},
{ "type": "Feature", "properties": {"Abercrombie city":"Ashley city","North Dakota":"North Dakota","ND":"ND"},
"geometry":{ "type": "Point", "coordinates": [-99.373677,46.034744]}},
{ "type": "Feature", "properties": {"Abercrombie city":"Auburn CDP","North Dakota":"North Dakota","ND":"ND"},
"geometry":{ "type": "Point", "coordinates": [-97.436844,48.506563]}},
{ "type": "Feature", "properties": {"Abercrombie city":"Ayr city","North Dakota":"North Dakota","ND":"ND"},
"geometry":{ "type": "Point", "coordinates": [-97.490932,47.041107]}},
{ "type": "Feature", "properties": {"Abercrombie city":"Balfour city","North Dakota":"North Dakota","ND":"ND"},
"geometry":{ "type": "Point", "coordinates": [-100.534257,47.950908]}},
{ "type": "Feature", "properties": {"Abercrombie city":"Balta city","North Dakota":"North Dakota","ND":"ND"},
"geometry":{ "type": "Point", "coordinates": [-100.036646,48.166169]}},
{ "type": "Feature", "properties": {"Abercrombie city":"Bantry CDP","North Dakota":"North Dakota","ND":"ND"},
"geometry":{ "type": "Point", "coordinates": [-100.614696,48.494254]}},
{ "type": "Feature", "properties": {"Abercrombie city":"Barney city","North Dakota":"North Dakota","ND":"ND"},
"geometry":{ "type": "Point", "coordinates": [-96.998834,46.265844]}},
{ "type": "Feature", "properties": {"Abercrombie city":"Barton CDP","North Dakota":"North Dakota","ND":"ND"},
"geometry":{ "type": "Point", "coordinates": [-100.173821,48.508788]}},
{ "type": "Feature", "properties": {"Abercrombie city":"Bathgate city","North Dakota":"North Dakota","ND":"ND"},
"geometry":{ "type": "Point", "coordinates": [-97.473862,48.880411]}},
{ "type": "Feature", "properties": {"Abercrombie city":"Beach city","North Dakota":"North Dakota","ND":"ND"},
"geometry":{ "type": "Point", "coordinates": [-104.005446,46.918747]}},
{ "type": "Feature", "properties": {"Abercrombie city":"Belcourt CDP","North Dakota":"North Dakota","ND":"ND"},
"geometry":{ "type": "Point", "coordinates": [-99.744164,48.842494]}},
{ "type": "Feature", "properties": {"Abercrombie city":"Belfield city","North Dakota":"North Dakota","ND":"ND"},
"geometry":{ "type": "Point", "coordinates": [-103.195481,46.886789]}},
{ "type": "Feature", "properties": {"Abercrombie city":"Benedict city","North Dakota":"North Dakota","ND":"ND"},
"geometry":{ "type": "Point", "coordinates": [-101.084323,47.830132]}},
{ "type": "Feature", "properties": {"Abercrombie city":"Bergen city","North Dakota":"North Dakota","ND":"ND"},
"geometry":{ "type": "Point", "coordinates": [-100.719893,48.003724]}},
{ "type": "Feature", "properties": {"Abercrombie city":"Berlin city","North Dakota":"North Dakota","ND":"ND"},
"geometry":{ "type": "Point", "coordinates": [-98.488447,46.378373]}},
{ "type": "Feature", "properties": {"Abercrombie city":"Berthold city","North Dakota":"North Dakota","ND":"ND"},
"geometry":{ "type": "Point", "coordinates": [-101.759023,48.314136]}},
{ "type": "Feature", "properties": {"Abercrombie city":"Beulah city","North Dakota":"North Dakota","ND":"ND"},
"geometry":{ "type": "Point", "coordinates": [-101.770684,47.266826]}},
{ "type": "Feature", "properties": {"Abercrombie city":"Binford city","North Dakota":"North Dakota","ND":"ND"},
"geometry":{ "type": "Point", "coordinates": [-98.345628,47.560424]}},
{ "type": "Feature", "properties": {"Abercrombie city":"Bisbee city","North Dakota":"North Dakota","ND":"ND"},
"geometry":{ "type": "Point", "coordinates": [-99.378773,48.62721]}},
{ "type": "Feature", "properties": {"Abercrombie city":"Bismarck city","North Dakota":"North Dakota","ND":"ND"},
"geometry":{ "type": "Point", "coordinates": [-100.770089,46.814583]}},
{ "type": "Feature", "properties": {"Abercrombie city":"Blacktail CDP","North Dakota":"North Dakota","ND":"ND"},
"geometry":{ "type": "Point", "coordinates": [-103.73969,48.432108]}},
{ "type": "Feature", "properties": {"Abercrombie city":"Blanchard CDP","North Dakota":"North Dakota","ND":"ND"},
"geometry":{ "type": "Point", "coordinates": [-97.223124,47.343084]}},
{ "type": "Feature", "properties": {"Abercrombie city":"Bottineau city","North Dakota":"North Dakota","ND":"ND"},
"geometry":{ "type": "Point", "coordinates": [-100.442522,48.824799]}},
{ "type": "Feature", "properties": {"Abercrombie city":"Bowbells city","North Dakota":"North Dakota","ND":"ND"},
"geometry":{ "type": "Point", "coordinates": [-102.246373,48.802553]}},
{ "type": "Feature", "properties": {"Abercrombie city":"Bowdon city","North Dakota":"North Dakota","ND":"ND"},
"geometry":{ "type": "Point", "coordinates": [-99.708868,47.468514]}},
{ "type": "Feature", "properties": {"Abercrombie city":"Bowman city","North Dakota":"North Dakota","ND":"ND"},
"geometry":{ "type": "Point", "coordinates": [-103.402946,46.184324]}},
{ "type": "Feature", "properties": {"Abercrombie city":"Braddock city","North Dakota":"North Dakota","ND":"ND"},
"geometry":{ "type": "Point", "coordinates": [-100.089639,46.563978]}},
{ "type": "Feature", "properties": {"Abercrombie city":"Briarwood city","North Dakota":"North Dakota","ND":"ND"},
"geometry":{ "type": "Point", "coordinates": [-96.794771,46.787002]}},
{ "type": "Feature", "properties": {"Abercrombie city":"Brinsmade city","North Dakota":"North Dakota","ND":"ND"},
"geometry":{ "type": "Point", "coordinates": [-99.323639,48.183979]}},
{ "type": "Feature", "properties": {"Abercrombie city":"Brocket city","North Dakota":"North Dakota","ND":"ND"},
"geometry":{ "type": "Point", "coordinates": [-98.355405,48.210813]}},
{ "type": "Feature", "properties": {"Abercrombie city":"Brooktree Park CDP","North Dakota":"North Dakota","ND":"ND"},
"geometry":{ "type": "Point", "coordinates": [-96.895693,47.003884]}},
{ "type": "Feature", "properties": {"Abercrombie city":"Buchanan city","North Dakota":"North Dakota","ND":"ND"},
"geometry":{ "type": "Point", "coordinates": [-98.829018,47.062599]}},
{ "type": "Feature", "properties": {"Abercrombie city":"Bucyrus city","North Dakota":"North Dakota","ND":"ND"},
"geometry":{ "type": "Point", "coordinates": [-102.788317,46.06457]}},
{ "type": "Feature", "properties": {"Abercrombie city":"Buffalo city","North Dakota":"North Dakota","ND":"ND"},
"geometry":{ "type": "Point", "coordinates": [-97.550619,46.91926]}},
{ "type": "Feature", "properties": {"Abercrombie city":"Burlington city","North Dakota":"North Dakota","ND":"ND"},
"geometry":{ "type": "Point", "coordinates": [-101.41455,48.257173]}},
{ "type": "Feature", "properties": {"Abercrombie city":"Butte city","North Dakota":"North Dakota","ND":"ND"},
"geometry":{ "type": "Point", "coordinates": [-100.665841,47.836968]}},
{ "type": "Feature", "properties": {"Abercrombie city":"Buxton city","North Dakota":"North Dakota","ND":"ND"},
"geometry":{ "type": "Point", "coordinates": [-97.097519,47.602065]}},
{ "type": "Feature", "properties": {"Abercrombie city":"Caledonia CDP","North Dakota":"North Dakota","ND":"ND"},
"geometry":{ "type": "Point", "coordinates": [-96.889141,47.457677]}},
{ "type": "Feature", "properties": {"Abercrombie city":"Calio city","North Dakota":"North Dakota","ND":"ND"},
"geometry":{ "type": "Point", "coordinates": [-98.938381,48.62377]}},
{ "type": "Feature", "properties": {"Abercrombie city":"Calvin city","North Dakota":"North Dakota","ND":"ND"},
"geometry":{ "type": "Point", "coordinates": [-98.938021,48.851849]}},
{ "type": "Feature", "properties": {"Abercrombie city":"Cando city","North Dakota":"North Dakota","ND":"ND"},
"geometry":{ "type": "Point", "coordinates": [-99.202471,48.487221]}},
{ "type": "Feature", "properties": {"Abercrombie city":"Cannon Ball CDP","North Dakota":"North Dakota","ND":"ND"},
"geometry":{ "type": "Point", "coordinates": [-100.629428,46.323693]}},
{ "type": "Feature", "properties": {"Abercrombie city":"Canton City (Hensel) city","North Dakota":"North Dakota","ND":"ND"},
"geometry":{ "type": "Point", "coordinates": [-97.666135,48.688034]}},
{ "type": "Feature", "properties": {"Abercrombie city":"Carpio city","North Dakota":"North Dakota","ND":"ND"},
"geometry":{ "type": "Point", "coordinates": [-101.716317,48.443445]}},
{ "type": "Feature", "properties": {"Abercrombie city":"Carrington city","North Dakota":"North Dakota","ND":"ND"},
"geometry":{ "type": "Point", "coordinates": [-99.131033,47.452851]}},
{ "type": "Feature", "properties": {"Abercrombie city":"Carson city","North Dakota":"North Dakota","ND":"ND"},
"geometry":{ "type": "Point", "coordinates": [-101.570618,46.422307]}},
{ "type": "Feature", "properties": {"Abercrombie city":"Casselton city","North Dakota":"North Dakota","ND":"ND"},
"geometry":{ "type": "Point", "coordinates": [-97.212591,46.897083]}},
{ "type": "Feature", "properties": {"Abercrombie city":"Cathay city","North Dakota":"North Dakota","ND":"ND"},
"geometry":{ "type": "Point", "coordinates": [-99.411296,47.553923]}},
{ "type": "Feature", "properties": {"Abercrombie city":"Cavalier city","North Dakota":"North Dakota","ND":"ND"},
"geometry":{ "type": "Point", "coordinates": [-97.622647,48.794019]}},
{ "type": "Feature", "properties": {"Abercrombie city":"Cayuga city","North Dakota":"North Dakota","ND":"ND"},
"geometry":{ "type": "Point", "coordinates": [-97.384516,46.07606]}},
{ "type": "Feature", "properties": {"Abercrombie city":"Center city","North Dakota":"North Dakota","ND":"ND"},
"geometry":{ "type": "Point", "coordinates": [-101.297676,47.114931]}},
{ "type": "Feature", "properties": {"Abercrombie city":"Christine city","North Dakota":"North Dakota","ND":"ND"},
"geometry":{ "type": "Point", "coordinates": [-96.806637,46.575149]}},
{ "type": "Feature", "properties": {"Abercrombie city":"Churchs Ferry city","North Dakota":"North Dakota","ND":"ND"},
"geometry":{ "type": "Point", "coordinates": [-99.194369,48.268604]}},
{ "type": "Feature", "properties": {"Abercrombie city":"Cleveland city","North Dakota":"North Dakota","ND":"ND"},
"geometry":{ "type": "Point", "coordinates": [-99.119562,46.891027]}},
{ "type": "Feature", "properties": {"Abercrombie city":"Clifford city","North Dakota":"North Dakota","ND":"ND"},
"geometry":{ "type": "Point", "coordinates": [-97.410094,47.3482]}},
{ "type": "Feature", "properties": {"Abercrombie city":"Cogswell city","North Dakota":"North Dakota","ND":"ND"},
"geometry":{ "type": "Point", "coordinates": [-97.78423,46.106967]}},
{ "type": "Feature", "properties": {"Abercrombie city":"Coleharbor city","North Dakota":"North Dakota","ND":"ND"},
"geometry":{ "type": "Point", "coordinates": [-101.221365,47.542533]}},
{ "type": "Feature", "properties": {"Abercrombie city":"Colfax city","North Dakota":"North Dakota","ND":"ND"},
"geometry":{ "type": "Point", "coordinates": [-96.872457,46.470944]}},
{ "type": "Feature", "properties": {"Abercrombie city":"Columbus city","North Dakota":"North Dakota","ND":"ND"},
"geometry":{ "type": "Point", "coordinates": [-102.781176,48.904982]}},
{ "type": "Feature", "properties": {"Abercrombie city":"Conway city","North Dakota":"North Dakota","ND":"ND"},
"geometry":{ "type": "Point", "coordinates": [-97.675088,48.234279]}},
{ "type": "Feature", "properties": {"Abercrombie city":"Cooperstown city","North Dakota":"North Dakota","ND":"ND"},
"geometry":{ "type": "Point", "coordinates": [-98.125625,47.444894]}},
{ "type": "Feature", "properties": {"Abercrombie city":"Courtenay city","North Dakota":"North Dakota","ND":"ND"},
"geometry":{ "type": "Point", "coordinates": [-98.568492,47.224136]}},
{ "type": "Feature", "properties": {"Abercrombie city":"Crary city","North Dakota":"North Dakota","ND":"ND"},
"geometry":{ "type": "Point", "coordinates": [-98.633227,48.074971]}},
{ "type": "Feature", "properties": {"Abercrombie city":"Crosby city","North Dakota":"North Dakota","ND":"ND"},
"geometry":{ "type": "Point", "coordinates": [-103.296622,48.916167]}},
{ "type": "Feature", "properties": {"Abercrombie city":"Crystal city","North Dakota":"North Dakota","ND":"ND"},
"geometry":{ "type": "Point", "coordinates": [-97.668578,48.598099]}},
{ "type": "Feature", "properties": {"Abercrombie city":"Dahlen CDP","North Dakota":"North Dakota","ND":"ND"},
"geometry":{ "type": "Point", "coordinates": [-97.932382,48.15879]}},
{ "type": "Feature", "properties": {"Abercrombie city":"Davenport city","North Dakota":"North Dakota","ND":"ND"},
"geometry":{ "type": "Point", "coordinates": [-97.065682,46.714811]}},
{ "type": "Feature", "properties": {"Abercrombie city":"Dawson city","North Dakota":"North Dakota","ND":"ND"},
"geometry":{ "type": "Point", "coordinates": [-99.75362,46.867939]}},
{ "type": "Feature", "properties": {"Abercrombie city":"Dazey city","North Dakota":"North Dakota","ND":"ND"},
"geometry":{ "type": "Point", "coordinates": [-98.200702,47.188351]}},
{ "type": "Feature", "properties": {"Abercrombie city":"Deering city","North Dakota":"North Dakota","ND":"ND"},
"geometry":{ "type": "Point", "coordinates": [-101.049842,48.395831]}},
{ "type": "Feature", "properties": {"Abercrombie city":"De Lamere CDP","North Dakota":"North Dakota","ND":"ND"},
"geometry":{ "type": "Point", "coordinates": [-97.333318,46.266824]}},
{ "type": "Feature", "properties": {"Abercrombie city":"Denhoff CDP","North Dakota":"North Dakota","ND":"ND"},
"geometry":{ "type": "Point", "coordinates": [-100.262292,47.483336]}},
{ "type": "Feature", "properties": {"Abercrombie city":"Des Lacs city","North Dakota":"North Dakota","ND":"ND"},
"geometry":{ "type": "Point", "coordinates": [-101.563705,48.256865]}},
{ "type": "Feature", "properties": {"Abercrombie city":"Devils Lake city","North Dakota":"North Dakota","ND":"ND"},
"geometry":{ "type": "Point", "coordinates": [-98.874762,48.112578]}},
{ "type": "Feature", "properties": {"Abercrombie city":"Dickey city","North Dakota":"North Dakota","ND":"ND"},
"geometry":{ "type": "Point", "coordinates": [-98.468092,46.536801]}},
{ "type": "Feature", "properties": {"Abercrombie city":"Dickinson city","North Dakota":"North Dakota","ND":"ND"},
"geometry":{ "type": "Point", "coordinates": [-102.79596,46.89278]}},
{ "type": "Feature", "properties": {"Abercrombie city":"Dodge city","North Dakota":"North Dakota","ND":"ND"},
"geometry":{ "type": "Point", "coordinates": [-102.20238,47.305322]}},
{ "type": "Feature", "properties": {"Abercrombie city":"Donnybrook city","North Dakota":"North Dakota","ND":"ND"},
"geometry":{ "type": "Point", "coordinates": [-101.887054,48.507731]}},
{ "type": "Feature", "properties": {"Abercrombie city":"Douglas city","North Dakota":"North Dakota","ND":"ND"},
"geometry":{ "type": "Point", "coordinates": [-101.50193,47.857678]}},
{ "type": "Feature", "properties": {"Abercrombie city":"Drake city","North Dakota":"North Dakota","ND":"ND"},
"geometry":{ "type": "Point", "coordinates": [-100.37442,47.922691]}},
{ "type": "Feature", "properties": {"Abercrombie city":"Drayton city","North Dakota":"North Dakota","ND":"ND"},
"geometry":{ "type": "Point", "coordinates": [-97.179496,48.56206]}},
{ "type": "Feature", "properties": {"Abercrombie city":"Driscoll CDP","North Dakota":"North Dakota","ND":"ND"},
"geometry":{ "type": "Point", "coordinates": [-100.143905,46.842682]}},
{ "type": "Feature", "properties": {"Abercrombie city":"Dunn Center city","North Dakota":"North Dakota","ND":"ND"},
"geometry":{ "type": "Point", "coordinates": [-102.622785,47.353134]}},
{ "type": "Feature", "properties": {"Abercrombie city":"Dunseith city","North Dakota":"North Dakota","ND":"ND"},
"geometry":{ "type": "Point", "coordinates": [-100.062233,48.813033]}},
{ "type": "Feature", "properties": {"Abercrombie city":"Dwight city","North Dakota":"North Dakota","ND":"ND"},
"geometry":{ "type": "Point", "coordinates": [-96.740143,46.303953]}},
{ "type": "Feature", "properties": {"Abercrombie city":"East Dunseith CDP","North Dakota":"North Dakota","ND":"ND"},
"geometry":{ "type": "Point", "coordinates": [-100.021856,48.863246]}},
{ "type": "Feature", "properties": {"Abercrombie city":"East Fairview CDP","North Dakota":"North Dakota","ND":"ND"},
"geometry":{ "type": "Point", "coordinates": [-104.035893,47.853419]}},
{ "type": "Feature", "properties": {"Abercrombie city":"Edgeley city","North Dakota":"North Dakota","ND":"ND"},
"geometry":{ "type": "Point", "coordinates": [-98.712597,46.36244]}},
{ "type": "Feature", "properties": {"Abercrombie city":"Edinburg city","North Dakota":"North Dakota","ND":"ND"},
"geometry":{ "type": "Point", "coordinates": [-97.862968,48.495502]}},
{ "type": "Feature", "properties": {"Abercrombie city":"Edmore city","North Dakota":"North Dakota","ND":"ND"},
"geometry":{ "type": "Point", "coordinates": [-98.453645,48.412438]}},
{ "type": "Feature", "properties": {"Abercrombie city":"Egeland city","North Dakota":"North Dakota","ND":"ND"},
"geometry":{ "type": "Point", "coordinates": [-99.09796,48.628113]}},
{ "type": "Feature", "properties": {"Abercrombie city":"Elgin city","North Dakota":"North Dakota","ND":"ND"},
"geometry":{ "type": "Point", "coordinates": [-101.847373,46.401499]}},
{ "type": "Feature", "properties": {"Abercrombie city":"Ellendale city","North Dakota":"North Dakota","ND":"ND"},
"geometry":{ "type": "Point", "coordinates": [-98.525354,46.004354]}},
{ "type": "Feature", "properties": {"Abercrombie city":"Elliott city","North Dakota":"North Dakota","ND":"ND"},
"geometry":{ "type": "Point", "coordinates": [-97.81488,46.402268]}},
{ "type": "Feature", "properties": {"Abercrombie city":"Embden CDP","North Dakota":"North Dakota","ND":"ND"},
"geometry":{ "type": "Point", "coordinates": [-97.439506,46.805031]}},
{ "type": "Feature", "properties": {"Abercrombie city":"Emerado city","North Dakota":"North Dakota","ND":"ND"},
"geometry":{ "type": "Point", "coordinates": [-97.361629,47.928568]}},
{ "type": "Feature", "properties": {"Abercrombie city":"Enderlin city","North Dakota":"North Dakota","ND":"ND"},
"geometry":{ "type": "Point", "coordinates": [-97.595581,46.6215]}},
{ "type": "Feature", "properties": {"Abercrombie city":"Englevale CDP","North Dakota":"North Dakota","ND":"ND"},
"geometry":{ "type": "Point", "coordinates": [-97.903831,46.391177]}},
{ "type": "Feature", "properties": {"Abercrombie city":"Epping city","North Dakota":"North Dakota","ND":"ND"},
"geometry":{ "type": "Point", "coordinates": [-103.35784,48.281651]}},
{ "type": "Feature", "properties": {"Abercrombie city":"Erie CDP","North Dakota":"North Dakota","ND":"ND"},
"geometry":{ "type": "Point", "coordinates": [-97.387918,47.115346]}},
{ "type": "Feature", "properties": {"Abercrombie city":"Esmond city","North Dakota":"North Dakota","ND":"ND"},
"geometry":{ "type": "Point", "coordinates": [-99.76476,48.033096]}},
{ "type": "Feature", "properties": {"Abercrombie city":"Fairdale city","North Dakota":"North Dakota","ND":"ND"},
"geometry":{ "type": "Point", "coordinates": [-98.231224,48.490037]}},
{ "type": "Feature", "properties": {"Abercrombie city":"Fairmount city","North Dakota":"North Dakota","ND":"ND"},
"geometry":{ "type": "Point", "coordinates": [-96.602907,46.054695]}},
{ "type": "Feature", "properties": {"Abercrombie city":"Fargo city","North Dakota":"North Dakota","ND":"ND"},
"geometry":{ "type": "Point", "coordinates": [-96.82908,46.8647]}},
{ "type": "Feature", "properties": {"Abercrombie city":"Fessenden city","North Dakota":"North Dakota","ND":"ND"},
"geometry":{ "type": "Point", "coordinates": [-99.627008,47.649308]}},
{ "type": "Feature", "properties": {"Abercrombie city":"Fingal city","North Dakota":"North Dakota","ND":"ND"},
"geometry":{ "type": "Point", "coordinates": [-97.793158,46.762492]}},
{ "type": "Feature", "properties": {"Abercrombie city":"Finley city","North Dakota":"North Dakota","ND":"ND"},
"geometry":{ "type": "Point", "coordinates": [-97.837267,47.512515]}},
{ "type": "Feature", "properties": {"Abercrombie city":"Flasher city","North Dakota":"North Dakota","ND":"ND"},
"geometry":{ "type": "Point", "coordinates": [-101.232861,46.452099]}},
{ "type": "Feature", "properties": {"Abercrombie city":"Flaxton city","North Dakota":"North Dakota","ND":"ND"},
"geometry":{ "type": "Point", "coordinates": [-102.391147,48.896288]}},
{ "type": "Feature", "properties": {"Abercrombie city":"Forbes city","North Dakota":"North Dakota","ND":"ND"},
"geometry":{ "type": "Point", "coordinates": [-98.782019,45.942511]}},
{ "type": "Feature", "properties": {"Abercrombie city":"Fordville city","North Dakota":"North Dakota","ND":"ND"},
"geometry":{ "type": "Point", "coordinates": [-97.795376,48.216592]}},
{ "type": "Feature", "properties": {"Abercrombie city":"Forest River city","North Dakota":"North Dakota","ND":"ND"},
"geometry":{ "type": "Point", "coordinates": [-97.470319,48.216553]}},
{ "type": "Feature", "properties": {"Abercrombie city":"Forman city","North Dakota":"North Dakota","ND":"ND"},
"geometry":{ "type": "Point", "coordinates": [-97.637099,46.103761]}},
{ "type": "Feature", "properties": {"Abercrombie city":"Fort Ransom city","North Dakota":"North Dakota","ND":"ND"},
"geometry":{ "type": "Point", "coordinates": [-97.931057,46.524529]}},
{ "type": "Feature", "properties": {"Abercrombie city":"Fort Totten CDP","North Dakota":"North Dakota","ND":"ND"},
"geometry":{ "type": "Point", "coordinates": [-99.016593,47.970499]}},
{ "type": "Feature", "properties": {"Abercrombie city":"Fortuna city","North Dakota":"North Dakota","ND":"ND"},
"geometry":{ "type": "Point", "coordinates": [-103.779092,48.909702]}},
{ "type": "Feature", "properties": {"Abercrombie city":"Fort Yates city","North Dakota":"North Dakota","ND":"ND"},
"geometry":{ "type": "Point", "coordinates": [-100.630078,46.086594]}},
{ "type": "Feature", "properties": {"Abercrombie city":"Four Bears Village CDP","North Dakota":"North Dakota","ND":"ND"},
"geometry":{ "type": "Point", "coordinates": [-102.593735,47.987113]}},
{ "type": "Feature", "properties": {"Abercrombie city":"Foxholm CDP","North Dakota":"North Dakota","ND":"ND"},
"geometry":{ "type": "Point", "coordinates": [-101.57212,48.365415]}},
{ "type": "Feature", "properties": {"Abercrombie city":"Fredonia city","North Dakota":"North Dakota","ND":"ND"},
"geometry":{ "type": "Point", "coordinates": [-99.095632,46.329175]}},
{ "type": "Feature", "properties": {"Abercrombie city":"Frontier city","North Dakota":"North Dakota","ND":"ND"},
"geometry":{ "type": "Point", "coordinates": [-96.833294,46.800275]}},
{ "type": "Feature", "properties": {"Abercrombie city":"Fullerton city","North Dakota":"North Dakota","ND":"ND"},
"geometry":{ "type": "Point", "coordinates": [-98.427313,46.163228]}},
{ "type": "Feature", "properties": {"Abercrombie city":"Gackle city","North Dakota":"North Dakota","ND":"ND"},
"geometry":{ "type": "Point", "coordinates": [-99.141408,46.626404]}},
{ "type": "Feature", "properties": {"Abercrombie city":"Galesburg city","North Dakota":"North Dakota","ND":"ND"},
"geometry":{ "type": "Point", "coordinates": [-97.408761,47.270098]}},
{ "type": "Feature", "properties": {"Abercrombie city":"Gardena city","North Dakota":"North Dakota","ND":"ND"},
"geometry":{ "type": "Point", "coordinates": [-100.498087,48.701237]}},
{ "type": "Feature", "properties": {"Abercrombie city":"Gardner city","North Dakota":"North Dakota","ND":"ND"},
"geometry":{ "type": "Point", "coordinates": [-96.968617,47.144511]}},
{ "type": "Feature", "properties": {"Abercrombie city":"Garrison city","North Dakota":"North Dakota","ND":"ND"},
"geometry":{ "type": "Point", "coordinates": [-101.421914,47.653206]}},
{ "type": "Feature", "properties": {"Abercrombie city":"Gascoyne city","North Dakota":"North Dakota","ND":"ND"},
"geometry":{ "type": "Point", "coordinates": [-103.078786,46.118954]}},
{ "type": "Feature", "properties": {"Abercrombie city":"Gilby city","North Dakota":"North Dakota","ND":"ND"},
"geometry":{ "type": "Point", "coordinates": [-97.467723,48.083502]}},
{ "type": "Feature", "properties": {"Abercrombie city":"Gladstone city","North Dakota":"North Dakota","ND":"ND"},
"geometry":{ "type": "Point", "coordinates": [-102.576584,46.858698]}},
{ "type": "Feature", "properties": {"Abercrombie city":"Glenburn city","North Dakota":"North Dakota","ND":"ND"},
"geometry":{ "type": "Point", "coordinates": [-101.220891,48.513496]}},
{ "type": "Feature", "properties": {"Abercrombie city":"Glenfield city","North Dakota":"North Dakota","ND":"ND"},
"geometry":{ "type": "Point", "coordinates": [-98.566203,47.455072]}},
{ "type": "Feature", "properties": {"Abercrombie city":"Glen Ullin city","North Dakota":"North Dakota","ND":"ND"},
"geometry":{ "type": "Point", "coordinates": [-101.833498,46.811696]}},
{ "type": "Feature", "properties": {"Abercrombie city":"Golden Valley city","North Dakota":"North Dakota","ND":"ND"},
"geometry":{ "type": "Point", "coordinates": [-102.0653,47.290264]}},
{ "type": "Feature", "properties": {"Abercrombie city":"Golva city","North Dakota":"North Dakota","ND":"ND"},
"geometry":{ "type": "Point", "coordinates": [-103.982313,46.734569]}},
{ "type": "Feature", "properties": {"Abercrombie city":"Goodrich city","North Dakota":"North Dakota","ND":"ND"},
"geometry":{ "type": "Point", "coordinates": [-100.124798,47.47622]}},
{ "type": "Feature", "properties": {"Abercrombie city":"Grace City city","North Dakota":"North Dakota","ND":"ND"},
"geometry":{ "type": "Point", "coordinates": [-98.80387,47.551304]}},
{ "type": "Feature", "properties": {"Abercrombie city":"Grafton city","North Dakota":"North Dakota","ND":"ND"},
"geometry":{ "type": "Point", "coordinates": [-97.406164,48.41391]}},
{ "type": "Feature", "properties": {"Abercrombie city":"Grand Forks city","North Dakota":"North Dakota","ND":"ND"},
"geometry":{ "type": "Point", "coordinates": [-97.08933,47.921291]}},
{ "type": "Feature", "properties": {"Abercrombie city":"Grand Forks AFB CDP","North Dakota":"North Dakota","ND":"ND"},
"geometry":{ "type": "Point", "coordinates": [-97.39128,47.95568]}},
{ "type": "Feature", "properties": {"Abercrombie city":"Grandin city","North Dakota":"North Dakota","ND":"ND"},
"geometry":{ "type": "Point", "coordinates": [-97.003219,47.236719]}},
{ "type": "Feature", "properties": {"Abercrombie city":"Grano city","North Dakota":"North Dakota","ND":"ND"},
"geometry":{ "type": "Point", "coordinates": [-101.589171,48.61532]}},
{ "type": "Feature", "properties": {"Abercrombie city":"Granville city","North Dakota":"North Dakota","ND":"ND"},
"geometry":{ "type": "Point", "coordinates": [-100.844663,48.266588]}},
{ "type": "Feature", "properties": {"Abercrombie city":"Great Bend city","North Dakota":"North Dakota","ND":"ND"},
"geometry":{ "type": "Point", "coordinates": [-96.800995,46.154638]}},
{ "type": "Feature", "properties": {"Abercrombie city":"Green Acres CDP","North Dakota":"North Dakota","ND":"ND"},
"geometry":{ "type": "Point", "coordinates": [-99.690092,48.838132]}},
{ "type": "Feature", "properties": {"Abercrombie city":"Grenora city","North Dakota":"North Dakota","ND":"ND"},
"geometry":{ "type": "Point", "coordinates": [-103.936673,48.61988]}},
{ "type": "Feature", "properties": {"Abercrombie city":"Gwinner city","North Dakota":"North Dakota","ND":"ND"},
"geometry":{ "type": "Point", "coordinates": [-97.656093,46.231045]}},
{ "type": "Feature", "properties": {"Abercrombie city":"Hague city","North Dakota":"North Dakota","ND":"ND"},
"geometry":{ "type": "Point", "coordinates": [-99.999106,46.028891]}},
{ "type": "Feature", "properties": {"Abercrombie city":"Halliday city","North Dakota":"North Dakota","ND":"ND"},
"geometry":{ "type": "Point", "coordinates": [-102.338829,47.352023]}},
{ "type": "Feature", "properties": {"Abercrombie city":"Hamberg city","North Dakota":"North Dakota","ND":"ND"},
"geometry":{ "type": "Point", "coordinates": [-99.515963,47.763346]}},
{ "type": "Feature", "properties": {"Abercrombie city":"Hamilton city","North Dakota":"North Dakota","ND":"ND"},
"geometry":{ "type": "Point", "coordinates": [-97.451735,48.807982]}},
{ "type": "Feature", "properties": {"Abercrombie city":"Hampden city","North Dakota":"North Dakota","ND":"ND"},
"geometry":{ "type": "Point", "coordinates": [-98.654317,48.539598]}},
{ "type": "Feature", "properties": {"Abercrombie city":"Hankinson city","North Dakota":"North Dakota","ND":"ND"},
"geometry":{ "type": "Point", "coordinates": [-96.891008,46.073987]}},
{ "type": "Feature", "properties": {"Abercrombie city":"Hannaford city","North Dakota":"North Dakota","ND":"ND"},
"geometry":{ "type": "Point", "coordinates": [-98.188941,47.314181]}},
{ "type": "Feature", "properties": {"Abercrombie city":"Hannah city","North Dakota":"North Dakota","ND":"ND"},
"geometry":{ "type": "Point", "coordinates": [-98.690294,48.972884]}},
{ "type": "Feature", "properties": {"Abercrombie city":"Hansboro city","North Dakota":"North Dakota","ND":"ND"},
"geometry":{ "type": "Point", "coordinates": [-99.380239,48.952448]}},
{ "type": "Feature", "properties": {"Abercrombie city":"Harmon CDP","North Dakota":"North Dakota","ND":"ND"},
"geometry":{ "type": "Point", "coordinates": [-100.956967,46.954361]}},
{ "type": "Feature", "properties": {"Abercrombie city":"Harvey city","North Dakota":"North Dakota","ND":"ND"},
"geometry":{ "type": "Point", "coordinates": [-99.930691,47.778228]}},
{ "type": "Feature", "properties": {"Abercrombie city":"Harwood city","North Dakota":"North Dakota","ND":"ND"},
"geometry":{ "type": "Point", "coordinates": [-96.881035,46.977008]}},
{ "type": "Feature", "properties": {"Abercrombie city":"Hatton city","North Dakota":"North Dakota","ND":"ND"},
"geometry":{ "type": "Point", "coordinates": [-97.458289,47.636967]}},
{ "type": "Feature", "properties": {"Abercrombie city":"Havana city","North Dakota":"North Dakota","ND":"ND"},
"geometry":{ "type": "Point", "coordinates": [-97.618496,45.954234]}},
{ "type": "Feature", "properties": {"Abercrombie city":"Haynes city","North Dakota":"North Dakota","ND":"ND"},
"geometry":{ "type": "Point", "coordinates": [-102.471008,45.973911]}},
{ "type": "Feature", "properties": {"Abercrombie city":"Hazelton city","North Dakota":"North Dakota","ND":"ND"},
"geometry":{ "type": "Point", "coordinates": [-100.281089,46.485724]}},
{ "type": "Feature", "properties": {"Abercrombie city":"Hazen city","North Dakota":"North Dakota","ND":"ND"},
"geometry":{ "type": "Point", "coordinates": [-101.624823,47.298417]}},
{ "type": "Feature", "properties": {"Abercrombie city":"Hebron city","North Dakota":"North Dakota","ND":"ND"},
"geometry":{ "type": "Point", "coordinates": [-102.0447,46.902416]}},
{ "type": "Feature", "properties": {"Abercrombie city":"Heil CDP","North Dakota":"North Dakota","ND":"ND"},
"geometry":{ "type": "Point", "coordinates": [-101.701151,46.389194]}},
{ "type": "Feature", "properties": {"Abercrombie city":"Heimdal CDP","North Dakota":"North Dakota","ND":"ND"},
"geometry":{ "type": "Point", "coordinates": [-99.652695,47.792654]}},
{ "type": "Feature", "properties": {"Abercrombie city":"Hettinger city","North Dakota":"North Dakota","ND":"ND"},
"geometry":{ "type": "Point", "coordinates": [-102.634613,46.003521]}},
{ "type": "Feature", "properties": {"Abercrombie city":"Hillsboro city","North Dakota":"North Dakota","ND":"ND"},
"geometry":{ "type": "Point", "coordinates": [-97.063463,47.402972]}},
{ "type": "Feature", "properties": {"Abercrombie city":"Hoople city","North Dakota":"North Dakota","ND":"ND"},
"geometry":{ "type": "Point", "coordinates": [-97.638868,48.535789]}},
{ "type": "Feature", "properties": {"Abercrombie city":"Hope city","North Dakota":"North Dakota","ND":"ND"},
"geometry":{ "type": "Point", "coordinates": [-97.719203,47.324377]}},
{ "type": "Feature", "properties": {"Abercrombie city":"Horace city","North Dakota":"North Dakota","ND":"ND"},
"geometry":{ "type": "Point", "coordinates": [-96.909918,46.755313]}},
{ "type": "Feature", "properties": {"Abercrombie city":"Hunter city","North Dakota":"North Dakota","ND":"ND"},
"geometry":{ "type": "Point", "coordinates": [-97.213811,47.190113]}},
{ "type": "Feature", "properties": {"Abercrombie city":"Hurdsfield city","North Dakota":"North Dakota","ND":"ND"},
"geometry":{ "type": "Point", "coordinates": [-99.930386,47.447183]}},
{ "type": "Feature", "properties": {"Abercrombie city":"Inkster city","North Dakota":"North Dakota","ND":"ND"},
"geometry":{ "type": "Point", "coordinates": [-97.64415,48.151251]}},
{ "type": "Feature", "properties": {"Abercrombie city":"Jamestown city","North Dakota":"North Dakota","ND":"ND"},
"geometry":{ "type": "Point", "coordinates": [-98.693579,46.905851]}},
{ "type": "Feature", "properties": {"Abercrombie city":"Jessie CDP","North Dakota":"North Dakota","ND":"ND"},
"geometry":{ "type": "Point", "coordinates": [-98.229147,47.54019]}},
{ "type": "Feature", "properties": {"Abercrombie city":"Jud city","North Dakota":"North Dakota","ND":"ND"},
"geometry":{ "type": "Point", "coordinates": [-98.897552,46.525772]}},
{ "type": "Feature", "properties": {"Abercrombie city":"Karlsruhe city","North Dakota":"North Dakota","ND":"ND"},
"geometry":{ "type": "Point", "coordinates": [-100.616207,48.091045]}},
{ "type": "Feature", "properties": {"Abercrombie city":"Kathryn city","North Dakota":"North Dakota","ND":"ND"},
"geometry":{ "type": "Point", "coordinates": [-97.970358,46.681174]}},
{ "type": "Feature", "properties": {"Abercrombie city":"Kenmare city","North Dakota":"North Dakota","ND":"ND"},
"geometry":{ "type": "Point", "coordinates": [-102.07203,48.672812]}},
{ "type": "Feature", "properties": {"Abercrombie city":"Kensal city","North Dakota":"North Dakota","ND":"ND"},
"geometry":{ "type": "Point", "coordinates": [-98.732106,47.300033]}},
{ "type": "Feature", "properties": {"Abercrombie city":"Kief city","North Dakota":"North Dakota","ND":"ND"},
"geometry":{ "type": "Point", "coordinates": [-100.514172,47.858986]}},
{ "type": "Feature", "properties": {"Abercrombie city":"Killdeer city","North Dakota":"North Dakota","ND":"ND"},
"geometry":{ "type": "Point", "coordinates": [-102.746201,47.368751]}},
{ "type": "Feature", "properties": {"Abercrombie city":"Kindred city","North Dakota":"North Dakota","ND":"ND"},
"geometry":{ "type": "Point", "coordinates": [-97.01694,46.649379]}},
{ "type": "Feature", "properties": {"Abercrombie city":"Knox city","North Dakota":"North Dakota","ND":"ND"},
"geometry":{ "type": "Point", "coordinates": [-99.691112,48.343948]}},
{ "type": "Feature", "properties": {"Abercrombie city":"Kramer city","North Dakota":"North Dakota","ND":"ND"},
"geometry":{ "type": "Point", "coordinates": [-100.70765,48.691031]}},
{ "type": "Feature", "properties": {"Abercrombie city":"Kulm city","North Dakota":"North Dakota","ND":"ND"},
"geometry":{ "type": "Point", "coordinates": [-98.946607,46.301947]}},
{ "type": "Feature", "properties": {"Abercrombie city":"Lakota city","North Dakota":"North Dakota","ND":"ND"},
"geometry":{ "type": "Point", "coordinates": [-98.346767,48.042868]}},
{ "type": "Feature", "properties": {"Abercrombie city":"LaMoure city","North Dakota":"North Dakota","ND":"ND"},
"geometry":{ "type": "Point", "coordinates": [-98.296541,46.357417]}},
{ "type": "Feature", "properties": {"Abercrombie city":"Landa city","North Dakota":"North Dakota","ND":"ND"},
"geometry":{ "type": "Point", "coordinates": [-100.911987,48.895855]}},
{ "type": "Feature", "properties": {"Abercrombie city":"Langdon city","North Dakota":"North Dakota","ND":"ND"},
"geometry":{ "type": "Point", "coordinates": [-98.375265,48.762209]}},
{ "type": "Feature", "properties": {"Abercrombie city":"Lankin city","North Dakota":"North Dakota","ND":"ND"},
"geometry":{ "type": "Point", "coordinates": [-97.920258,48.31467]}},
{ "type": "Feature", "properties": {"Abercrombie city":"Lansford city","North Dakota":"North Dakota","ND":"ND"},
"geometry":{ "type": "Point", "coordinates": [-101.375891,48.626952]}},
{ "type": "Feature", "properties": {"Abercrombie city":"Larimore city","North Dakota":"North Dakota","ND":"ND"},
"geometry":{ "type": "Point", "coordinates": [-97.627004,47.909065]}},
{ "type": "Feature", "properties": {"Abercrombie city":"Larson CDP","North Dakota":"North Dakota","ND":"ND"},
"geometry":{ "type": "Point", "coordinates": [-102.862564,48.891574]}},
{ "type": "Feature", "properties": {"Abercrombie city":"Lawton city","North Dakota":"North Dakota","ND":"ND"},
"geometry":{ "type": "Point", "coordinates": [-98.367869,48.303341]}},
{ "type": "Feature", "properties": {"Abercrombie city":"Leal city","North Dakota":"North Dakota","ND":"ND"},
"geometry":{ "type": "Point", "coordinates": [-98.315527,47.104916]}},
{ "type": "Feature", "properties": {"Abercrombie city":"Leeds city","North Dakota":"North Dakota","ND":"ND"},
"geometry":{ "type": "Point", "coordinates": [-99.434292,48.287207]}},
{ "type": "Feature", "properties": {"Abercrombie city":"Lehr city","North Dakota":"North Dakota","ND":"ND"},
"geometry":{ "type": "Point", "coordinates": [-99.352929,46.282395]}},
{ "type": "Feature", "properties": {"Abercrombie city":"Leith city","North Dakota":"North Dakota","ND":"ND"},
"geometry":{ "type": "Point", "coordinates": [-101.641415,46.364925]}},
{ "type": "Feature", "properties": {"Abercrombie city":"Leonard city","North Dakota":"North Dakota","ND":"ND"},
"geometry":{ "type": "Point", "coordinates": [-97.249944,46.65229]}},
{ "type": "Feature", "properties": {"Abercrombie city":"Lidgerwood city","North Dakota":"North Dakota","ND":"ND"},
"geometry":{ "type": "Point", "coordinates": [-97.145111,46.073752]}},
{ "type": "Feature", "properties": {"Abercrombie city":"Lignite city","North Dakota":"North Dakota","ND":"ND"},
"geometry":{ "type": "Point", "coordinates": [-102.564428,48.877169]}},
{ "type": "Feature", "properties": {"Abercrombie city":"Lincoln city","North Dakota":"North Dakota","ND":"ND"},
"geometry":{ "type": "Point", "coordinates": [-100.697738,46.768934]}},
{ "type": "Feature", "properties": {"Abercrombie city":"Linton city","North Dakota":"North Dakota","ND":"ND"},
"geometry":{ "type": "Point", "coordinates": [-100.232894,46.268675]}},
{ "type": "Feature", "properties": {"Abercrombie city":"Lisbon city","North Dakota":"North Dakota","ND":"ND"},
"geometry":{ "type": "Point", "coordinates": [-97.684415,46.438986]}},
{ "type": "Feature", "properties": {"Abercrombie city":"Litchville city","North Dakota":"North Dakota","ND":"ND"},
"geometry":{ "type": "Point", "coordinates": [-98.191701,46.656563]}},
{ "type": "Feature", "properties": {"Abercrombie city":"Logan CDP","North Dakota":"North Dakota","ND":"ND"},
"geometry":{ "type": "Point", "coordinates": [-101.175557,48.15956]}},
{ "type": "Feature", "properties": {"Abercrombie city":"Loma city","North Dakota":"North Dakota","ND":"ND"},
"geometry":{ "type": "Point", "coordinates": [-98.525696,48.637732]}},
{ "type": "Feature", "properties": {"Abercrombie city":"Long Creek CDP","North Dakota":"North Dakota","ND":"ND"},
"geometry":{ "type": "Point", "coordinates": [-103.254588,48.100963]}},
{ "type": "Feature", "properties": {"Abercrombie city":"Loraine city","North Dakota":"North Dakota","ND":"ND"},
"geometry":{ "type": "Point", "coordinates": [-101.567889,48.868354]}},
{ "type": "Feature", "properties": {"Abercrombie city":"Ludden city","North Dakota":"North Dakota","ND":"ND"},
"geometry":{ "type": "Point", "coordinates": [-98.124794,46.00797]}},
{ "type": "Feature", "properties": {"Abercrombie city":"Luverne city","North Dakota":"North Dakota","ND":"ND"},
"geometry":{ "type": "Point", "coordinates": [-97.934817,47.251424]}},
{ "type": "Feature", "properties": {"Abercrombie city":"McClusky city","North Dakota":"North Dakota","ND":"ND"},
"geometry":{ "type": "Point", "coordinates": [-100.442533,47.483989]}},
{ "type": "Feature", "properties": {"Abercrombie city":"McGregor CDP","North Dakota":"North Dakota","ND":"ND"},
"geometry":{ "type": "Point", "coordinates": [-102.92801,48.595563]}},
{ "type": "Feature", "properties": {"Abercrombie city":"McHenry city","North Dakota":"North Dakota","ND":"ND"},
"geometry":{ "type": "Point", "coordinates": [-98.590996,47.576405]}},
{ "type": "Feature", "properties": {"Abercrombie city":"McLeod CDP","North Dakota":"North Dakota","ND":"ND"},
"geometry":{ "type": "Point", "coordinates": [-97.298694,46.388675]}},
{ "type": "Feature", "properties": {"Abercrombie city":"McVille city","North Dakota":"North Dakota","ND":"ND"},
"geometry":{ "type": "Point", "coordinates": [-98.175442,47.765116]}},
{ "type": "Feature", "properties": {"Abercrombie city":"Maddock city","North Dakota":"North Dakota","ND":"ND"},
"geometry":{ "type": "Point", "coordinates": [-99.529294,47.962387]}},
{ "type": "Feature", "properties": {"Abercrombie city":"Makoti city","North Dakota":"North Dakota","ND":"ND"},
"geometry":{ "type": "Point", "coordinates": [-101.802908,47.96333]}},
{ "type": "Feature", "properties": {"Abercrombie city":"Mandan city","North Dakota":"North Dakota","ND":"ND"},
"geometry":{ "type": "Point", "coordinates": [-100.88706,46.829484]}},
{ "type": "Feature", "properties": {"Abercrombie city":"Mandaree CDP","North Dakota":"North Dakota","ND":"ND"},
"geometry":{ "type": "Point", "coordinates": [-102.697469,47.74504]}},
{ "type": "Feature", "properties": {"Abercrombie city":"Manning CDP","North Dakota":"North Dakota","ND":"ND"},
"geometry":{ "type": "Point", "coordinates": [-102.770375,47.231035]}},
{ "type": "Feature", "properties": {"Abercrombie city":"Mantador city","North Dakota":"North Dakota","ND":"ND"},
"geometry":{ "type": "Point", "coordinates": [-96.977851,46.165495]}},
{ "type": "Feature", "properties": {"Abercrombie city":"Manvel city","North Dakota":"North Dakota","ND":"ND"},
"geometry":{ "type": "Point", "coordinates": [-97.177929,48.072782]}},
{ "type": "Feature", "properties": {"Abercrombie city":"Mapleton city","North Dakota":"North Dakota","ND":"ND"},
"geometry":{ "type": "Point", "coordinates": [-97.053257,46.891531]}},
{ "type": "Feature", "properties": {"Abercrombie city":"Marion city","North Dakota":"North Dakota","ND":"ND"},
"geometry":{ "type": "Point", "coordinates": [-98.338706,46.611226]}},
{ "type": "Feature", "properties": {"Abercrombie city":"Marmarth city","North Dakota":"North Dakota","ND":"ND"},
"geometry":{ "type": "Point", "coordinates": [-103.934594,46.301219]}},
{ "type": "Feature", "properties": {"Abercrombie city":"Martin city","North Dakota":"North Dakota","ND":"ND"},
"geometry":{ "type": "Point", "coordinates": [-100.115302,47.82677]}},
{ "type": "Feature", "properties": {"Abercrombie city":"Max city","North Dakota":"North Dakota","ND":"ND"},
"geometry":{ "type": "Point", "coordinates": [-101.291106,47.82042]}},
{ "type": "Feature", "properties": {"Abercrombie city":"Maxbass city","North Dakota":"North Dakota","ND":"ND"},
"geometry":{ "type": "Point", "coordinates": [-101.142365,48.722447]}},
{ "type": "Feature", "properties": {"Abercrombie city":"Mayville city","North Dakota":"North Dakota","ND":"ND"},
"geometry":{ "type": "Point", "coordinates": [-97.326354,47.498184]}},
{ "type": "Feature", "properties": {"Abercrombie city":"Medina city","North Dakota":"North Dakota","ND":"ND"},
"geometry":{ "type": "Point", "coordinates": [-99.299885,46.89384]}},
{ "type": "Feature", "properties": {"Abercrombie city":"Medora city","North Dakota":"North Dakota","ND":"ND"},
"geometry":{ "type": "Point", "coordinates": [-103.526517,46.911261]}},
{ "type": "Feature", "properties": {"Abercrombie city":"Menoken CDP","North Dakota":"North Dakota","ND":"ND"},
"geometry":{ "type": "Point", "coordinates": [-100.530479,46.81442]}},
{ "type": "Feature", "properties": {"Abercrombie city":"Mercer city","North Dakota":"North Dakota","ND":"ND"},
"geometry":{ "type": "Point", "coordinates": [-100.71114,47.490606]}},
{ "type": "Feature", "properties": {"Abercrombie city":"Michigan City city","North Dakota":"North Dakota","ND":"ND"},
"geometry":{ "type": "Point", "coordinates": [-98.12012,48.02442]}},
{ "type": "Feature", "properties": {"Abercrombie city":"Milnor city","North Dakota":"North Dakota","ND":"ND"},
"geometry":{ "type": "Point", "coordinates": [-97.455237,46.260673]}},
{ "type": "Feature", "properties": {"Abercrombie city":"Milton city","North Dakota":"North Dakota","ND":"ND"},
"geometry":{ "type": "Point", "coordinates": [-98.045964,48.626006]}},
{ "type": "Feature", "properties": {"Abercrombie city":"Minnewaukan city","North Dakota":"North Dakota","ND":"ND"},
"geometry":{ "type": "Point", "coordinates": [-99.253831,48.071697]}},
{ "type": "Feature", "properties": {"Abercrombie city":"Minot city","North Dakota":"North Dakota","ND":"ND"},
"geometry":{ "type": "Point", "coordinates": [-101.277533,48.236125]}},
{ "type": "Feature", "properties": {"Abercrombie city":"Minot AFB CDP","North Dakota":"North Dakota","ND":"ND"},
"geometry":{ "type": "Point", "coordinates": [-101.336503,48.419002]}},
{ "type": "Feature", "properties": {"Abercrombie city":"Minto city","North Dakota":"North Dakota","ND":"ND"},
"geometry":{ "type": "Point", "coordinates": [-97.373046,48.29241]}},
{ "type": "Feature", "properties": {"Abercrombie city":"Mohall city","North Dakota":"North Dakota","ND":"ND"},
"geometry":{ "type": "Point", "coordinates": [-101.516979,48.76611]}},
{ "type": "Feature", "properties": {"Abercrombie city":"Monango city","North Dakota":"North Dakota","ND":"ND"},
"geometry":{ "type": "Point", "coordinates": [-98.595175,46.173406]}},
{ "type": "Feature", "properties": {"Abercrombie city":"Montpelier city","North Dakota":"North Dakota","ND":"ND"},
"geometry":{ "type": "Point", "coordinates": [-98.588464,46.698966]}},
{ "type": "Feature", "properties": {"Abercrombie city":"Mooreton city","North Dakota":"North Dakota","ND":"ND"},
"geometry":{ "type": "Point", "coordinates": [-96.875777,46.268931]}},
{ "type": "Feature", "properties": {"Abercrombie city":"Mott city","North Dakota":"North Dakota","ND":"ND"},
"geometry":{ "type": "Point", "coordinates": [-102.318897,46.374402]}},
{ "type": "Feature", "properties": {"Abercrombie city":"Mountain city","North Dakota":"North Dakota","ND":"ND"},
"geometry":{ "type": "Point", "coordinates": [-97.864807,48.684305]}},
{ "type": "Feature", "properties": {"Abercrombie city":"Munich city","North Dakota":"North Dakota","ND":"ND"},
"geometry":{ "type": "Point", "coordinates": [-98.838749,48.673375]}},
{ "type": "Feature", "properties": {"Abercrombie city":"Mylo city","North Dakota":"North Dakota","ND":"ND"},
"geometry":{ "type": "Point", "coordinates": [-99.617921,48.635841]}},
{ "type": "Feature", "properties": {"Abercrombie city":"Napoleon city","North Dakota":"North Dakota","ND":"ND"},
"geometry":{ "type": "Point", "coordinates": [-99.768332,46.503929]}},
{ "type": "Feature", "properties": {"Abercrombie city":"Nash CDP","North Dakota":"North Dakota","ND":"ND"},
"geometry":{ "type": "Point", "coordinates": [-97.524453,48.477824]}},
{ "type": "Feature", "properties": {"Abercrombie city":"Neche city","North Dakota":"North Dakota","ND":"ND"},
"geometry":{ "type": "Point", "coordinates": [-97.551699,48.983043]}},
{ "type": "Feature", "properties": {"Abercrombie city":"Nekoma city","North Dakota":"North Dakota","ND":"ND"},
"geometry":{ "type": "Point", "coordinates": [-98.376132,48.578209]}},
{ "type": "Feature", "properties": {"Abercrombie city":"Newburg city","North Dakota":"North Dakota","ND":"ND"},
"geometry":{ "type": "Point", "coordinates": [-100.91264,48.713878]}},
{ "type": "Feature", "properties": {"Abercrombie city":"New England city","North Dakota":"North Dakota","ND":"ND"},
"geometry":{ "type": "Point", "coordinates": [-102.866962,46.540817]}},
{ "type": "Feature", "properties": {"Abercrombie city":"New Leipzig city","North Dakota":"North Dakota","ND":"ND"},
"geometry":{ "type": "Point", "coordinates": [-101.951599,46.375768]}},
{ "type": "Feature", "properties": {"Abercrombie city":"New Rockford city","North Dakota":"North Dakota","ND":"ND"},
"geometry":{ "type": "Point", "coordinates": [-99.137698,47.679617]}},
{ "type": "Feature", "properties": {"Abercrombie city":"New Salem city","North Dakota":"North Dakota","ND":"ND"},
"geometry":{ "type": "Point", "coordinates": [-101.417941,46.84305]}},
{ "type": "Feature", "properties": {"Abercrombie city":"New Town city","North Dakota":"North Dakota","ND":"ND"},
"geometry":{ "type": "Point", "coordinates": [-102.488305,47.989075]}},
{ "type": "Feature", "properties": {"Abercrombie city":"Niagara city","North Dakota":"North Dakota","ND":"ND"},
"geometry":{ "type": "Point", "coordinates": [-97.876993,48.001008]}},
{ "type": "Feature", "properties": {"Abercrombie city":"Nome city","North Dakota":"North Dakota","ND":"ND"},
"geometry":{ "type": "Point", "coordinates": [-97.816255,46.675796]}},
{ "type": "Feature", "properties": {"Abercrombie city":"Noonan city","North Dakota":"North Dakota","ND":"ND"},
"geometry":{ "type": "Point", "coordinates": [-103.010287,48.890332]}},
{ "type": "Feature", "properties": {"Abercrombie city":"North River city","North Dakota":"North Dakota","ND":"ND"},
"geometry":{ "type": "Point", "coordinates": [-96.803335,46.95048]}},
{ "type": "Feature", "properties": {"Abercrombie city":"Northwood city","North Dakota":"North Dakota","ND":"ND"},
"geometry":{ "type": "Point", "coordinates": [-97.565226,47.731424]}},
{ "type": "Feature", "properties": {"Abercrombie city":"Oakes city","North Dakota":"North Dakota","ND":"ND"},
"geometry":{ "type": "Point", "coordinates": [-98.087123,46.139704]}},
{ "type": "Feature", "properties": {"Abercrombie city":"Oberon city","North Dakota":"North Dakota","ND":"ND"},
"geometry":{ "type": "Point", "coordinates": [-99.205611,47.923886]}},
{ "type": "Feature", "properties": {"Abercrombie city":"Oriska city","North Dakota":"North Dakota","ND":"ND"},
"geometry":{ "type": "Point", "coordinates": [-97.790539,46.931117]}},
{ "type": "Feature", "properties": {"Abercrombie city":"Orrin CDP","North Dakota":"North Dakota","ND":"ND"},
"geometry":{ "type": "Point", "coordinates": [-100.167109,48.090938]}},
{ "type": "Feature", "properties": {"Abercrombie city":"Osnabrock city","North Dakota":"North Dakota","ND":"ND"},
"geometry":{ "type": "Point", "coordinates": [-98.149397,48.670163]}},
{ "type": "Feature", "properties": {"Abercrombie city":"Overly city","North Dakota":"North Dakota","ND":"ND"},
"geometry":{ "type": "Point", "coordinates": [-100.15102,48.681139]}},
{ "type": "Feature", "properties": {"Abercrombie city":"Oxbow city","North Dakota":"North Dakota","ND":"ND"},
"geometry":{ "type": "Point", "coordinates": [-96.820793,46.6647]}},
{ "type": "Feature", "properties": {"Abercrombie city":"Page city","North Dakota":"North Dakota","ND":"ND"},
"geometry":{ "type": "Point", "coordinates": [-97.568131,47.15919]}},
{ "type": "Feature", "properties": {"Abercrombie city":"Palermo city","North Dakota":"North Dakota","ND":"ND"},
"geometry":{ "type": "Point", "coordinates": [-102.228928,48.338395]}},
{ "type": "Feature", "properties": {"Abercrombie city":"Park River city","North Dakota":"North Dakota","ND":"ND"},
"geometry":{ "type": "Point", "coordinates": [-97.742678,48.391059]}},
{ "type": "Feature", "properties": {"Abercrombie city":"Parshall city","North Dakota":"North Dakota","ND":"ND"},
"geometry":{ "type": "Point", "coordinates": [-102.133804,47.959506]}},
{ "type": "Feature", "properties": {"Abercrombie city":"Pekin city","North Dakota":"North Dakota","ND":"ND"},
"geometry":{ "type": "Point", "coordinates": [-98.32777,47.791911]}},
{ "type": "Feature", "properties": {"Abercrombie city":"Pembina city","North Dakota":"North Dakota","ND":"ND"},
"geometry":{ "type": "Point", "coordinates": [-97.246861,48.967087]}},
{ "type": "Feature", "properties": {"Abercrombie city":"Perth city","North Dakota":"North Dakota","ND":"ND"},
"geometry":{ "type": "Point", "coordinates": [-99.458124,48.714723]}},
{ "type": "Feature", "properties": {"Abercrombie city":"Petersburg city","North Dakota":"North Dakota","ND":"ND"},
"geometry":{ "type": "Point", "coordinates": [-98.000641,48.017504]}},
{ "type": "Feature", "properties": {"Abercrombie city":"Pettibone city","North Dakota":"North Dakota","ND":"ND"},
"geometry":{ "type": "Point", "coordinates": [-99.520816,47.117068]}},
{ "type": "Feature", "properties": {"Abercrombie city":"Pick City city","North Dakota":"North Dakota","ND":"ND"},
"geometry":{ "type": "Point", "coordinates": [-101.457304,47.511001]}},
{ "type": "Feature", "properties": {"Abercrombie city":"Pillsbury city","North Dakota":"North Dakota","ND":"ND"},
"geometry":{ "type": "Point", "coordinates": [-97.795691,47.207123]}},
{ "type": "Feature", "properties": {"Abercrombie city":"Pingree city","North Dakota":"North Dakota","ND":"ND"},
"geometry":{ "type": "Point", "coordinates": [-98.908563,47.163823]}},
{ "type": "Feature", "properties": {"Abercrombie city":"Pisek city","North Dakota":"North Dakota","ND":"ND"},
"geometry":{ "type": "Point", "coordinates": [-97.71028,48.310644]}},
{ "type": "Feature", "properties": {"Abercrombie city":"Plaza city","North Dakota":"North Dakota","ND":"ND"},
"geometry":{ "type": "Point", "coordinates": [-101.958725,48.026289]}},
{ "type": "Feature", "properties": {"Abercrombie city":"Porcupine CDP","North Dakota":"North Dakota","ND":"ND"},
"geometry":{ "type": "Point", "coordinates": [-101.100104,46.221838]}},
{ "type": "Feature", "properties": {"Abercrombie city":"Portal city","North Dakota":"North Dakota","ND":"ND"},
"geometry":{ "type": "Point", "coordinates": [-102.548395,48.994384]}},
{ "type": "Feature", "properties": {"Abercrombie city":"Portland city","North Dakota":"North Dakota","ND":"ND"},
"geometry":{ "type": "Point", "coordinates": [-97.369306,47.499511]}},
{ "type": "Feature", "properties": {"Abercrombie city":"Powers Lake city","North Dakota":"North Dakota","ND":"ND"},
"geometry":{ "type": "Point", "coordinates": [-102.645625,48.564022]}},
{ "type": "Feature", "properties": {"Abercrombie city":"Prairie Rose city","North Dakota":"North Dakota","ND":"ND"},
"geometry":{ "type": "Point", "coordinates": [-96.835395,46.817121]}},
{ "type": "Feature", "properties": {"Abercrombie city":"Raleigh CDP","North Dakota":"North Dakota","ND":"ND"},
"geometry":{ "type": "Point", "coordinates": [-101.305383,46.357143]}},
{ "type": "Feature", "properties": {"Abercrombie city":"Ray city","North Dakota":"North Dakota","ND":"ND"},
"geometry":{ "type": "Point", "coordinates": [-103.173266,48.33542]}},
{ "type": "Feature", "properties": {"Abercrombie city":"Reeder city","North Dakota":"North Dakota","ND":"ND"},
"geometry":{ "type": "Point", "coordinates": [-102.942164,46.105926]}},
{ "type": "Feature", "properties": {"Abercrombie city":"Regan city","North Dakota":"North Dakota","ND":"ND"},
"geometry":{ "type": "Point", "coordinates": [-100.527298,47.156794]}},
{ "type": "Feature", "properties": {"Abercrombie city":"Regent city","North Dakota":"North Dakota","ND":"ND"},
"geometry":{ "type": "Point", "coordinates": [-102.558052,46.422197]}},
{ "type": "Feature", "properties": {"Abercrombie city":"Reile's Acres city","North Dakota":"North Dakota","ND":"ND"},
"geometry":{ "type": "Point", "coordinates": [-96.866639,46.926964]}},
{ "type": "Feature", "properties": {"Abercrombie city":"Reynolds city","North Dakota":"North Dakota","ND":"ND"},
"geometry":{ "type": "Point", "coordinates": [-97.105968,47.668529]}},
{ "type": "Feature", "properties": {"Abercrombie city":"Rhame city","North Dakota":"North Dakota","ND":"ND"},
"geometry":{ "type": "Point", "coordinates": [-103.654982,46.234649]}},
{ "type": "Feature", "properties": {"Abercrombie city":"Richardton city","North Dakota":"North Dakota","ND":"ND"},
"geometry":{ "type": "Point", "coordinates": [-102.333163,46.884162]}},
{ "type": "Feature", "properties": {"Abercrombie city":"Riverdale city","North Dakota":"North Dakota","ND":"ND"},
"geometry":{ "type": "Point", "coordinates": [-101.367049,47.496757]}},
{ "type": "Feature", "properties": {"Abercrombie city":"Robinson city","North Dakota":"North Dakota","ND":"ND"},
"geometry":{ "type": "Point", "coordinates": [-99.781332,47.142062]}},
{ "type": "Feature", "properties": {"Abercrombie city":"Rocklake city","North Dakota":"North Dakota","ND":"ND"},
"geometry":{ "type": "Point", "coordinates": [-99.245898,48.79016]}},
{ "type": "Feature", "properties": {"Abercrombie city":"Rogers city","North Dakota":"North Dakota","ND":"ND"},
"geometry":{ "type": "Point", "coordinates": [-98.203127,47.074031]}},
{ "type": "Feature", "properties": {"Abercrombie city":"Rolette city","North Dakota":"North Dakota","ND":"ND"},
"geometry":{ "type": "Point", "coordinates": [-99.841675,48.660897]}},
{ "type": "Feature", "properties": {"Abercrombie city":"Rolla city","North Dakota":"North Dakota","ND":"ND"},
"geometry":{ "type": "Point", "coordinates": [-99.609353,48.843618]}},
{ "type": "Feature", "properties": {"Abercrombie city":"Ross city","North Dakota":"North Dakota","ND":"ND"},
"geometry":{ "type": "Point", "coordinates": [-102.543509,48.312775]}},
{ "type": "Feature", "properties": {"Abercrombie city":"Rugby city","North Dakota":"North Dakota","ND":"ND"},
"geometry":{ "type": "Point", "coordinates": [-99.990223,48.365422]}},
{ "type": "Feature", "properties": {"Abercrombie city":"Ruso city","North Dakota":"North Dakota","ND":"ND"},
"geometry":{ "type": "Point", "coordinates": [-100.934268,47.837332]}},
{ "type": "Feature", "properties": {"Abercrombie city":"Ruthville CDP","North Dakota":"North Dakota","ND":"ND"},
"geometry":{ "type": "Point", "coordinates": [-101.300234,48.370814]}},
{ "type": "Feature", "properties": {"Abercrombie city":"Rutland city","North Dakota":"North Dakota","ND":"ND"},
"geometry":{ "type": "Point", "coordinates": [-97.506801,46.054343]}},
{ "type": "Feature", "properties": {"Abercrombie city":"Ryder city","North Dakota":"North Dakota","ND":"ND"},
"geometry":{ "type": "Point", "coordinates": [-101.670433,47.921237]}},
{ "type": "Feature", "properties": {"Abercrombie city":"St. John city","North Dakota":"North Dakota","ND":"ND"},
"geometry":{ "type": "Point", "coordinates": [-99.713096,48.943766]}},
{ "type": "Feature", "properties": {"Abercrombie city":"St. Thomas city","North Dakota":"North Dakota","ND":"ND"},
"geometry":{ "type": "Point", "coordinates": [-97.447107,48.619236]}},
{ "type": "Feature", "properties": {"Abercrombie city":"Sanborn city","North Dakota":"North Dakota","ND":"ND"},
"geometry":{ "type": "Point", "coordinates": [-98.223812,46.942793]}},
{ "type": "Feature", "properties": {"Abercrombie city":"Sarles city","North Dakota":"North Dakota","ND":"ND"},
"geometry":{ "type": "Point", "coordinates": [-98.996881,48.944967]}},
{ "type": "Feature", "properties": {"Abercrombie city":"Sawyer city","North Dakota":"North Dakota","ND":"ND"},
"geometry":{ "type": "Point", "coordinates": [-101.053314,48.089458]}},
{ "type": "Feature", "properties": {"Abercrombie city":"Scranton city","North Dakota":"North Dakota","ND":"ND"},
"geometry":{ "type": "Point", "coordinates": [-103.142977,46.149479]}},
{ "type": "Feature", "properties": {"Abercrombie city":"Selfridge city","North Dakota":"North Dakota","ND":"ND"},
"geometry":{ "type": "Point", "coordinates": [-100.924357,46.041682]}},
{ "type": "Feature", "properties": {"Abercrombie city":"Selz CDP","North Dakota":"North Dakota","ND":"ND"},
"geometry":{ "type": "Point", "coordinates": [-99.893412,47.859404]}},
{ "type": "Feature", "properties": {"Abercrombie city":"Sentinel Butte city","North Dakota":"North Dakota","ND":"ND"},
"geometry":{ "type": "Point", "coordinates": [-103.84059,46.91944]}},
{ "type": "Feature", "properties": {"Abercrombie city":"Sharon city","North Dakota":"North Dakota","ND":"ND"},
"geometry":{ "type": "Point", "coordinates": [-97.898719,47.597181]}},
{ "type": "Feature", "properties": {"Abercrombie city":"Sheldon city","North Dakota":"North Dakota","ND":"ND"},
"geometry":{ "type": "Point", "coordinates": [-97.494382,46.588491]}},
{ "type": "Feature", "properties": {"Abercrombie city":"Shell Valley CDP","North Dakota":"North Dakota","ND":"ND"},
"geometry":{ "type": "Point", "coordinates": [-99.827101,48.808616]}},
{ "type": "Feature", "properties": {"Abercrombie city":"Sherwood city","North Dakota":"North Dakota","ND":"ND"},
"geometry":{ "type": "Point", "coordinates": [-101.632802,48.961867]}},
{ "type": "Feature", "properties": {"Abercrombie city":"Sheyenne city","North Dakota":"North Dakota","ND":"ND"},
"geometry":{ "type": "Point", "coordinates": [-99.116832,47.827287]}},
{ "type": "Feature", "properties": {"Abercrombie city":"Sibley city","North Dakota":"North Dakota","ND":"ND"},
"geometry":{ "type": "Point", "coordinates": [-97.965306,47.218602]}},
{ "type": "Feature", "properties": {"Abercrombie city":"Solen city","North Dakota":"North Dakota","ND":"ND"},
"geometry":{ "type": "Point", "coordinates": [-100.795647,46.387312]}},
{ "type": "Feature", "properties": {"Abercrombie city":"Souris city","North Dakota":"North Dakota","ND":"ND"},
"geometry":{ "type": "Point", "coordinates": [-100.682648,48.909959]}},
{ "type": "Feature", "properties": {"Abercrombie city":"South Heart city","North Dakota":"North Dakota","ND":"ND"},
"geometry":{ "type": "Point", "coordinates": [-102.990532,46.868131]}},
{ "type": "Feature", "properties": {"Abercrombie city":"Spiritwood CDP","North Dakota":"North Dakota","ND":"ND"},
"geometry":{ "type": "Point", "coordinates": [-98.493296,46.934282]}},
{ "type": "Feature", "properties": {"Abercrombie city":"Spiritwood Lake city","North Dakota":"North Dakota","ND":"ND"},
"geometry":{ "type": "Point", "coordinates": [-98.58595,47.079627]}},
{ "type": "Feature", "properties": {"Abercrombie city":"Springbrook city","North Dakota":"North Dakota","ND":"ND"},
"geometry":{ "type": "Point", "coordinates": [-103.461679,48.252114]}},
{ "type": "Feature", "properties": {"Abercrombie city":"Stanley city","North Dakota":"North Dakota","ND":"ND"},
"geometry":{ "type": "Point", "coordinates": [-102.397321,48.313784]}},
{ "type": "Feature", "properties": {"Abercrombie city":"Stanton city","North Dakota":"North Dakota","ND":"ND"},
"geometry":{ "type": "Point", "coordinates": [-101.381965,47.318483]}},
{ "type": "Feature", "properties": {"Abercrombie city":"Starkweather city","North Dakota":"North Dakota","ND":"ND"},
"geometry":{ "type": "Point", "coordinates": [-98.878441,48.452084]}},
{ "type": "Feature", "properties": {"Abercrombie city":"Steele city","North Dakota":"North Dakota","ND":"ND"},
"geometry":{ "type": "Point", "coordinates": [-99.918125,46.856801]}},
{ "type": "Feature", "properties": {"Abercrombie city":"Strasburg city","North Dakota":"North Dakota","ND":"ND"},
"geometry":{ "type": "Point", "coordinates": [-100.160756,46.133523]}},
{ "type": "Feature", "properties": {"Abercrombie city":"Streeter city","North Dakota":"North Dakota","ND":"ND"},
"geometry":{ "type": "Point", "coordinates": [-99.356818,46.657618]}},
{ "type": "Feature", "properties": {"Abercrombie city":"Surrey city","North Dakota":"North Dakota","ND":"ND"},
"geometry":{ "type": "Point", "coordinates": [-101.12833,48.242966]}},
{ "type": "Feature", "properties": {"Abercrombie city":"Sutton CDP","North Dakota":"North Dakota","ND":"ND"},
"geometry":{ "type": "Point", "coordinates": [-98.441035,47.403796]}},
{ "type": "Feature", "properties": {"Abercrombie city":"Sykeston city","North Dakota":"North Dakota","ND":"ND"},
"geometry":{ "type": "Point", "coordinates": [-99.399315,47.466071]}},
{ "type": "Feature", "properties": {"Abercrombie city":"Tappen city","North Dakota":"North Dakota","ND":"ND"},
"geometry":{ "type": "Point", "coordinates": [-99.627096,46.871603]}},
{ "type": "Feature", "properties": {"Abercrombie city":"Taylor city","North Dakota":"North Dakota","ND":"ND"},
"geometry":{ "type": "Point", "coordinates": [-102.422874,46.902205]}},
{ "type": "Feature", "properties": {"Abercrombie city":"Thompson city","North Dakota":"North Dakota","ND":"ND"},
"geometry":{ "type": "Point", "coordinates": [-97.104357,47.774612]}},
{ "type": "Feature", "properties": {"Abercrombie city":"Tioga city","North Dakota":"North Dakota","ND":"ND"},
"geometry":{ "type": "Point", "coordinates": [-102.94349,48.394617]}},
{ "type": "Feature", "properties": {"Abercrombie city":"Tolley city","North Dakota":"North Dakota","ND":"ND"},
"geometry":{ "type": "Point", "coordinates": [-101.827083,48.730301]}},
{ "type": "Feature", "properties": {"Abercrombie city":"Tolna city","North Dakota":"North Dakota","ND":"ND"},
"geometry":{ "type": "Point", "coordinates": [-98.438164,47.825699]}},
{ "type": "Feature", "properties": {"Abercrombie city":"Tower City city","North Dakota":"North Dakota","ND":"ND"},
"geometry":{ "type": "Point", "coordinates": [-97.676035,46.926308]}},
{ "type": "Feature", "properties": {"Abercrombie city":"Towner city","North Dakota":"North Dakota","ND":"ND"},
"geometry":{ "type": "Point", "coordinates": [-100.406984,48.34712]}},
{ "type": "Feature", "properties": {"Abercrombie city":"Trenton CDP","North Dakota":"North Dakota","ND":"ND"},
"geometry":{ "type": "Point", "coordinates": [-103.843153,48.069923]}},
{ "type": "Feature", "properties": {"Abercrombie city":"Turtle Lake city","North Dakota":"North Dakota","ND":"ND"},
"geometry":{ "type": "Point", "coordinates": [-100.890799,47.521482]}},
{ "type": "Feature", "properties": {"Abercrombie city":"Tuttle city","North Dakota":"North Dakota","ND":"ND"},
"geometry":{ "type": "Point", "coordinates": [-99.993404,47.144491]}},
{ "type": "Feature", "properties": {"Abercrombie city":"Underwood city","North Dakota":"North Dakota","ND":"ND"},
"geometry":{ "type": "Point", "coordinates": [-101.141217,47.456385]}},
{ "type": "Feature", "properties": {"Abercrombie city":"Upham city","North Dakota":"North Dakota","ND":"ND"},
"geometry":{ "type": "Point", "coordinates": [-100.728432,48.58155]}},
{ "type": "Feature", "properties": {"Abercrombie city":"Valley City city","North Dakota":"North Dakota","ND":"ND"},
"geometry":{ "type": "Point", "coordinates": [-98.006702,46.921799]}},
{ "type": "Feature", "properties": {"Abercrombie city":"Velva city","North Dakota":"North Dakota","ND":"ND"},
"geometry":{ "type": "Point", "coordinates": [-100.932887,48.058193]}},
{ "type": "Feature", "properties": {"Abercrombie city":"Venturia city","North Dakota":"North Dakota","ND":"ND"},
"geometry":{ "type": "Point", "coordinates": [-99.548331,45.996856]}},
{ "type": "Feature", "properties": {"Abercrombie city":"Verona city","North Dakota":"North Dakota","ND":"ND"},
"geometry":{ "type": "Point", "coordinates": [-98.07715,46.362629]}},
{ "type": "Feature", "properties": {"Abercrombie city":"Voltaire city","North Dakota":"North Dakota","ND":"ND"},
"geometry":{ "type": "Point", "coordinates": [-100.844006,48.018671]}},
{ "type": "Feature", "properties": {"Abercrombie city":"Wahpeton city","North Dakota":"North Dakota","ND":"ND"},
"geometry":{ "type": "Point", "coordinates": [-96.611934,46.272054]}},
{ "type": "Feature", "properties": {"Abercrombie city":"Walcott city","North Dakota":"North Dakota","ND":"ND"},
"geometry":{ "type": "Point", "coordinates": [-96.93755,46.550472]}},
{ "type": "Feature", "properties": {"Abercrombie city":"Wales city","North Dakota":"North Dakota","ND":"ND"},
"geometry":{ "type": "Point", "coordinates": [-98.599177,48.893432]}},
{ "type": "Feature", "properties": {"Abercrombie city":"Walhalla city","North Dakota":"North Dakota","ND":"ND"},
"geometry":{ "type": "Point", "coordinates": [-97.916991,48.92103]}},
{ "type": "Feature", "properties": {"Abercrombie city":"Warwick city","North Dakota":"North Dakota","ND":"ND"},
"geometry":{ "type": "Point", "coordinates": [-98.705875,47.853087]}},
{ "type": "Feature", "properties": {"Abercrombie city":"Washburn city","North Dakota":"North Dakota","ND":"ND"},
"geometry":{ "type": "Point", "coordinates": [-101.027796,47.294045]}},
{ "type": "Feature", "properties": {"Abercrombie city":"Watford City city","North Dakota":"North Dakota","ND":"ND"},
"geometry":{ "type": "Point", "coordinates": [-103.266731,47.801492]}},
{ "type": "Feature", "properties": {"Abercrombie city":"West Fargo city","North Dakota":"North Dakota","ND":"ND"},
"geometry":{ "type": "Point", "coordinates": [-96.904809,46.85638]}},
{ "type": "Feature", "properties": {"Abercrombie city":"Westhope city","North Dakota":"North Dakota","ND":"ND"},
"geometry":{ "type": "Point", "coordinates": [-101.01771,48.911176]}},
{ "type": "Feature", "properties": {"Abercrombie city":"Wheatland CDP","North Dakota":"North Dakota","ND":"ND"},
"geometry":{ "type": "Point", "coordinates": [-97.345483,46.904897]}},
{ "type": "Feature", "properties": {"Abercrombie city":"White Earth city","North Dakota":"North Dakota","ND":"ND"},
"geometry":{ "type": "Point", "coordinates": [-102.771755,48.379868]}},
{ "type": "Feature", "properties": {"Abercrombie city":"White Shield CDP","North Dakota":"North Dakota","ND":"ND"},
"geometry":{ "type": "Point", "coordinates": [-101.843561,47.660158]}},
{ "type": "Feature", "properties": {"Abercrombie city":"Wildrose city","North Dakota":"North Dakota","ND":"ND"},
"geometry":{ "type": "Point", "coordinates": [-103.183693,48.629953]}},
{ "type": "Feature", "properties": {"Abercrombie city":"Williston city","North Dakota":"North Dakota","ND":"ND"},
"geometry":{ "type": "Point", "coordinates": [-103.638126,48.180571]}},
{ "type": "Feature", "properties": {"Abercrombie city":"Willow City city","North Dakota":"North Dakota","ND":"ND"},
"geometry":{ "type": "Point", "coordinates": [-100.293311,48.604691]}},
{ "type": "Feature", "properties": {"Abercrombie city":"Wilton city","North Dakota":"North Dakota","ND":"ND"},
"geometry":{ "type": "Point", "coordinates": [-100.783985,47.157997]}},
{ "type": "Feature", "properties": {"Abercrombie city":"Wimbledon city","North Dakota":"North Dakota","ND":"ND"},
"geometry":{ "type": "Point", "coordinates": [-98.458629,47.169067]}},
{ "type": "Feature", "properties": {"Abercrombie city":"Wing city","North Dakota":"North Dakota","ND":"ND"},
"geometry":{ "type": "Point", "coordinates": [-100.282318,47.142266]}},
{ "type": "Feature", "properties": {"Abercrombie city":"Wishek city","North Dakota":"North Dakota","ND":"ND"},
"geometry":{ "type": "Point", "coordinates": [-99.554482,46.255615]}},
{ "type": "Feature", "properties": {"Abercrombie city":"Wolford city","North Dakota":"North Dakota","ND":"ND"},
"geometry":{ "type": "Point", "coordinates": [-99.703815,48.497483]}},
{ "type": "Feature", "properties": {"Abercrombie city":"Woodworth city","North Dakota":"North Dakota","ND":"ND"},
"geometry":{ "type": "Point", "coordinates": [-99.304151,47.142169]}},
{ "type": "Feature", "properties": {"Abercrombie city":"Wyndmere city","North Dakota":"North Dakota","ND":"ND"},
"geometry":{ "type": "Point", "coordinates": [-97.131182,46.264128]}},
{ "type": "Feature", "properties": {"Abercrombie city":"York city","North Dakota":"North Dakota","ND":"ND"},
"geometry":{ "type": "Point", "coordinates": [-99.573257,48.313243]}},
{ "type": "Feature", "properties": {"Abercrombie city":"Ypsilanti CDP","North Dakota":"North Dakota","ND":"ND"},
"geometry":{ "type": "Point", "coordinates": [-98.560988,46.783359]}},
{ "type": "Feature", "properties": {"Abercrombie city":"Zap city","North Dakota":"North Dakota","ND":"ND"},
"geometry":{ "type": "Point", "coordinates": [-101.923718,47.285093]}},
{ "type": "Feature", "properties": {"Abercrombie city":"Zeeland city","North Dakota":"North Dakota","ND":"ND"},
"geometry":{ "type": "Point", "coordinates": [-99.832442,45.972944]}}]}
