{"type":"FeatureCollection","features":[
{ "type": "Feature", "properties": {"Name":"Abercrombie city","State":"North Dakota","State_Abbrev":"ND"},
"geometry":{ "type": "Point", "coordinates": [-96.729525,46.447039]}},
{ "type": "Feature", "properties": {"Name":"Adams city","State":"North Dakota","State_Abbrev":"ND"},
"geometry":{ "type": "Point", "coordinates": [-98.073958,48.420545]}},
{ "type": "Feature", "properties": {"Name":"Alamo city","State":"North Dakota","State_Abbrev":"ND"},
"geometry":{ "type": "Point", "coordinates": [-103.467443,48.581977]}},
{ "type": "Feature", "properties": {"Name":"Alexander city","State":"North Dakota","State_Abbrev":"ND"},
"geometry":{ "type": "Point", "coordinates": [-103.643203,47.838058]}},
{ "type": "Feature", "properties": {"Name":"Alice city","State":"North Dakota","State_Abbrev":"ND"},
"geometry":{ "type": "Point", "coordinates": [-97.556248,46.760046]}},
{ "type": "Feature", "properties": {"Name":"Almont city","State":"North Dakota","State_Abbrev":"ND"},
"geometry":{ "type": "Point", "coordinates": [-101.502652,46.728335]}},
{ "type": "Feature", "properties": {"Name":"Alsen city","State":"North Dakota","State_Abbrev":"ND"},
"geometry":{ "type": "Point", "coordinates": [-98.704271,48.630456]}},
{ "type": "Feature", "properties": {"Name":"Ambrose city","State":"North Dakota","State_Abbrev":"ND"},
"geometry":{ "type": "Point", "coordinates": [-103.481255,48.955902]}},
{ "type": "Feature", "properties": {"Name":"Amenia city","State":"North Dakota","State_Abbrev":"ND"},
"geometry":{ "type": "Point", "coordinates": [-97.224104,47.006485]}},
{ "type": "Feature", "properties": {"Name":"Amidon city","State":"North Dakota","State_Abbrev":"ND"},
"geometry":{ "type": "Point", "coordinates": [-103.319601,46.482247]}},
{ "type": "Feature", "properties": {"Name":"Anamoose city","State":"North Dakota","State_Abbrev":"ND"},
"geometry":{ "type": "Point", "coordinates": [-100.24226,47.883068]}},
{ "type": "Feature", "properties": {"Name":"Aneta city","State":"North Dakota","State_Abbrev":"ND"},
"geometry":{ "type": "Point", "coordinates": [-97.988984,47.679719]}},
{ "type": "Feature", "properties": {"Name":"Antler city","State":"North Dakota","State_Abbrev":"ND"},
"geometry":{ "type": "Point", "coordinates": [-101.283164,48.971319]}},
{ "type": "Feature", "properties": {"Name":"Apple Valley CDP","State":"North Dakota","State_Abbrev":"ND"},
"geometry":{ "type": "Point", "coordinates": [-100.599484,46.820971]}},
{ "type": "Feature", "properties": {"Name":"Ardoch city","State":"North Dakota","State_Abbrev":"ND"},
"geometry":{ "type": "Point", "coordinates": [-97.338033,48.205446]}},
{ "type": "Feature", "properties": {"Name":"Argusville city","State":"North Dakota","State_Abbrev":"ND"},
"geometry":{ "type": "Point", "coordinates": [-96.943141,47.050068]}},
{ "type": "Feature", "properties": {"Name":"Arnegard city","State":"North Dakota","State_Abbrev":"ND"},
"geometry":{ "type": "Point", "coordinates": [-103.442573,47.806523]}},
{ "type": "Feature", "properties": {"Name":"Arthur city","State":"North Dakota","State_Abbrev":"ND"},
"geometry":{ "type": "Point", "coordinates": [-97.218355,47.104268]}},
{ "type": "Feature", "properties": {"Name":"Ashley city","State":"North Dakota","State_Abbrev":"ND"},
"geometry":{ "type": "Point", "coordinates": [-99.373677,46.034744]}},
{ "type": "Feature", "properties": {"Name":"Auburn CDP","State":"North Dakota","State_Abbrev":"ND"},
"geometry":{ "type": "Point", "coordinates": [-97.436844,48.506563]}},
{ "type": "Feature", "properties": {"Name":"Ayr city","State":"North Dakota","State_Abbrev":"ND"},
"geometry":{ "type": "Point", "coordinates": [-97.490932,47.041107]}},
{ "type": "Feature", "properties": {"Name":"Balfour city","State":"North Dakota","State_Abbrev":"ND"},
"geometry":{ "type": "Point", "coordinates": [-100.534257,47.950908]}},
{ "type": "Feature", "properties": {"Name":"Balta city","State":"North Dakota","State_Abbrev":"ND"},
"geometry":{ "type": "Point", "coordinates": [-100.036646,48.166169]}},
{ "type": "Feature", "properties": {"Name":"Bantry CDP","State":"North Dakota","State_Abbrev":"ND"},
"geometry":{ "type": "Point", "coordinates": [-100.614696,48.494254]}},
{ "type": "Feature", "properties": {"Name":"Barney city","State":"North Dakota","State_Abbrev":"ND"},
"geometry":{ "type": "Point", "coordinates": [-96.998834,46.265844]}},
{ "type": "Feature", "properties": {"Name":"Barton CDP","State":"North Dakota","State_Abbrev":"ND"},
"geometry":{ "type": "Point", "coordinates": [-100.173821,48.508788]}},
{ "type": "Feature", "properties": {"Name":"Bathgate city","State":"North Dakota","State_Abbrev":"ND"},
"geometry":{ "type": "Point", "coordinates": [-97.473862,48.880411]}},
{ "type": "Feature", "properties": {"Name":"Beach city","State":"North Dakota","State_Abbrev":"ND"},
"geometry":{ "type": "Point", "coordinates": [-104.005446,46.918747]}},
{ "type": "Feature", "properties": {"Name":"Belcourt CDP","State":"North Dakota","State_Abbrev":"ND"},
"geometry":{ "type": "Point", "coordinates": [-99.744164,48.842494]}},
{ "type": "Feature", "properties": {"Name":"Belfield city","State":"North Dakota","State_Abbrev":"ND"},
"geometry":{ "type": "Point", "coordinates": [-103.195481,46.886789]}},
{ "type": "Feature", "properties": {"Name":"Benedict city","State":"North Dakota","State_Abbrev":"ND"},
"geometry":{ "type": "Point", "coordinates": [-101.084323,47.830132]}},
{ "type": "Feature", "properties": {"Name":"Bergen city","State":"North Dakota","State_Abbrev":"ND"},
"geometry":{ "type": "Point", "coordinates": [-100.719893,48.003724]}},
{ "type": "Feature", "properties": {"Name":"Berlin city","State":"North Dakota","State_Abbrev":"ND"},
"geometry":{ "type": "Point", "coordinates": [-98.488447,46.378373]}},
{ "type": "Feature", "properties": {"Name":"Berthold city","State":"North Dakota","State_Abbrev":"ND"},
"geometry":{ "type": "Point", "coordinates": [-101.759023,48.314136]}},
{ "type": "Feature", "properties": {"Name":"Beulah city","State":"North Dakota","State_Abbrev":"ND"},
"geometry":{ "type": "Point", "coordinates": [-101.770684,47.266826]}},
{ "type": "Feature", "properties": {"Name":"Binford city","State":"North Dakota","State_Abbrev":"ND"},
"geometry":{ "type": "Point", "coordinates": [-98.345628,47.560424]}},
{ "type": "Feature", "properties": {"Name":"Bisbee city","State":"North Dakota","State_Abbrev":"ND"},
"geometry":{ "type": "Point", "coordinates": [-99.378773,48.62721]}},
{ "type": "Feature", "properties": {"Name":"Bismarck city","State":"North Dakota","State_Abbrev":"ND"},
"geometry":{ "type": "Point", "coordinates": [-100.770089,46.814583]}},
{ "type": "Feature", "properties": {"Name":"Blacktail CDP","State":"North Dakota","State_Abbrev":"ND"},
"geometry":{ "type": "Point", "coordinates": [-103.73969,48.432108]}},
{ "type": "Feature", "properties": {"Name":"Blanchard CDP","State":"North Dakota","State_Abbrev":"ND"},
"geometry":{ "type": "Point", "coordinates": [-97.223124,47.343084]}},
{ "type": "Feature", "properties": {"Name":"Bottineau city","State":"North Dakota","State_Abbrev":"ND"},
"geometry":{ "type": "Point", "coordinates": [-100.442522,48.824799]}},
{ "type": "Feature", "properties": {"Name":"Bowbells city","State":"North Dakota","State_Abbrev":"ND"},
"geometry":{ "type": "Point", "coordinates": [-102.246373,48.802553]}},
{ "type": "Feature", "properties": {"Name":"Bowdon city","State":"North Dakota","State_Abbrev":"ND"},
"geometry":{ "type": "Point", "coordinates": [-99.708868,47.468514]}},
{ "type": "Feature", "properties": {"Name":"Bowman city","State":"North Dakota","State_Abbrev":"ND"},
"geometry":{ "type": "Point", "coordinates": [-103.402946,46.184324]}},
{ "type": "Feature", "properties": {"Name":"Braddock city","State":"North Dakota","State_Abbrev":"ND"},
"geometry":{ "type": "Point", "coordinates": [-100.089639,46.563978]}},
{ "type": "Feature", "properties": {"Name":"Briarwood city","State":"North Dakota","State_Abbrev":"ND"},
"geometry":{ "type": "Point", "coordinates": [-96.794771,46.787002]}},
{ "type": "Feature", "properties": {"Name":"Brinsmade city","State":"North Dakota","State_Abbrev":"ND"},
"geometry":{ "type": "Point", "coordinates": [-99.323639,48.183979]}},
{ "type": "Feature", "properties": {"Name":"Brocket city","State":"North Dakota","State_Abbrev":"ND"},
"geometry":{ "type": "Point", "coordinates": [-98.355405,48.210813]}},
{ "type": "Feature", "properties": {"Name":"Brooktree Park CDP","State":"North Dakota","State_Abbrev":"ND"},
"geometry":{ "type": "Point", "coordinates": [-96.895693,47.003884]}},
{ "type": "Feature", "properties": {"Name":"Buchanan city","State":"North Dakota","State_Abbrev":"ND"},
"geometry":{ "type": "Point", "coordinates": [-98.829018,47.062599]}},
{ "type": "Feature", "properties": {"Name":"Bucyrus city","State":"North Dakota","State_Abbrev":"ND"},
"geometry":{ "type": "Point", "coordinates": [-102.788317,46.06457]}},
{ "type": "Feature", "properties": {"Name":"Buffalo city","State":"North Dakota","State_Abbrev":"ND"},
"geometry":{ "type": "Point", "coordinates": [-97.550619,46.91926]}},
{ "type": "Feature", "properties": {"Name":"Burlington city","State":"North Dakota","State_Abbrev":"ND"},
"geometry":{ "type": "Point", "coordinates": [-101.41455,48.257173]}},
{ "type": "Feature", "properties": {"Name":"Butte city","State":"North Dakota","State_Abbrev":"ND"},
"geometry":{ "type": "Point", "coordinates": [-100.665841,47.836968]}},
{ "type": "Feature", "properties": {"Name":"Buxton city","State":"North Dakota","State_Abbrev":"ND"},
"geometry":{ "type": "Point", "coordinates": [-97.097519,47.602065]}},
{ "type": "Feature", "properties": {"Name":"Caledonia CDP","State":"North Dakota","State_Abbrev":"ND"},
"geometry":{ "type": "Point", "coordinates": [-96.889141,47.457677]}},
{ "type": "Feature", "properties": {"Name":"Calio city","State":"North Dakota","State_Abbrev":"ND"},
"geometry":{ "type": "Point", "coordinates": [-98.938381,48.62377]}},
{ "type": "Feature", "properties": {"Name":"Calvin city","State":"North Dakota","State_Abbrev":"ND"},
"geometry":{ "type": "Point", "coordinates": [-98.938021,48.851849]}},
{ "type": "Feature", "properties": {"Name":"Cando city","State":"North Dakota","State_Abbrev":"ND"},
"geometry":{ "type": "Point", "coordinates": [-99.202471,48.487221]}},
{ "type": "Feature", "properties": {"Name":"Cannon Ball CDP","State":"North Dakota","State_Abbrev":"ND"},
"geometry":{ "type": "Point", "coordinates": [-100.629428,46.323693]}},
{ "type": "Feature", "properties": {"Name":"Canton City (Hensel) city","State":"North Dakota","State_Abbrev":"ND"},
"geometry":{ "type": "Point", "coordinates": [-97.666135,48.688034]}},
{ "type": "Feature", "properties": {"Name":"Carpio city","State":"North Dakota","State_Abbrev":"ND"},
"geometry":{ "type": "Point", "coordinates": [-101.716317,48.443445]}},
{ "type": "Feature", "properties": {"Name":"Carrington city","State":"North Dakota","State_Abbrev":"ND"},
"geometry":{ "type": "Point", "coordinates": [-99.131033,47.452851]}},
{ "type": "Feature", "properties": {"Name":"Carson city","State":"North Dakota","State_Abbrev":"ND"},
"geometry":{ "type": "Point", "coordinates": [-101.570618,46.422307]}},
{ "type": "Feature", "properties": {"Name":"Casselton city","State":"North Dakota","State_Abbrev":"ND"},
"geometry":{ "type": "Point", "coordinates": [-97.212591,46.897083]}},
{ "type": "Feature", "properties": {"Name":"Cathay city","State":"North Dakota","State_Abbrev":"ND"},
"geometry":{ "type": "Point", "coordinates": [-99.411296,47.553923]}},
{ "type": "Feature", "properties": {"Name":"Cavalier city","State":"North Dakota","State_Abbrev":"ND"},
"geometry":{ "type": "Point", "coordinates": [-97.622647,48.794019]}},
{ "type": "Feature", "properties": {"Name":"Cayuga city","State":"North Dakota","State_Abbrev":"ND"},
"geometry":{ "type": "Point", "coordinates": [-97.384516,46.07606]}},
{ "type": "Feature", "properties": {"Name":"Center city","State":"North Dakota","State_Abbrev":"ND"},
"geometry":{ "type": "Point", "coordinates": [-101.297676,47.114931]}},
{ "type": "Feature", "properties": {"Name":"Christine city","State":"North Dakota","State_Abbrev":"ND"},
"geometry":{ "type": "Point", "coordinates": [-96.806637,46.575149]}},
{ "type": "Feature", "properties": {"Name":"Churchs Ferry city","State":"North Dakota","State_Abbrev":"ND"},
"geometry":{ "type": "Point", "coordinates": [-99.194369,48.268604]}},
{ "type": "Feature", "properties": {"Name":"Cleveland city","State":"North Dakota","State_Abbrev":"ND"},
"geometry":{ "type": "Point", "coordinates": [-99.119562,46.891027]}},
{ "type": "Feature", "properties": {"Name":"Clifford city","State":"North Dakota","State_Abbrev":"ND"},
"geometry":{ "type": "Point", "coordinates": [-97.410094,47.3482]}},
{ "type": "Feature", "properties": {"Name":"Cogswell city","State":"North Dakota","State_Abbrev":"ND"},
"geometry":{ "type": "Point", "coordinates": [-97.78423,46.106967]}},
{ "type": "Feature", "properties": {"Name":"Coleharbor city","State":"North Dakota","State_Abbrev":"ND"},
"geometry":{ "type": "Point", "coordinates": [-101.221365,47.542533]}},
{ "type": "Feature", "properties": {"Name":"Colfax city","State":"North Dakota","State_Abbrev":"ND"},
"geometry":{ "type": "Point", "coordinates": [-96.872457,46.470944]}},
{ "type": "Feature", "properties": {"Name":"Columbus city","State":"North Dakota","State_Abbrev":"ND"},
"geometry":{ "type": "Point", "coordinates": [-102.781176,48.904982]}},
{ "type": "Feature", "properties": {"Name":"Conway city","State":"North Dakota","State_Abbrev":"ND"},
"geometry":{ "type": "Point", "coordinates": [-97.675088,48.234279]}},
{ "type": "Feature", "properties": {"Name":"Cooperstown city","State":"North Dakota","State_Abbrev":"ND"},
"geometry":{ "type": "Point", "coordinates": [-98.125625,47.444894]}},
{ "type": "Feature", "properties": {"Name":"Courtenay city","State":"North Dakota","State_Abbrev":"ND"},
"geometry":{ "type": "Point", "coordinates": [-98.568492,47.224136]}},
{ "type": "Feature", "properties": {"Name":"Crary city","State":"North Dakota","State_Abbrev":"ND"},
"geometry":{ "type": "Point", "coordinates": [-98.633227,48.074971]}},
{ "type": "Feature", "properties": {"Name":"Crosby city","State":"North Dakota","State_Abbrev":"ND"},
"geometry":{ "type": "Point", "coordinates": [-103.296622,48.916167]}},
{ "type": "Feature", "properties": {"Name":"Crystal city","State":"North Dakota","State_Abbrev":"ND"},
"geometry":{ "type": "Point", "coordinates": [-97.668578,48.598099]}},
{ "type": "Feature", "properties": {"Name":"Dahlen CDP","State":"North Dakota","State_Abbrev":"ND"},
"geometry":{ "type": "Point", "coordinates": [-97.932382,48.15879]}},
{ "type": "Feature", "properties": {"Name":"Davenport city","State":"North Dakota","State_Abbrev":"ND"},
"geometry":{ "type": "Point", "coordinates": [-97.065682,46.714811]}},
{ "type": "Feature", "properties": {"Name":"Dawson city","State":"North Dakota","State_Abbrev":"ND"},
"geometry":{ "type": "Point", "coordinates": [-99.75362,46.867939]}},
{ "type": "Feature", "properties": {"Name":"Dazey city","State":"North Dakota","State_Abbrev":"ND"},
"geometry":{ "type": "Point", "coordinates": [-98.200702,47.188351]}},
{ "type": "Feature", "properties": {"Name":"Deering city","State":"North Dakota","State_Abbrev":"ND"},
"geometry":{ "type": "Point", "coordinates": [-101.049842,48.395831]}},
{ "type": "Feature", "properties": {"Name":"De Lamere CDP","State":"North Dakota","State_Abbrev":"ND"},
"geometry":{ "type": "Point", "coordinates": [-97.333318,46.266824]}},
{ "type": "Feature", "properties": {"Name":"Denhoff CDP","State":"North Dakota","State_Abbrev":"ND"},
"geometry":{ "type": "Point", "coordinates": [-100.262292,47.483336]}},
{ "type": "Feature", "properties": {"Name":"Des Lacs city","State":"North Dakota","State_Abbrev":"ND"},
"geometry":{ "type": "Point", "coordinates": [-101.563705,48.256865]}},
{ "type": "Feature", "properties": {"Name":"Devils Lake city","State":"North Dakota","State_Abbrev":"ND"},
"geometry":{ "type": "Point", "coordinates": [-98.874762,48.112578]}},
{ "type": "Feature", "properties": {"Name":"Dickey city","State":"North Dakota","State_Abbrev":"ND"},
"geometry":{ "type": "Point", "coordinates": [-98.468092,46.536801]}},
{ "type": "Feature", "properties": {"Name":"Dickinson city","State":"North Dakota","State_Abbrev":"ND"},
"geometry":{ "type": "Point", "coordinates": [-102.79596,46.89278]}},
{ "type": "Feature", "properties": {"Name":"Dodge city","State":"North Dakota","State_Abbrev":"ND"},
"geometry":{ "type": "Point", "coordinates": [-102.20238,47.305322]}},
{ "type": "Feature", "properties": {"Name":"Donnybrook city","State":"North Dakota","State_Abbrev":"ND"},
"geometry":{ "type": "Point", "coordinates": [-101.887054,48.507731]}},
{ "type": "Feature", "properties": {"Name":"Douglas city","State":"North Dakota","State_Abbrev":"ND"},
"geometry":{ "type": "Point", "coordinates": [-101.50193,47.857678]}},
{ "type": "Feature", "properties": {"Name":"Drake city","State":"North Dakota","State_Abbrev":"ND"},
"geometry":{ "type": "Point", "coordinates": [-100.37442,47.922691]}},
{ "type": "Feature", "properties": {"Name":"Drayton city","State":"North Dakota","State_Abbrev":"ND"},
"geometry":{ "type": "Point", "coordinates": [-97.179496,48.56206]}},
{ "type": "Feature", "properties": {"Name":"Driscoll CDP","State":"North Dakota","State_Abbrev":"ND"},
"geometry":{ "type": "Point", "coordinates": [-100.143905,46.842682]}},
{ "type": "Feature", "properties": {"Name":"Dunn Center city","State":"North Dakota","State_Abbrev":"ND"},
"geometry":{ "type": "Point", "coordinates": [-102.622785,47.353134]}},
{ "type": "Feature", "properties": {"Name":"Dunseith city","State":"North Dakota","State_Abbrev":"ND"},
"geometry":{ "type": "Point", "coordinates": [-100.062233,48.813033]}},
{ "type": "Feature", "properties": {"Name":"Dwight city","State":"North Dakota","State_Abbrev":"ND"},
"geometry":{ "type": "Point", "coordinates": [-96.740143,46.303953]}},
{ "type": "Feature", "properties": {"Name":"East Dunseith CDP","State":"North Dakota","State_Abbrev":"ND"},
"geometry":{ "type": "Point", "coordinates": [-100.021856,48.863246]}},
{ "type": "Feature", "properties": {"Name":"East Fairview CDP","State":"North Dakota","State_Abbrev":"ND"},
"geometry":{ "type": "Point", "coordinates": [-104.035893,47.853419]}},
{ "type": "Feature", "properties": {"Name":"Edgeley city","State":"North Dakota","State_Abbrev":"ND"},
"geometry":{ "type": "Point", "coordinates": [-98.712597,46.36244]}},
{ "type": "Feature", "properties": {"Name":"Edinburg city","State":"North Dakota","State_Abbrev":"ND"},
"geometry":{ "type": "Point", "coordinates": [-97.862968,48.495502]}},
{ "type": "Feature", "properties": {"Name":"Edmore city","State":"North Dakota","State_Abbrev":"ND"},
"geometry":{ "type": "Point", "coordinates": [-98.453645,48.412438]}},
{ "type": "Feature", "properties": {"Name":"Egeland city","State":"North Dakota","State_Abbrev":"ND"},
"geometry":{ "type": "Point", "coordinates": [-99.09796,48.628113]}},
{ "type": "Feature", "properties": {"Name":"Elgin city","State":"North Dakota","State_Abbrev":"ND"},
"geometry":{ "type": "Point", "coordinates": [-101.847373,46.401499]}},
{ "type": "Feature", "properties": {"Name":"Ellendale city","State":"North Dakota","State_Abbrev":"ND"},
"geometry":{ "type": "Point", "coordinates": [-98.525354,46.004354]}},
{ "type": "Feature", "properties": {"Name":"Elliott city","State":"North Dakota","State_Abbrev":"ND"},
"geometry":{ "type": "Point", "coordinates": [-97.81488,46.402268]}},
{ "type": "Feature", "properties": {"Name":"Embden CDP","State":"North Dakota","State_Abbrev":"ND"},
"geometry":{ "type": "Point", "coordinates": [-97.439506,46.805031]}},
{ "type": "Feature", "properties": {"Name":"Emerado city","State":"North Dakota","State_Abbrev":"ND"},
"geometry":{ "type": "Point", "coordinates": [-97.361629,47.928568]}},
{ "type": "Feature", "properties": {"Name":"Enderlin city","State":"North Dakota","State_Abbrev":"ND"},
"geometry":{ "type": "Point", "coordinates": [-97.595581,46.6215]}},
{ "type": "Feature", "properties": {"Name":"Englevale CDP","State":"North Dakota","State_Abbrev":"ND"},
"geometry":{ "type": "Point", "coordinates": [-97.903831,46.391177]}},
{ "type": "Feature", "properties": {"Name":"Epping city","State":"North Dakota","State_Abbrev":"ND"},
"geometry":{ "type": "Point", "coordinates": [-103.35784,48.281651]}},
{ "type": "Feature", "properties": {"Name":"Erie CDP","State":"North Dakota","State_Abbrev":"ND"},
"geometry":{ "type": "Point", "coordinates": [-97.387918,47.115346]}},
{ "type": "Feature", "properties": {"Name":"Esmond city","State":"North Dakota","State_Abbrev":"ND"},
"geometry":{ "type": "Point", "coordinates": [-99.76476,48.033096]}},
{ "type": "Feature", "properties": {"Name":"Fairdale city","State":"North Dakota","State_Abbrev":"ND"},
"geometry":{ "type": "Point", "coordinates": [-98.231224,48.490037]}},
{ "type": "Feature", "properties": {"Name":"Fairmount city","State":"North Dakota","State_Abbrev":"ND"},
"geometry":{ "type": "Point", "coordinates": [-96.602907,46.054695]}},
{ "type": "Feature", "properties": {"Name":"Fargo city","State":"North Dakota","State_Abbrev":"ND"},
"geometry":{ "type": "Point", "coordinates": [-96.82908,46.8647]}},
{ "type": "Feature", "properties": {"Name":"Fessenden city","State":"North Dakota","State_Abbrev":"ND"},
"geometry":{ "type": "Point", "coordinates": [-99.627008,47.649308]}},
{ "type": "Feature", "properties": {"Name":"Fingal city","State":"North Dakota","State_Abbrev":"ND"},
"geometry":{ "type": "Point", "coordinates": [-97.793158,46.762492]}},
{ "type": "Feature", "properties": {"Name":"Finley city","State":"North Dakota","State_Abbrev":"ND"},
"geometry":{ "type": "Point", "coordinates": [-97.837267,47.512515]}},
{ "type": "Feature", "properties": {"Name":"Flasher city","State":"North Dakota","State_Abbrev":"ND"},
"geometry":{ "type": "Point", "coordinates": [-101.232861,46.452099]}},
{ "type": "Feature", "properties": {"Name":"Flaxton city","State":"North Dakota","State_Abbrev":"ND"},
"geometry":{ "type": "Point", "coordinates": [-102.391147,48.896288]}},
{ "type": "Feature", "properties": {"Name":"Forbes city","State":"North Dakota","State_Abbrev":"ND"},
"geometry":{ "type": "Point", "coordinates": [-98.782019,45.942511]}},
{ "type": "Feature", "properties": {"Name":"Fordville city","State":"North Dakota","State_Abbrev":"ND"},
"geometry":{ "type": "Point", "coordinates": [-97.795376,48.216592]}},
{ "type": "Feature", "properties": {"Name":"Forest River city","State":"North Dakota","State_Abbrev":"ND"},
"geometry":{ "type": "Point", "coordinates": [-97.470319,48.216553]}},
{ "type": "Feature", "properties": {"Name":"Forman city","State":"North Dakota","State_Abbrev":"ND"},
"geometry":{ "type": "Point", "coordinates": [-97.637099,46.103761]}},
{ "type": "Feature", "properties": {"Name":"Fort Ransom city","State":"North Dakota","State_Abbrev":"ND"},
"geometry":{ "type": "Point", "coordinates": [-97.931057,46.524529]}},
{ "type": "Feature", "properties": {"Name":"Fort Totten CDP","State":"North Dakota","State_Abbrev":"ND"},
"geometry":{ "type": "Point", "coordinates": [-99.016593,47.970499]}},
{ "type": "Feature", "properties": {"Name":"Fortuna city","State":"North Dakota","State_Abbrev":"ND"},
"geometry":{ "type": "Point", "coordinates": [-103.779092,48.909702]}},
{ "type": "Feature", "properties": {"Name":"Fort Yates city","State":"North Dakota","State_Abbrev":"ND"},
"geometry":{ "type": "Point", "coordinates": [-100.630078,46.086594]}},
{ "type": "Feature", "properties": {"Name":"Four Bears Village CDP","State":"North Dakota","State_Abbrev":"ND"},
"geometry":{ "type": "Point", "coordinates": [-102.593735,47.987113]}},
{ "type": "Feature", "properties": {"Name":"Foxholm CDP","State":"North Dakota","State_Abbrev":"ND"},
"geometry":{ "type": "Point", "coordinates": [-101.57212,48.365415]}},
{ "type": "Feature", "properties": {"Name":"Fredonia city","State":"North Dakota","State_Abbrev":"ND"},
"geometry":{ "type": "Point", "coordinates": [-99.095632,46.329175]}},
{ "type": "Feature", "properties": {"Name":"Frontier city","State":"North Dakota","State_Abbrev":"ND"},
"geometry":{ "type": "Point", "coordinates": [-96.833294,46.800275]}},
{ "type": "Feature", "properties": {"Name":"Fullerton city","State":"North Dakota","State_Abbrev":"ND"},
"geometry":{ "type": "Point", "coordinates": [-98.427313,46.163228]}},
{ "type": "Feature", "properties": {"Name":"Gackle city","State":"North Dakota","State_Abbrev":"ND"},
"geometry":{ "type": "Point", "coordinates": [-99.141408,46.626404]}},
{ "type": "Feature", "properties": {"Name":"Galesburg city","State":"North Dakota","State_Abbrev":"ND"},
"geometry":{ "type": "Point", "coordinates": [-97.408761,47.270098]}},
{ "type": "Feature", "properties": {"Name":"Gardena city","State":"North Dakota","State_Abbrev":"ND"},
"geometry":{ "type": "Point", "coordinates": [-100.498087,48.701237]}},
{ "type": "Feature", "properties": {"Name":"Gardner city","State":"North Dakota","State_Abbrev":"ND"},
"geometry":{ "type": "Point", "coordinates": [-96.968617,47.144511]}},
{ "type": "Feature", "properties": {"Name":"Garrison city","State":"North Dakota","State_Abbrev":"ND"},
"geometry":{ "type": "Point", "coordinates": [-101.421914,47.653206]}},
{ "type": "Feature", "properties": {"Name":"Gascoyne city","State":"North Dakota","State_Abbrev":"ND"},
"geometry":{ "type": "Point", "coordinates": [-103.078786,46.118954]}},
{ "type": "Feature", "properties": {"Name":"Gilby city","State":"North Dakota","State_Abbrev":"ND"},
"geometry":{ "type": "Point", "coordinates": [-97.467723,48.083502]}},
{ "type": "Feature", "properties": {"Name":"Gladstone city","State":"North Dakota","State_Abbrev":"ND"},
"geometry":{ "type": "Point", "coordinates": [-102.576584,46.858698]}},
{ "type": "Feature", "properties": {"Name":"Glenburn city","State":"North Dakota","State_Abbrev":"ND"},
"geometry":{ "type": "Point", "coordinates": [-101.220891,48.513496]}},
{ "type": "Feature", "properties": {"Name":"Glenfield city","State":"North Dakota","State_Abbrev":"ND"},
"geometry":{ "type": "Point", "coordinates": [-98.566203,47.455072]}},
{ "type": "Feature", "properties": {"Name":"Glen Ullin city","State":"North Dakota","State_Abbrev":"ND"},
"geometry":{ "type": "Point", "coordinates": [-101.833498,46.811696]}},
{ "type": "Feature", "properties": {"Name":"Golden Valley city","State":"North Dakota","State_Abbrev":"ND"},
"geometry":{ "type": "Point", "coordinates": [-102.0653,47.290264]}},
{ "type": "Feature", "properties": {"Name":"Golva city","State":"North Dakota","State_Abbrev":"ND"},
"geometry":{ "type": "Point", "coordinates": [-103.982313,46.734569]}},
{ "type": "Feature", "properties": {"Name":"Goodrich city","State":"North Dakota","State_Abbrev":"ND"},
"geometry":{ "type": "Point", "coordinates": [-100.124798,47.47622]}},
{ "type": "Feature", "properties": {"Name":"Grace City city","State":"North Dakota","State_Abbrev":"ND"},
"geometry":{ "type": "Point", "coordinates": [-98.80387,47.551304]}},
{ "type": "Feature", "properties": {"Name":"Grafton city","State":"North Dakota","State_Abbrev":"ND"},
"geometry":{ "type": "Point", "coordinates": [-97.406164,48.41391]}},
{ "type": "Feature", "properties": {"Name":"Grand Forks city","State":"North Dakota","State_Abbrev":"ND"},
"geometry":{ "type": "Point", "coordinates": [-97.08933,47.921291]}},
{ "type": "Feature", "properties": {"Name":"Grand Forks AFB CDP","State":"North Dakota","State_Abbrev":"ND"},
"geometry":{ "type": "Point", "coordinates": [-97.39128,47.95568]}},
{ "type": "Feature", "properties": {"Name":"Grandin city","State":"North Dakota","State_Abbrev":"ND"},
"geometry":{ "type": "Point", "coordinates": [-97.003219,47.236719]}},
{ "type": "Feature", "properties": {"Name":"Grano city","State":"North Dakota","State_Abbrev":"ND"},
"geometry":{ "type": "Point", "coordinates": [-101.589171,48.61532]}},
{ "type": "Feature", "properties": {"Name":"Granville city","State":"North Dakota","State_Abbrev":"ND"},
"geometry":{ "type": "Point", "coordinates": [-100.844663,48.266588]}},
{ "type": "Feature", "properties": {"Name":"Great Bend city","State":"North Dakota","State_Abbrev":"ND"},
"geometry":{ "type": "Point", "coordinates": [-96.800995,46.154638]}},
{ "type": "Feature", "properties": {"Name":"Green Acres CDP","State":"North Dakota","State_Abbrev":"ND"},
"geometry":{ "type": "Point", "coordinates": [-99.690092,48.838132]}},
{ "type": "Feature", "properties": {"Name":"Grenora city","State":"North Dakota","State_Abbrev":"ND"},
"geometry":{ "type": "Point", "coordinates": [-103.936673,48.61988]}},
{ "type": "Feature", "properties": {"Name":"Gwinner city","State":"North Dakota","State_Abbrev":"ND"},
"geometry":{ "type": "Point", "coordinates": [-97.656093,46.231045]}},
{ "type": "Feature", "properties": {"Name":"Hague city","State":"North Dakota","State_Abbrev":"ND"},
"geometry":{ "type": "Point", "coordinates": [-99.999106,46.028891]}},
{ "type": "Feature", "properties": {"Name":"Halliday city","State":"North Dakota","State_Abbrev":"ND"},
"geometry":{ "type": "Point", "coordinates": [-102.338829,47.352023]}},
{ "type": "Feature", "properties": {"Name":"Hamberg city","State":"North Dakota","State_Abbrev":"ND"},
"geometry":{ "type": "Point", "coordinates": [-99.515963,47.763346]}},
{ "type": "Feature", "properties": {"Name":"Hamilton city","State":"North Dakota","State_Abbrev":"ND"},
"geometry":{ "type": "Point", "coordinates": [-97.451735,48.807982]}},
{ "type": "Feature", "properties": {"Name":"Hampden city","State":"North Dakota","State_Abbrev":"ND"},
"geometry":{ "type": "Point", "coordinates": [-98.654317,48.539598]}},
{ "type": "Feature", "properties": {"Name":"Hankinson city","State":"North Dakota","State_Abbrev":"ND"},
"geometry":{ "type": "Point", "coordinates": [-96.891008,46.073987]}},
{ "type": "Feature", "properties": {"Name":"Hannaford city","State":"North Dakota","State_Abbrev":"ND"},
"geometry":{ "type": "Point", "coordinates": [-98.188941,47.314181]}},
{ "type": "Feature", "properties": {"Name":"Hannah city","State":"North Dakota","State_Abbrev":"ND"},
"geometry":{ "type": "Point", "coordinates": [-98.690294,48.972884]}},
{ "type": "Feature", "properties": {"Name":"Hansboro city","State":"North Dakota","State_Abbrev":"ND"},
"geometry":{ "type": "Point", "coordinates": [-99.380239,48.952448]}},
{ "type": "Feature", "properties": {"Name":"Harmon CDP","State":"North Dakota","State_Abbrev":"ND"},
"geometry":{ "type": "Point", "coordinates": [-100.956967,46.954361]}},
{ "type": "Feature", "properties": {"Name":"Harvey city","State":"North Dakota","State_Abbrev":"ND"},
"geometry":{ "type": "Point", "coordinates": [-99.930691,47.778228]}},
{ "type": "Feature", "properties": {"Name":"Harwood city","State":"North Dakota","State_Abbrev":"ND"},
"geometry":{ "type": "Point", "coordinates": [-96.881035,46.977008]}},
{ "type": "Feature", "properties": {"Name":"Hatton city","State":"North Dakota","State_Abbrev":"ND"},
"geometry":{ "type": "Point", "coordinates": [-97.458289,47.636967]}},
{ "type": "Feature", "properties": {"Name":"Havana city","State":"North Dakota","State_Abbrev":"ND"},
"geometry":{ "type": "Point", "coordinates": [-97.618496,45.954234]}},
{ "type": "Feature", "properties": {"Name":"Haynes city","State":"North Dakota","State_Abbrev":"ND"},
"geometry":{ "type": "Point", "coordinates": [-102.471008,45.973911]}},
{ "type": "Feature", "properties": {"Name":"Hazelton city","State":"North Dakota","State_Abbrev":"ND"},
"geometry":{ "type": "Point", "coordinates": [-100.281089,46.485724]}},
{ "type": "Feature", "properties": {"Name":"Hazen city","State":"North Dakota","State_Abbrev":"ND"},
"geometry":{ "type": "Point", "coordinates": [-101.624823,47.298417]}},
{ "type": "Feature", "properties": {"Name":"Hebron city","State":"North Dakota","State_Abbrev":"ND"},
"geometry":{ "type": "Point", "coordinates": [-102.0447,46.902416]}},
{ "type": "Feature", "properties": {"Name":"Heil CDP","State":"North Dakota","State_Abbrev":"ND"},
"geometry":{ "type": "Point", "coordinates": [-101.701151,46.389194]}},
{ "type": "Feature", "properties": {"Name":"Heimdal CDP","State":"North Dakota","State_Abbrev":"ND"},
"geometry":{ "type": "Point", "coordinates": [-99.652695,47.792654]}},
{ "type": "Feature", "properties": {"Name":"Hettinger city","State":"North Dakota","State_Abbrev":"ND"},
"geometry":{ "type": "Point", "coordinates": [-102.634613,46.003521]}},
{ "type": "Feature", "properties": {"Name":"Hillsboro city","State":"North Dakota","State_Abbrev":"ND"},
"geometry":{ "type": "Point", "coordinates": [-97.063463,47.402972]}},
{ "type": "Feature", "properties": {"Name":"Hoople city","State":"North Dakota","State_Abbrev":"ND"},
"geometry":{ "type": "Point", "coordinates": [-97.638868,48.535789]}},
{ "type": "Feature", "properties": {"Name":"Hope city","State":"North Dakota","State_Abbrev":"ND"},
"geometry":{ "type": "Point", "coordinates": [-97.719203,47.324377]}},
{ "type": "Feature", "properties": {"Name":"Horace city","State":"North Dakota","State_Abbrev":"ND"},
"geometry":{ "type": "Point", "coordinates": [-96.909918,46.755313]}},
{ "type": "Feature", "properties": {"Name":"Hunter city","State":"North Dakota","State_Abbrev":"ND"},
"geometry":{ "type": "Point", "coordinates": [-97.213811,47.190113]}},
{ "type": "Feature", "properties": {"Name":"Hurdsfield city","State":"North Dakota","State_Abbrev":"ND"},
"geometry":{ "type": "Point", "coordinates": [-99.930386,47.447183]}},
{ "type": "Feature", "properties": {"Name":"Inkster city","State":"North Dakota","State_Abbrev":"ND"},
"geometry":{ "type": "Point", "coordinates": [-97.64415,48.151251]}},
{ "type": "Feature", "properties": {"Name":"Jamestown city","State":"North Dakota","State_Abbrev":"ND"},
"geometry":{ "type": "Point", "coordinates": [-98.693579,46.905851]}},
{ "type": "Feature", "properties": {"Name":"Jessie CDP","State":"North Dakota","State_Abbrev":"ND"},
"geometry":{ "type": "Point", "coordinates": [-98.229147,47.54019]}},
{ "type": "Feature", "properties": {"Name":"Jud city","State":"North Dakota","State_Abbrev":"ND"},
"geometry":{ "type": "Point", "coordinates": [-98.897552,46.525772]}},
{ "type": "Feature", "properties": {"Name":"Karlsruhe city","State":"North Dakota","State_Abbrev":"ND"},
"geometry":{ "type": "Point", "coordinates": [-100.616207,48.091045]}},
{ "type": "Feature", "properties": {"Name":"Kathryn city","State":"North Dakota","State_Abbrev":"ND"},
"geometry":{ "type": "Point", "coordinates": [-97.970358,46.681174]}},
{ "type": "Feature", "properties": {"Name":"Kenmare city","State":"North Dakota","State_Abbrev":"ND"},
"geometry":{ "type": "Point", "coordinates": [-102.07203,48.672812]}},
{ "type": "Feature", "properties": {"Name":"Kensal city","State":"North Dakota","State_Abbrev":"ND"},
"geometry":{ "type": "Point", "coordinates": [-98.732106,47.300033]}},
{ "type": "Feature", "properties": {"Name":"Kief city","State":"North Dakota","State_Abbrev":"ND"},
"geometry":{ "type": "Point", "coordinates": [-100.514172,47.858986]}},
{ "type": "Feature", "properties": {"Name":"Killdeer city","State":"North Dakota","State_Abbrev":"ND"},
"geometry":{ "type": "Point", "coordinates": [-102.746201,47.368751]}},
{ "type": "Feature", "properties": {"Name":"Kindred city","State":"North Dakota","State_Abbrev":"ND"},
"geometry":{ "type": "Point", "coordinates": [-97.01694,46.649379]}},
{ "type": "Feature", "properties": {"Name":"Knox city","State":"North Dakota","State_Abbrev":"ND"},
"geometry":{ "type": "Point", "coordinates": [-99.691112,48.343948]}},
{ "type": "Feature", "properties": {"Name":"Kramer city","State":"North Dakota","State_Abbrev":"ND"},
"geometry":{ "type": "Point", "coordinates": [-100.70765,48.691031]}},
{ "type": "Feature", "properties": {"Name":"Kulm city","State":"North Dakota","State_Abbrev":"ND"},
"geometry":{ "type": "Point", "coordinates": [-98.946607,46.301947]}},
{ "type": "Feature", "properties": {"Name":"Lakota city","State":"North Dakota","State_Abbrev":"ND"},
"geometry":{ "type": "Point", "coordinates": [-98.346767,48.042868]}},
{ "type": "Feature", "properties": {"Name":"LaMoure city","State":"North Dakota","State_Abbrev":"ND"},
"geometry":{ "type": "Point", "coordinates": [-98.296541,46.357417]}},
{ "type": "Feature", "properties": {"Name":"Landa city","State":"North Dakota","State_Abbrev":"ND"},
"geometry":{ "type": "Point", "coordinates": [-100.911987,48.895855]}},
{ "type": "Feature", "properties": {"Name":"Langdon city","State":"North Dakota","State_Abbrev":"ND"},
"geometry":{ "type": "Point", "coordinates": [-98.375265,48.762209]}},
{ "type": "Feature", "properties": {"Name":"Lankin city","State":"North Dakota","State_Abbrev":"ND"},
"geometry":{ "type": "Point", "coordinates": [-97.920258,48.31467]}},
{ "type": "Feature", "properties": {"Name":"Lansford city","State":"North Dakota","State_Abbrev":"ND"},
"geometry":{ "type": "Point", "coordinates": [-101.375891,48.626952]}},
{ "type": "Feature", "properties": {"Name":"Larimore city","State":"North Dakota","State_Abbrev":"ND"},
"geometry":{ "type": "Point", "coordinates": [-97.627004,47.909065]}},
{ "type": "Feature", "properties": {"Name":"Larson CDP","State":"North Dakota","State_Abbrev":"ND"},
"geometry":{ "type": "Point", "coordinates": [-102.862564,48.891574]}},
{ "type": "Feature", "properties": {"Name":"Lawton city","State":"North Dakota","State_Abbrev":"ND"},
"geometry":{ "type": "Point", "coordinates": [-98.367869,48.303341]}},
{ "type": "Feature", "properties": {"Name":"Leal city","State":"North Dakota","State_Abbrev":"ND"},
"geometry":{ "type": "Point", "coordinates": [-98.315527,47.104916]}},
{ "type": "Feature", "properties": {"Name":"Leeds city","State":"North Dakota","State_Abbrev":"ND"},
"geometry":{ "type": "Point", "coordinates": [-99.434292,48.287207]}},
{ "type": "Feature", "properties": {"Name":"Lehr city","State":"North Dakota","State_Abbrev":"ND"},
"geometry":{ "type": "Point", "coordinates": [-99.352929,46.282395]}},
{ "type": "Feature", "properties": {"Name":"Leith city","State":"North Dakota","State_Abbrev":"ND"},
"geometry":{ "type": "Point", "coordinates": [-101.641415,46.364925]}},
{ "type": "Feature", "properties": {"Name":"Leonard city","State":"North Dakota","State_Abbrev":"ND"},
"geometry":{ "type": "Point", "coordinates": [-97.249944,46.65229]}},
{ "type": "Feature", "properties": {"Name":"Lidgerwood city","State":"North Dakota","State_Abbrev":"ND"},
"geometry":{ "type": "Point", "coordinates": [-97.145111,46.073752]}},
{ "type": "Feature", "properties": {"Name":"Lignite city","State":"North Dakota","State_Abbrev":"ND"},
"geometry":{ "type": "Point", "coordinates": [-102.564428,48.877169]}},
{ "type": "Feature", "properties": {"Name":"Lincoln city","State":"North Dakota","State_Abbrev":"ND"},
"geometry":{ "type": "Point", "coordinates": [-100.697738,46.768934]}},
{ "type": "Feature", "properties": {"Name":"Linton city","State":"North Dakota","State_Abbrev":"ND"},
"geometry":{ "type": "Point", "coordinates": [-100.232894,46.268675]}},
{ "type": "Feature", "properties": {"Name":"Lisbon city","State":"North Dakota","State_Abbrev":"ND"},
"geometry":{ "type": "Point", "coordinates": [-97.684415,46.438986]}},
{ "type": "Feature", "properties": {"Name":"Litchville city","State":"North Dakota","State_Abbrev":"ND"},
"geometry":{ "type": "Point", "coordinates": [-98.191701,46.656563]}},
{ "type": "Feature", "properties": {"Name":"Logan CDP","State":"North Dakota","State_Abbrev":"ND"},
"geometry":{ "type": "Point", "coordinates": [-101.175557,48.15956]}},
{ "type": "Feature", "properties": {"Name":"Loma city","State":"North Dakota","State_Abbrev":"ND"},
"geometry":{ "type": "Point", "coordinates": [-98.525696,48.637732]}},
{ "type": "Feature", "properties": {"Name":"Long Creek CDP","State":"North Dakota","State_Abbrev":"ND"},
"geometry":{ "type": "Point", "coordinates": [-103.254588,48.100963]}},
{ "type": "Feature", "properties": {"Name":"Loraine city","State":"North Dakota","State_Abbrev":"ND"},
"geometry":{ "type": "Point", "coordinates": [-101.567889,48.868354]}},
{ "type": "Feature", "properties": {"Name":"Ludden city","State":"North Dakota","State_Abbrev":"ND"},
"geometry":{ "type": "Point", "coordinates": [-98.124794,46.00797]}},
{ "type": "Feature", "properties": {"Name":"Luverne city","State":"North Dakota","State_Abbrev":"ND"},
"geometry":{ "type": "Point", "coordinates": [-97.934817,47.251424]}},
{ "type": "Feature", "properties": {"Name":"McClusky city","State":"North Dakota","State_Abbrev":"ND"},
"geometry":{ "type": "Point", "coordinates": [-100.442533,47.483989]}},
{ "type": "Feature", "properties": {"Name":"McGregor CDP","State":"North Dakota","State_Abbrev":"ND"},
"geometry":{ "type": "Point", "coordinates": [-102.92801,48.595563]}},
{ "type": "Feature", "properties": {"Name":"McHenry city","State":"North Dakota","State_Abbrev":"ND"},
"geometry":{ "type": "Point", "coordinates": [-98.590996,47.576405]}},
{ "type": "Feature", "properties": {"Name":"McLeod CDP","State":"North Dakota","State_Abbrev":"ND"},
"geometry":{ "type": "Point", "coordinates": [-97.298694,46.388675]}},
{ "type": "Feature", "properties": {"Name":"McVille city","State":"North Dakota","State_Abbrev":"ND"},
"geometry":{ "type": "Point", "coordinates": [-98.175442,47.765116]}},
{ "type": "Feature", "properties": {"Name":"Maddock city","State":"North Dakota","State_Abbrev":"ND"},
"geometry":{ "type": "Point", "coordinates": [-99.529294,47.962387]}},
{ "type": "Feature", "properties": {"Name":"Makoti city","State":"North Dakota","State_Abbrev":"ND"},
"geometry":{ "type": "Point", "coordinates": [-101.802908,47.96333]}},
{ "type": "Feature", "properties": {"Name":"Mandan city","State":"North Dakota","State_Abbrev":"ND"},
"geometry":{ "type": "Point", "coordinates": [-100.88706,46.829484]}},
{ "type": "Feature", "properties": {"Name":"Mandaree CDP","State":"North Dakota","State_Abbrev":"ND"},
"geometry":{ "type": "Point", "coordinates": [-102.697469,47.74504]}},
{ "type": "Feature", "properties": {"Name":"Manning CDP","State":"North Dakota","State_Abbrev":"ND"},
"geometry":{ "type": "Point", "coordinates": [-102.770375,47.231035]}},
{ "type": "Feature", "properties": {"Name":"Mantador city","State":"North Dakota","State_Abbrev":"ND"},
"geometry":{ "type": "Point", "coordinates": [-96.977851,46.165495]}},
{ "type": "Feature", "properties": {"Name":"Manvel city","State":"North Dakota","State_Abbrev":"ND"},
"geometry":{ "type": "Point", "coordinates": [-97.177929,48.072782]}},
{ "type": "Feature", "properties": {"Name":"Mapleton city","State":"North Dakota","State_Abbrev":"ND"},
"geometry":{ "type": "Point", "coordinates": [-97.053257,46.891531]}},
{ "type": "Feature", "properties": {"Name":"Marion city","State":"North Dakota","State_Abbrev":"ND"},
"geometry":{ "type": "Point", "coordinates": [-98.338706,46.611226]}},
{ "type": "Feature", "properties": {"Name":"Marmarth city","State":"North Dakota","State_Abbrev":"ND"},
"geometry":{ "type": "Point", "coordinates": [-103.934594,46.301219]}},
{ "type": "Feature", "properties": {"Name":"Martin city","State":"North Dakota","State_Abbrev":"ND"},
"geometry":{ "type": "Point", "coordinates": [-100.115302,47.82677]}},
{ "type": "Feature", "properties": {"Name":"Max city","State":"North Dakota","State_Abbrev":"ND"},
"geometry":{ "type": "Point", "coordinates": [-101.291106,47.82042]}},
{ "type": "Feature", "properties": {"Name":"Maxbass city","State":"North Dakota","State_Abbrev":"ND"},
"geometry":{ "type": "Point", "coordinates": [-101.142365,48.722447]}},
{ "type": "Feature", "properties": {"Name":"Mayville city","State":"North Dakota","State_Abbrev":"ND"},
"geometry":{ "type": "Point", "coordinates": [-97.326354,47.498184]}},
{ "type": "Feature", "properties": {"Name":"Medina city","State":"North Dakota","State_Abbrev":"ND"},
"geometry":{ "type": "Point", "coordinates": [-99.299885,46.89384]}},
{ "type": "Feature", "properties": {"Name":"Medora city","State":"North Dakota","State_Abbrev":"ND"},
"geometry":{ "type": "Point", "coordinates": [-103.526517,46.911261]}},
{ "type": "Feature", "properties": {"Name":"Menoken CDP","State":"North Dakota","State_Abbrev":"ND"},
"geometry":{ "type": "Point", "coordinates": [-100.530479,46.81442]}},
{ "type": "Feature", "properties": {"Name":"Mercer city","State":"North Dakota","State_Abbrev":"ND"},
"geometry":{ "type": "Point", "coordinates": [-100.71114,47.490606]}},
{ "type": "Feature", "properties": {"Name":"Michigan City city","State":"North Dakota","State_Abbrev":"ND"},
"geometry":{ "type": "Point", "coordinates": [-98.12012,48.02442]}},
{ "type": "Feature", "properties": {"Name":"Milnor city","State":"North Dakota","State_Abbrev":"ND"},
"geometry":{ "type": "Point", "coordinates": [-97.455237,46.260673]}},
{ "type": "Feature", "properties": {"Name":"Milton city","State":"North Dakota","State_Abbrev":"ND"},
"geometry":{ "type": "Point", "coordinates": [-98.045964,48.626006]}},
{ "type": "Feature", "properties": {"Name":"Minnewaukan city","State":"North Dakota","State_Abbrev":"ND"},
"geometry":{ "type": "Point", "coordinates": [-99.253831,48.071697]}},
{ "type": "Feature", "properties": {"Name":"Minot city","State":"North Dakota","State_Abbrev":"ND"},
"geometry":{ "type": "Point", "coordinates": [-101.277533,48.236125]}},
{ "type": "Feature", "properties": {"Name":"Minot AFB CDP","State":"North Dakota","State_Abbrev":"ND"},
"geometry":{ "type": "Point", "coordinates": [-101.336503,48.419002]}},
{ "type": "Feature", "properties": {"Name":"Minto city","State":"North Dakota","State_Abbrev":"ND"},
"geometry":{ "type": "Point", "coordinates": [-97.373046,48.29241]}},
{ "type": "Feature", "properties": {"Name":"Mohall city","State":"North Dakota","State_Abbrev":"ND"},
"geometry":{ "type": "Point", "coordinates": [-101.516979,48.76611]}},
{ "type": "Feature", "properties": {"Name":"Monango city","State":"North Dakota","State_Abbrev":"ND"},
"geometry":{ "type": "Point", "coordinates": [-98.595175,46.173406]}},
{ "type": "Feature", "properties": {"Name":"Montpelier city","State":"North Dakota","State_Abbrev":"ND"},
"geometry":{ "type": "Point", "coordinates": [-98.588464,46.698966]}},
{ "type": "Feature", "properties": {"Name":"Mooreton city","State":"North Dakota","State_Abbrev":"ND"},
"geometry":{ "type": "Point", "coordinates": [-96.875777,46.268931]}},
{ "type": "Feature", "properties": {"Name":"Mott city","State":"North Dakota","State_Abbrev":"ND"},
"geometry":{ "type": "Point", "coordinates": [-102.318897,46.374402]}},
{ "type": "Feature", "properties": {"Name":"Mountain city","State":"North Dakota","State_Abbrev":"ND"},
"geometry":{ "type": "Point", "coordinates": [-97.864807,48.684305]}},
{ "type": "Feature", "properties": {"Name":"Munich city","State":"North Dakota","State_Abbrev":"ND"},
"geometry":{ "type": "Point", "coordinates": [-98.838749,48.673375]}},
{ "type": "Feature", "properties": {"Name":"Mylo city","State":"North Dakota","State_Abbrev":"ND"},
"geometry":{ "type": "Point", "coordinates": [-99.617921,48.635841]}},
{ "type": "Feature", "properties": {"Name":"Napoleon city","State":"North Dakota","State_Abbrev":"ND"},
"geometry":{ "type": "Point", "coordinates": [-99.768332,46.503929]}},
{ "type": "Feature", "properties": {"Name":"Nash CDP","State":"North Dakota","State_Abbrev":"ND"},
"geometry":{ "type": "Point", "coordinates": [-97.524453,48.477824]}},
{ "type": "Feature", "properties": {"Name":"Neche city","State":"North Dakota","State_Abbrev":"ND"},
"geometry":{ "type": "Point", "coordinates": [-97.551699,48.983043]}},
{ "type": "Feature", "properties": {"Name":"Nekoma city","State":"North Dakota","State_Abbrev":"ND"},
"geometry":{ "type": "Point", "coordinates": [-98.376132,48.578209]}},
{ "type": "Feature", "properties": {"Name":"Newburg city","State":"North Dakota","State_Abbrev":"ND"},
"geometry":{ "type": "Point", "coordinates": [-100.91264,48.713878]}},
{ "type": "Feature", "properties": {"Name":"New England city","State":"North Dakota","State_Abbrev":"ND"},
"geometry":{ "type": "Point", "coordinates": [-102.866962,46.540817]}},
{ "type": "Feature", "properties": {"Name":"New Leipzig city","State":"North Dakota","State_Abbrev":"ND"},
"geometry":{ "type": "Point", "coordinates": [-101.951599,46.375768]}},
{ "type": "Feature", "properties": {"Name":"New Rockford city","State":"North Dakota","State_Abbrev":"ND"},
"geometry":{ "type": "Point", "coordinates": [-99.137698,47.679617]}},
{ "type": "Feature", "properties": {"Name":"New Salem city","State":"North Dakota","State_Abbrev":"ND"},
"geometry":{ "type": "Point", "coordinates": [-101.417941,46.84305]}},
{ "type": "Feature", "properties": {"Name":"New Town city","State":"North Dakota","State_Abbrev":"ND"},
"geometry":{ "type": "Point", "coordinates": [-102.488305,47.989075]}},
{ "type": "Feature", "properties": {"Name":"Niagara city","State":"North Dakota","State_Abbrev":"ND"},
"geometry":{ "type": "Point", "coordinates": [-97.876993,48.001008]}},
{ "type": "Feature", "properties": {"Name":"Nome city","State":"North Dakota","State_Abbrev":"ND"},
"geometry":{ "type": "Point", "coordinates": [-97.816255,46.675796]}},
{ "type": "Feature", "properties": {"Name":"Noonan city","State":"North Dakota","State_Abbrev":"ND"},
"geometry":{ "type": "Point", "coordinates": [-103.010287,48.890332]}},
{ "type": "Feature", "properties": {"Name":"North River city","State":"North Dakota","State_Abbrev":"ND"},
"geometry":{ "type": "Point", "coordinates": [-96.803335,46.95048]}},
{ "type": "Feature", "properties": {"Name":"Northwood city","State":"North Dakota","State_Abbrev":"ND"},
"geometry":{ "type": "Point", "coordinates": [-97.565226,47.731424]}},
{ "type": "Feature", "properties": {"Name":"Oakes city","State":"North Dakota","State_Abbrev":"ND"},
"geometry":{ "type": "Point", "coordinates": [-98.087123,46.139704]}},
{ "type": "Feature", "properties": {"Name":"Oberon city","State":"North Dakota","State_Abbrev":"ND"},
"geometry":{ "type": "Point", "coordinates": [-99.205611,47.923886]}},
{ "type": "Feature", "properties": {"Name":"Oriska city","State":"North Dakota","State_Abbrev":"ND"},
"geometry":{ "type": "Point", "coordinates": [-97.790539,46.931117]}},
{ "type": "Feature", "properties": {"Name":"Orrin CDP","State":"North Dakota","State_Abbrev":"ND"},
"geometry":{ "type": "Point", "coordinates": [-100.167109,48.090938]}},
{ "type": "Feature", "properties": {"Name":"Osnabrock city","State":"North Dakota","State_Abbrev":"ND"},
"geometry":{ "type": "Point", "coordinates": [-98.149397,48.670163]}},
{ "type": "Feature", "properties": {"Name":"Overly city","State":"North Dakota","State_Abbrev":"ND"},
"geometry":{ "type": "Point", "coordinates": [-100.15102,48.681139]}},
{ "type": "Feature", "properties": {"Name":"Oxbow city","State":"North Dakota","State_Abbrev":"ND"},
"geometry":{ "type": "Point", "coordinates": [-96.820793,46.6647]}},
{ "type": "Feature", "properties": {"Name":"Page city","State":"North Dakota","State_Abbrev":"ND"},
"geometry":{ "type": "Point", "coordinates": [-97.568131,47.15919]}},
{ "type": "Feature", "properties": {"Name":"Palermo city","State":"North Dakota","State_Abbrev":"ND"},
"geometry":{ "type": "Point", "coordinates": [-102.228928,48.338395]}},
{ "type": "Feature", "properties": {"Name":"Park River city","State":"North Dakota","State_Abbrev":"ND"},
"geometry":{ "type": "Point", "coordinates": [-97.742678,48.391059]}},
{ "type": "Feature", "properties": {"Name":"Parshall city","State":"North Dakota","State_Abbrev":"ND"},
"geometry":{ "type": "Point", "coordinates": [-102.133804,47.959506]}},
{ "type": "Feature", "properties": {"Name":"Pekin city","State":"North Dakota","State_Abbrev":"ND"},
"geometry":{ "type": "Point", "coordinates": [-98.32777,47.791911]}},
{ "type": "Feature", "properties": {"Name":"Pembina city","State":"North Dakota","State_Abbrev":"ND"},
"geometry":{ "type": "Point", "coordinates": [-97.246861,48.967087]}},
{ "type": "Feature", "properties": {"Name":"Perth city","State":"North Dakota","State_Abbrev":"ND"},
"geometry":{ "type": "Point", "coordinates": [-99.458124,48.714723]}},
{ "type": "Feature", "properties": {"Name":"Petersburg city","State":"North Dakota","State_Abbrev":"ND"},
"geometry":{ "type": "Point", "coordinates": [-98.000641,48.017504]}},
{ "type": "Feature", "properties": {"Name":"Pettibone city","State":"North Dakota","State_Abbrev":"ND"},
"geometry":{ "type": "Point", "coordinates": [-99.520816,47.117068]}},
{ "type": "Feature", "properties": {"Name":"Pick City city","State":"North Dakota","State_Abbrev":"ND"},
"geometry":{ "type": "Point", "coordinates": [-101.457304,47.511001]}},
{ "type": "Feature", "properties": {"Name":"Pillsbury city","State":"North Dakota","State_Abbrev":"ND"},
"geometry":{ "type": "Point", "coordinates": [-97.795691,47.207123]}},
{ "type": "Feature", "properties": {"Name":"Pingree city","State":"North Dakota","State_Abbrev":"ND"},
"geometry":{ "type": "Point", "coordinates": [-98.908563,47.163823]}},
{ "type": "Feature", "properties": {"Name":"Pisek city","State":"North Dakota","State_Abbrev":"ND"},
"geometry":{ "type": "Point", "coordinates": [-97.71028,48.310644]}},
{ "type": "Feature", "properties": {"Name":"Plaza city","State":"North Dakota","State_Abbrev":"ND"},
"geometry":{ "type": "Point", "coordinates": [-101.958725,48.026289]}},
{ "type": "Feature", "properties": {"Name":"Porcupine CDP","State":"North Dakota","State_Abbrev":"ND"},
"geometry":{ "type": "Point", "coordinates": [-101.100104,46.221838]}},
{ "type": "Feature", "properties": {"Name":"Portal city","State":"North Dakota","State_Abbrev":"ND"},
"geometry":{ "type": "Point", "coordinates": [-102.548395,48.994384]}},
{ "type": "Feature", "properties": {"Name":"Portland city","State":"North Dakota","State_Abbrev":"ND"},
"geometry":{ "type": "Point", "coordinates": [-97.369306,47.499511]}},
{ "type": "Feature", "properties": {"Name":"Powers Lake city","State":"North Dakota","State_Abbrev":"ND"},
"geometry":{ "type": "Point", "coordinates": [-102.645625,48.564022]}},
{ "type": "Feature", "properties": {"Name":"Prairie Rose city","State":"North Dakota","State_Abbrev":"ND"},
"geometry":{ "type": "Point", "coordinates": [-96.835395,46.817121]}},
{ "type": "Feature", "properties": {"Name":"Raleigh CDP","State":"North Dakota","State_Abbrev":"ND"},
"geometry":{ "type": "Point", "coordinates": [-101.305383,46.357143]}},
{ "type": "Feature", "properties": {"Name":"Ray city","State":"North Dakota","State_Abbrev":"ND"},
"geometry":{ "type": "Point", "coordinates": [-103.173266,48.33542]}},
{ "type": "Feature", "properties": {"Name":"Reeder city","State":"North Dakota","State_Abbrev":"ND"},
"geometry":{ "type": "Point", "coordinates": [-102.942164,46.105926]}},
{ "type": "Feature", "properties": {"Name":"Regan city","State":"North Dakota","State_Abbrev":"ND"},
"geometry":{ "type": "Point", "coordinates": [-100.527298,47.156794]}},
{ "type": "Feature", "properties": {"Name":"Regent city","State":"North Dakota","State_Abbrev":"ND"},
"geometry":{ "type": "Point", "coordinates": [-102.558052,46.422197]}},
{ "type": "Feature", "properties": {"Name":"Reile's Acres city","State":"North Dakota","State_Abbrev":"ND"},
"geometry":{ "type": "Point", "coordinates": [-96.866639,46.926964]}},
{ "type": "Feature", "properties": {"Name":"Reynolds city","State":"North Dakota","State_Abbrev":"ND"},
"geometry":{ "type": "Point", "coordinates": [-97.105968,47.668529]}},
{ "type": "Feature", "properties": {"Name":"Rhame city","State":"North Dakota","State_Abbrev":"ND"},
"geometry":{ "type": "Point", "coordinates": [-103.654982,46.234649]}},
{ "type": "Feature", "properties": {"Name":"Richardton city","State":"North Dakota","State_Abbrev":"ND"},
"geometry":{ "type": "Point", "coordinates": [-102.333163,46.884162]}},
{ "type": "Feature", "properties": {"Name":"Riverdale city","State":"North Dakota","State_Abbrev":"ND"},
"geometry":{ "type": "Point", "coordinates": [-101.367049,47.496757]}},
{ "type": "Feature", "properties": {"Name":"Robinson city","State":"North Dakota","State_Abbrev":"ND"},
"geometry":{ "type": "Point", "coordinates": [-99.781332,47.142062]}},
{ "type": "Feature", "properties": {"Name":"Rocklake city","State":"North Dakota","State_Abbrev":"ND"},
"geometry":{ "type": "Point", "coordinates": [-99.245898,48.79016]}},
{ "type": "Feature", "properties": {"Name":"Rogers city","State":"North Dakota","State_Abbrev":"ND"},
"geometry":{ "type": "Point", "coordinates": [-98.203127,47.074031]}},
{ "type": "Feature", "properties": {"Name":"Rolette city","State":"North Dakota","State_Abbrev":"ND"},
"geometry":{ "type": "Point", "coordinates": [-99.841675,48.660897]}},
{ "type": "Feature", "properties": {"Name":"Rolla city","State":"North Dakota","State_Abbrev":"ND"},
"geometry":{ "type": "Point", "coordinates": [-99.609353,48.843618]}},
{ "type": "Feature", "properties": {"Name":"Ross city","State":"North Dakota","State_Abbrev":"ND"},
"geometry":{ "type": "Point", "coordinates": [-102.543509,48.312775]}},
{ "type": "Feature", "properties": {"Name":"Rugby city","State":"North Dakota","State_Abbrev":"ND"},
"geometry":{ "type": "Point", "coordinates": [-99.990223,48.365422]}},
{ "type": "Feature", "properties": {"Name":"Ruso city","State":"North Dakota","State_Abbrev":"ND"},
"geometry":{ "type": "Point", "coordinates": [-100.934268,47.837332]}},
{ "type": "Feature", "properties": {"Name":"Ruthville CDP","State":"North Dakota","State_Abbrev":"ND"},
"geometry":{ "type": "Point", "coordinates": [-101.300234,48.370814]}},
{ "type": "Feature", "properties": {"Name":"Rutland city","State":"North Dakota","State_Abbrev":"ND"},
"geometry":{ "type": "Point", "coordinates": [-97.506801,46.054343]}},
{ "type": "Feature", "properties": {"Name":"Ryder city","State":"North Dakota","State_Abbrev":"ND"},
"geometry":{ "type": "Point", "coordinates": [-101.670433,47.921237]}},
{ "type": "Feature", "properties": {"Name":"St. John city","State":"North Dakota","State_Abbrev":"ND"},
"geometry":{ "type": "Point", "coordinates": [-99.713096,48.943766]}},
{ "type": "Feature", "properties": {"Name":"St. Thomas city","State":"North Dakota","State_Abbrev":"ND"},
"geometry":{ "type": "Point", "coordinates": [-97.447107,48.619236]}},
{ "type": "Feature", "properties": {"Name":"Sanborn city","State":"North Dakota","State_Abbrev":"ND"},
"geometry":{ "type": "Point", "coordinates": [-98.223812,46.942793]}},
{ "type": "Feature", "properties": {"Name":"Sarles city","State":"North Dakota","State_Abbrev":"ND"},
"geometry":{ "type": "Point", "coordinates": [-98.996881,48.944967]}},
{ "type": "Feature", "properties": {"Name":"Sawyer city","State":"North Dakota","State_Abbrev":"ND"},
"geometry":{ "type": "Point", "coordinates": [-101.053314,48.089458]}},
{ "type": "Feature", "properties": {"Name":"Scranton city","State":"North Dakota","State_Abbrev":"ND"},
"geometry":{ "type": "Point", "coordinates": [-103.142977,46.149479]}},
{ "type": "Feature", "properties": {"Name":"Selfridge city","State":"North Dakota","State_Abbrev":"ND"},
"geometry":{ "type": "Point", "coordinates": [-100.924357,46.041682]}},
{ "type": "Feature", "properties": {"Name":"Selz CDP","State":"North Dakota","State_Abbrev":"ND"},
"geometry":{ "type": "Point", "coordinates": [-99.893412,47.859404]}},
{ "type": "Feature", "properties": {"Name":"Sentinel Butte city","State":"North Dakota","State_Abbrev":"ND"},
"geometry":{ "type": "Point", "coordinates": [-103.84059,46.91944]}},
{ "type": "Feature", "properties": {"Name":"Sharon city","State":"North Dakota","State_Abbrev":"ND"},
"geometry":{ "type": "Point", "coordinates": [-97.898719,47.597181]}},
{ "type": "Feature", "properties": {"Name":"Sheldon city","State":"North Dakota","State_Abbrev":"ND"},
"geometry":{ "type": "Point", "coordinates": [-97.494382,46.588491]}},
{ "type": "Feature", "properties": {"Name":"Shell Valley CDP","State":"North Dakota","State_Abbrev":"ND"},
"geometry":{ "type": "Point", "coordinates": [-99.827101,48.808616]}},
{ "type": "Feature", "properties": {"Name":"Sherwood city","State":"North Dakota","State_Abbrev":"ND"},
"geometry":{ "type": "Point", "coordinates": [-101.632802,48.961867]}},
{ "type": "Feature", "properties": {"Name":"Sheyenne city","State":"North Dakota","State_Abbrev":"ND"},
"geometry":{ "type": "Point", "coordinates": [-99.116832,47.827287]}},
{ "type": "Feature", "properties": {"Name":"Sibley city","State":"North Dakota","State_Abbrev":"ND"},
"geometry":{ "type": "Point", "coordinates": [-97.965306,47.218602]}},
{ "type": "Feature", "properties": {"Name":"Solen city","State":"North Dakota","State_Abbrev":"ND"},
"geometry":{ "type": "Point", "coordinates": [-100.795647,46.387312]}},
{ "type": "Feature", "properties": {"Name":"Souris city","State":"North Dakota","State_Abbrev":"ND"},
"geometry":{ "type": "Point", "coordinates": [-100.682648,48.909959]}},
{ "type": "Feature", "properties": {"Name":"South Heart city","State":"North Dakota","State_Abbrev":"ND"},
"geometry":{ "type": "Point", "coordinates": [-102.990532,46.868131]}},
{ "type": "Feature", "properties": {"Name":"Spiritwood CDP","State":"North Dakota","State_Abbrev":"ND"},
"geometry":{ "type": "Point", "coordinates": [-98.493296,46.934282]}},
{ "type": "Feature", "properties": {"Name":"Spiritwood Lake city","State":"North Dakota","State_Abbrev":"ND"},
"geometry":{ "type": "Point", "coordinates": [-98.58595,47.079627]}},
{ "type": "Feature", "properties": {"Name":"Springbrook city","State":"North Dakota","State_Abbrev":"ND"},
"geometry":{ "type": "Point", "coordinates": [-103.461679,48.252114]}},
{ "type": "Feature", "properties": {"Name":"Stanley city","State":"North Dakota","State_Abbrev":"ND"},
"geometry":{ "type": "Point", "coordinates": [-102.397321,48.313784]}},
{ "type": "Feature", "properties": {"Name":"Stanton city","State":"North Dakota","State_Abbrev":"ND"},
"geometry":{ "type": "Point", "coordinates": [-101.381965,47.318483]}},
{ "type": "Feature", "properties": {"Name":"Starkweather city","State":"North Dakota","State_Abbrev":"ND"},
"geometry":{ "type": "Point", "coordinates": [-98.878441,48.452084]}},
{ "type": "Feature", "properties": {"Name":"Steele city","State":"North Dakota","State_Abbrev":"ND"},
"geometry":{ "type": "Point", "coordinates": [-99.918125,46.856801]}},
{ "type": "Feature", "properties": {"Name":"Strasburg city","State":"North Dakota","State_Abbrev":"ND"},
"geometry":{ "type": "Point", "coordinates": [-100.160756,46.133523]}},
{ "type": "Feature", "properties": {"Name":"Streeter city","State":"North Dakota","State_Abbrev":"ND"},
"geometry":{ "type": "Point", "coordinates": [-99.356818,46.657618]}},
{ "type": "Feature", "properties": {"Name":"Surrey city","State":"North Dakota","State_Abbrev":"ND"},
"geometry":{ "type": "Point", "coordinates": [-101.12833,48.242966]}},
{ "type": "Feature", "properties": {"Name":"Sutton CDP","State":"North Dakota","State_Abbrev":"ND"},
"geometry":{ "type": "Point", "coordinates": [-98.441035,47.403796]}},
{ "type": "Feature", "properties": {"Name":"Sykeston city","State":"North Dakota","State_Abbrev":"ND"},
"geometry":{ "type": "Point", "coordinates": [-99.399315,47.466071]}},
{ "type": "Feature", "properties": {"Name":"Tappen city","State":"North Dakota","State_Abbrev":"ND"},
"geometry":{ "type": "Point", "coordinates": [-99.627096,46.871603]}},
{ "type": "Feature", "properties": {"Name":"Taylor city","State":"North Dakota","State_Abbrev":"ND"},
"geometry":{ "type": "Point", "coordinates": [-102.422874,46.902205]}},
{ "type": "Feature", "properties": {"Name":"Thompson city","State":"North Dakota","State_Abbrev":"ND"},
"geometry":{ "type": "Point", "coordinates": [-97.104357,47.774612]}},
{ "type": "Feature", "properties": {"Name":"Tioga city","State":"North Dakota","State_Abbrev":"ND"},
"geometry":{ "type": "Point", "coordinates": [-102.94349,48.394617]}},
{ "type": "Feature", "properties": {"Name":"Tolley city","State":"North Dakota","State_Abbrev":"ND"},
"geometry":{ "type": "Point", "coordinates": [-101.827083,48.730301]}},
{ "type": "Feature", "properties": {"Name":"Tolna city","State":"North Dakota","State_Abbrev":"ND"},
"geometry":{ "type": "Point", "coordinates": [-98.438164,47.825699]}},
{ "type": "Feature", "properties": {"Name":"Tower City city","State":"North Dakota","State_Abbrev":"ND"},
"geometry":{ "type": "Point", "coordinates": [-97.676035,46.926308]}},
{ "type": "Feature", "properties": {"Name":"Towner city","State":"North Dakota","State_Abbrev":"ND"},
"geometry":{ "type": "Point", "coordinates": [-100.406984,48.34712]}},
{ "type": "Feature", "properties": {"Name":"Trenton CDP","State":"North Dakota","State_Abbrev":"ND"},
"geometry":{ "type": "Point", "coordinates": [-103.843153,48.069923]}},
{ "type": "Feature", "properties": {"Name":"Turtle Lake city","State":"North Dakota","State_Abbrev":"ND"},
"geometry":{ "type": "Point", "coordinates": [-100.890799,47.521482]}},
{ "type": "Feature", "properties": {"Name":"Tuttle city","State":"North Dakota","State_Abbrev":"ND"},
"geometry":{ "type": "Point", "coordinates": [-99.993404,47.144491]}},
{ "type": "Feature", "properties": {"Name":"Underwood city","State":"North Dakota","State_Abbrev":"ND"},
"geometry":{ "type": "Point", "coordinates": [-101.141217,47.456385]}},
{ "type": "Feature", "properties": {"Name":"Upham city","State":"North Dakota","State_Abbrev":"ND"},
"geometry":{ "type": "Point", "coordinates": [-100.728432,48.58155]}},
{ "type": "Feature", "properties": {"Name":"Valley City city","State":"North Dakota","State_Abbrev":"ND"},
"geometry":{ "type": "Point", "coordinates": [-98.006702,46.921799]}},
{ "type": "Feature", "properties": {"Name":"Velva city","State":"North Dakota","State_Abbrev":"ND"},
"geometry":{ "type": "Point", "coordinates": [-100.932887,48.058193]}},
{ "type": "Feature", "properties": {"Name":"Venturia city","State":"North Dakota","State_Abbrev":"ND"},
"geometry":{ "type": "Point", "coordinates": [-99.548331,45.996856]}},
{ "type": "Feature", "properties": {"Name":"Verona city","State":"North Dakota","State_Abbrev":"ND"},
"geometry":{ "type": "Point", "coordinates": [-98.07715,46.362629]}},
{ "type": "Feature", "properties": {"Name":"Voltaire city","State":"North Dakota","State_Abbrev":"ND"},
"geometry":{ "type": "Point", "coordinates": [-100.844006,48.018671]}},
{ "type": "Feature", "properties": {"Name":"Wahpeton city","State":"North Dakota","State_Abbrev":"ND"},
"geometry":{ "type": "Point", "coordinates": [-96.611934,46.272054]}},
{ "type": "Feature", "properties": {"Name":"Walcott city","State":"North Dakota","State_Abbrev":"ND"},
"geometry":{ "type": "Point", "coordinates": [-96.93755,46.550472]}},
{ "type": "Feature", "properties": {"Name":"Wales city","State":"North Dakota","State_Abbrev":"ND"},
"geometry":{ "type": "Point", "coordinates": [-98.599177,48.893432]}},
{ "type": "Feature", "properties": {"Name":"Walhalla city","State":"North Dakota","State_Abbrev":"ND"},
"geometry":{ "type": "Point", "coordinates": [-97.916991,48.92103]}},
{ "type": "Feature", "properties": {"Name":"Warwick city","State":"North Dakota","State_Abbrev":"ND"},
"geometry":{ "type": "Point", "coordinates": [-98.705875,47.853087]}},
{ "type": "Feature", "properties": {"Name":"Washburn city","State":"North Dakota","State_Abbrev":"ND"},
"geometry":{ "type": "Point", "coordinates": [-101.027796,47.294045]}},
{ "type": "Feature", "properties": {"Name":"Watford City city","State":"North Dakota","State_Abbrev":"ND"},
"geometry":{ "type": "Point", "coordinates": [-103.266731,47.801492]}},
{ "type": "Feature", "properties": {"Name":"West Fargo city","State":"North Dakota","State_Abbrev":"ND"},
"geometry":{ "type": "Point", "coordinates": [-96.904809,46.85638]}},
{ "type": "Feature", "properties": {"Name":"Westhope city","State":"North Dakota","State_Abbrev":"ND"},
"geometry":{ "type": "Point", "coordinates": [-101.01771,48.911176]}},
{ "type": "Feature", "properties": {"Name":"Wheatland CDP","State":"North Dakota","State_Abbrev":"ND"},
"geometry":{ "type": "Point", "coordinates": [-97.345483,46.904897]}},
{ "type": "Feature", "properties": {"Name":"White Earth city","State":"North Dakota","State_Abbrev":"ND"},
"geometry":{ "type": "Point", "coordinates": [-102.771755,48.379868]}},
{ "type": "Feature", "properties": {"Name":"White Shield CDP","State":"North Dakota","State_Abbrev":"ND"},
"geometry":{ "type": "Point", "coordinates": [-101.843561,47.660158]}},
{ "type": "Feature", "properties": {"Name":"Wildrose city","State":"North Dakota","State_Abbrev":"ND"},
"geometry":{ "type": "Point", "coordinates": [-103.183693,48.629953]}},
{ "type": "Feature", "properties": {"Name":"Williston city","State":"North Dakota","State_Abbrev":"ND"},
"geometry":{ "type": "Point", "coordinates": [-103.638126,48.180571]}},
{ "type": "Feature", "properties": {"Name":"Willow City city","State":"North Dakota","State_Abbrev":"ND"},
"geometry":{ "type": "Point", "coordinates": [-100.293311,48.604691]}},
{ "type": "Feature", "properties": {"Name":"Wilton city","State":"North Dakota","State_Abbrev":"ND"},
"geometry":{ "type": "Point", "coordinates": [-100.783985,47.157997]}},
{ "type": "Feature", "properties": {"Name":"Wimbledon city","State":"North Dakota","State_Abbrev":"ND"},
"geometry":{ "type": "Point", "coordinates": [-98.458629,47.169067]}},
{ "type": "Feature", "properties": {"Name":"Wing city","State":"North Dakota","State_Abbrev":"ND"},
"geometry":{ "type": "Point", "coordinates": [-100.282318,47.142266]}},
{ "type": "Feature", "properties": {"Name":"Wishek city","State":"North Dakota","State_Abbrev":"ND"},
"geometry":{ "type": "Point", "coordinates": [-99.554482,46.255615]}},
{ "type": "Feature", "properties": {"Name":"Wolford city","State":"North Dakota","State_Abbrev":"ND"},
"geometry":{ "type": "Point", "coordinates": [-99.703815,48.497483]}},
{ "type": "Feature", "properties": {"Name":"Woodworth city","State":"North Dakota","State_Abbrev":"ND"},
"geometry":{ "type": "Point", "coordinates": [-99.304151,47.142169]}},
{ "type": "Feature", "properties": {"Name":"Wyndmere city","State":"North Dakota","State_Abbrev":"ND"},
"geometry":{ "type": "Point", "coordinates": [-97.131182,46.264128]}},
{ "type": "Feature", "properties": {"Name":"York city","State":"North Dakota","State_Abbrev":"ND"},
"geometry":{ "type": "Point", "coordinates": [-99.573257,48.313243]}},
{ "type": "Feature", "properties": {"Name":"Ypsilanti CDP","State":"North Dakota","State_Abbrev":"ND"},
"geometry":{ "type": "Point", "coordinates": [-98.560988,46.783359]}},
{ "type": "Feature", "properties": {"Name":"Zap city","State":"North Dakota","State_Abbrev":"ND"},
"geometry":{ "type": "Point", "coordinates": [-101.923718,47.285093]}},
{ "type": "Feature", "properties": {"Name":"Zeeland city","State":"North Dakota","State_Abbrev":"ND"},
"geometry":{ "type": "Point", "coordinates": [-99.832442,45.972944]}}]}
