{"type":"FeatureCollection","features":[
{ "type": "Feature", "properties": {"Name":"Aberdeen town","State":"North Carolina","State_Abbrev":"NC"},
"geometry":{ "type": "Point", "coordinates": [-79.435451,35.134592]}},
{ "type": "Feature", "properties": {"Name":"Advance CDP","State":"North Carolina","State_Abbrev":"NC"},
"geometry":{ "type": "Point", "coordinates": [-80.392174,35.945834]}},
{ "type": "Feature", "properties": {"Name":"Ahoskie town","State":"North Carolina","State_Abbrev":"NC"},
"geometry":{ "type": "Point", "coordinates": [-76.990105,36.284126]}},
{ "type": "Feature", "properties": {"Name":"Alamance village","State":"North Carolina","State_Abbrev":"NC"},
"geometry":{ "type": "Point", "coordinates": [-79.48898,36.027756]}},
{ "type": "Feature", "properties": {"Name":"Albemarle city","State":"North Carolina","State_Abbrev":"NC"},
"geometry":{ "type": "Point", "coordinates": [-80.192135,35.360039]}},
{ "type": "Feature", "properties": {"Name":"Alexis CDP","State":"North Carolina","State_Abbrev":"NC"},
"geometry":{ "type": "Point", "coordinates": [-81.123083,35.394256]}},
{ "type": "Feature", "properties": {"Name":"Alliance town","State":"North Carolina","State_Abbrev":"NC"},
"geometry":{ "type": "Point", "coordinates": [-76.808461,35.143508]}},
{ "type": "Feature", "properties": {"Name":"Altamahaw CDP","State":"North Carolina","State_Abbrev":"NC"},
"geometry":{ "type": "Point", "coordinates": [-79.506646,36.193878]}},
{ "type": "Feature", "properties": {"Name":"Anderson Creek CDP","State":"North Carolina","State_Abbrev":"NC"},
"geometry":{ "type": "Point", "coordinates": [-78.958258,35.263842]}},
{ "type": "Feature", "properties": {"Name":"Andrews town","State":"North Carolina","State_Abbrev":"NC"},
"geometry":{ "type": "Point", "coordinates": [-83.825814,35.199366]}},
{ "type": "Feature", "properties": {"Name":"Angier town","State":"North Carolina","State_Abbrev":"NC"},
"geometry":{ "type": "Point", "coordinates": [-78.740145,35.51456]}},
{ "type": "Feature", "properties": {"Name":"Ansonville town","State":"North Carolina","State_Abbrev":"NC"},
"geometry":{ "type": "Point", "coordinates": [-80.109692,35.104182]}},
{ "type": "Feature", "properties": {"Name":"Apex town","State":"North Carolina","State_Abbrev":"NC"},
"geometry":{ "type": "Point", "coordinates": [-78.877515,35.724756]}},
{ "type": "Feature", "properties": {"Name":"Aquadale CDP","State":"North Carolina","State_Abbrev":"NC"},
"geometry":{ "type": "Point", "coordinates": [-80.22351,35.224393]}},
{ "type": "Feature", "properties": {"Name":"Arapahoe town","State":"North Carolina","State_Abbrev":"NC"},
"geometry":{ "type": "Point", "coordinates": [-76.825957,35.021463]}},
{ "type": "Feature", "properties": {"Name":"Archdale city","State":"North Carolina","State_Abbrev":"NC"},
"geometry":{ "type": "Point", "coordinates": [-79.95977,35.904718]}},
{ "type": "Feature", "properties": {"Name":"Archer Lodge town","State":"North Carolina","State_Abbrev":"NC"},
"geometry":{ "type": "Point", "coordinates": [-78.370374,35.682342]}},
{ "type": "Feature", "properties": {"Name":"Arrowhead Beach CDP","State":"North Carolina","State_Abbrev":"NC"},
"geometry":{ "type": "Point", "coordinates": [-76.702896,36.227142]}},
{ "type": "Feature", "properties": {"Name":"Asheboro city","State":"North Carolina","State_Abbrev":"NC"},
"geometry":{ "type": "Point", "coordinates": [-79.812977,35.715281]}},
{ "type": "Feature", "properties": {"Name":"Asheville city","State":"North Carolina","State_Abbrev":"NC"},
"geometry":{ "type": "Point", "coordinates": [-82.552725,35.570972]}},
{ "type": "Feature", "properties": {"Name":"Ashley Heights CDP","State":"North Carolina","State_Abbrev":"NC"},
"geometry":{ "type": "Point", "coordinates": [-79.373917,35.089953]}},
{ "type": "Feature", "properties": {"Name":"Askewville town","State":"North Carolina","State_Abbrev":"NC"},
"geometry":{ "type": "Point", "coordinates": [-76.941232,36.111588]}},
{ "type": "Feature", "properties": {"Name":"Atkinson town","State":"North Carolina","State_Abbrev":"NC"},
"geometry":{ "type": "Point", "coordinates": [-78.169709,34.527458]}},
{ "type": "Feature", "properties": {"Name":"Atlantic CDP","State":"North Carolina","State_Abbrev":"NC"},
"geometry":{ "type": "Point", "coordinates": [-76.343257,34.881343]}},
{ "type": "Feature", "properties": {"Name":"Atlantic Beach town","State":"North Carolina","State_Abbrev":"NC"},
"geometry":{ "type": "Point", "coordinates": [-76.742265,34.701904]}},
{ "type": "Feature", "properties": {"Name":"Aulander town","State":"North Carolina","State_Abbrev":"NC"},
"geometry":{ "type": "Point", "coordinates": [-77.113599,36.228009]}},
{ "type": "Feature", "properties": {"Name":"Aurora town","State":"North Carolina","State_Abbrev":"NC"},
"geometry":{ "type": "Point", "coordinates": [-76.789325,35.302854]}},
{ "type": "Feature", "properties": {"Name":"Autryville town","State":"North Carolina","State_Abbrev":"NC"},
"geometry":{ "type": "Point", "coordinates": [-78.641187,34.99648]}},
{ "type": "Feature", "properties": {"Name":"Avery Creek CDP","State":"North Carolina","State_Abbrev":"NC"},
"geometry":{ "type": "Point", "coordinates": [-82.571847,35.465081]}},
{ "type": "Feature", "properties": {"Name":"Avon CDP","State":"North Carolina","State_Abbrev":"NC"},
"geometry":{ "type": "Point", "coordinates": [-75.512063,35.336654]}},
{ "type": "Feature", "properties": {"Name":"Ayden town","State":"North Carolina","State_Abbrev":"NC"},
"geometry":{ "type": "Point", "coordinates": [-77.416641,35.469351]}},
{ "type": "Feature", "properties": {"Name":"Badin town","State":"North Carolina","State_Abbrev":"NC"},
"geometry":{ "type": "Point", "coordinates": [-80.118341,35.407153]}},
{ "type": "Feature", "properties": {"Name":"Bailey town","State":"North Carolina","State_Abbrev":"NC"},
"geometry":{ "type": "Point", "coordinates": [-78.112924,35.780614]}},
{ "type": "Feature", "properties": {"Name":"Bakersville town","State":"North Carolina","State_Abbrev":"NC"},
"geometry":{ "type": "Point", "coordinates": [-82.158224,36.01535]}},
{ "type": "Feature", "properties": {"Name":"Bald Head Island village","State":"North Carolina","State_Abbrev":"NC"},
"geometry":{ "type": "Point", "coordinates": [-77.980854,33.866343]}},
{ "type": "Feature", "properties": {"Name":"Balfour CDP","State":"North Carolina","State_Abbrev":"NC"},
"geometry":{ "type": "Point", "coordinates": [-82.48875,35.352644]}},
{ "type": "Feature", "properties": {"Name":"Banner Elk town","State":"North Carolina","State_Abbrev":"NC"},
"geometry":{ "type": "Point", "coordinates": [-81.867556,36.158699]}},
{ "type": "Feature", "properties": {"Name":"Barker Heights CDP","State":"North Carolina","State_Abbrev":"NC"},
"geometry":{ "type": "Point", "coordinates": [-82.441175,35.308443]}},
{ "type": "Feature", "properties": {"Name":"Barker Ten Mile CDP","State":"North Carolina","State_Abbrev":"NC"},
"geometry":{ "type": "Point", "coordinates": [-78.988846,34.682523]}},
{ "type": "Feature", "properties": {"Name":"Barnardsville CDP","State":"North Carolina","State_Abbrev":"NC"},
"geometry":{ "type": "Point", "coordinates": [-82.455536,35.781918]}},
{ "type": "Feature", "properties": {"Name":"Bath town","State":"North Carolina","State_Abbrev":"NC"},
"geometry":{ "type": "Point", "coordinates": [-76.81108,35.471227]}},
{ "type": "Feature", "properties": {"Name":"Bayboro town","State":"North Carolina","State_Abbrev":"NC"},
"geometry":{ "type": "Point", "coordinates": [-76.769351,35.149273]}},
{ "type": "Feature", "properties": {"Name":"Bayshore CDP","State":"North Carolina","State_Abbrev":"NC"},
"geometry":{ "type": "Point", "coordinates": [-77.803796,34.288667]}},
{ "type": "Feature", "properties": {"Name":"Bayview CDP","State":"North Carolina","State_Abbrev":"NC"},
"geometry":{ "type": "Point", "coordinates": [-76.793428,35.441819]}},
{ "type": "Feature", "properties": {"Name":"Bear Grass town","State":"North Carolina","State_Abbrev":"NC"},
"geometry":{ "type": "Point", "coordinates": [-77.128885,35.76642]}},
{ "type": "Feature", "properties": {"Name":"Beaufort town","State":"North Carolina","State_Abbrev":"NC"},
"geometry":{ "type": "Point", "coordinates": [-76.651174,34.722711]}},
{ "type": "Feature", "properties": {"Name":"Beech Mountain town","State":"North Carolina","State_Abbrev":"NC"},
"geometry":{ "type": "Point", "coordinates": [-81.886989,36.210394]}},
{ "type": "Feature", "properties": {"Name":"Belhaven town","State":"North Carolina","State_Abbrev":"NC"},
"geometry":{ "type": "Point", "coordinates": [-76.623111,35.542961]}},
{ "type": "Feature", "properties": {"Name":"Bell Arthur CDP","State":"North Carolina","State_Abbrev":"NC"},
"geometry":{ "type": "Point", "coordinates": [-77.512705,35.591176]}},
{ "type": "Feature", "properties": {"Name":"Belmont city","State":"North Carolina","State_Abbrev":"NC"},
"geometry":{ "type": "Point", "coordinates": [-81.041089,35.221284]}},
{ "type": "Feature", "properties": {"Name":"Belville town","State":"North Carolina","State_Abbrev":"NC"},
"geometry":{ "type": "Point", "coordinates": [-77.9988,34.216748]}},
{ "type": "Feature", "properties": {"Name":"Belvoir CDP","State":"North Carolina","State_Abbrev":"NC"},
"geometry":{ "type": "Point", "coordinates": [-77.469931,35.711075]}},
{ "type": "Feature", "properties": {"Name":"Belwood town","State":"North Carolina","State_Abbrev":"NC"},
"geometry":{ "type": "Point", "coordinates": [-81.527441,35.484345]}},
{ "type": "Feature", "properties": {"Name":"Bennett CDP","State":"North Carolina","State_Abbrev":"NC"},
"geometry":{ "type": "Point", "coordinates": [-79.534612,35.57528]}},
{ "type": "Feature", "properties": {"Name":"Benson town","State":"North Carolina","State_Abbrev":"NC"},
"geometry":{ "type": "Point", "coordinates": [-78.540866,35.387089]}},
{ "type": "Feature", "properties": {"Name":"Bent Creek CDP","State":"North Carolina","State_Abbrev":"NC"},
"geometry":{ "type": "Point", "coordinates": [-82.616987,35.511109]}},
{ "type": "Feature", "properties": {"Name":"Bermuda Run town","State":"North Carolina","State_Abbrev":"NC"},
"geometry":{ "type": "Point", "coordinates": [-80.42907,36.004278]}},
{ "type": "Feature", "properties": {"Name":"Bessemer City city","State":"North Carolina","State_Abbrev":"NC"},
"geometry":{ "type": "Point", "coordinates": [-81.282885,35.284332]}},
{ "type": "Feature", "properties": {"Name":"Bethania town","State":"North Carolina","State_Abbrev":"NC"},
"geometry":{ "type": "Point", "coordinates": [-80.334858,36.179802]}},
{ "type": "Feature", "properties": {"Name":"Bethel town","State":"North Carolina","State_Abbrev":"NC"},
"geometry":{ "type": "Point", "coordinates": [-77.37625,35.807223]}},
{ "type": "Feature", "properties": {"Name":"Bethlehem CDP","State":"North Carolina","State_Abbrev":"NC"},
"geometry":{ "type": "Point", "coordinates": [-81.300757,35.817531]}},
{ "type": "Feature", "properties": {"Name":"Beulaville town","State":"North Carolina","State_Abbrev":"NC"},
"geometry":{ "type": "Point", "coordinates": [-77.771315,34.922782]}},
{ "type": "Feature", "properties": {"Name":"Biltmore Forest town","State":"North Carolina","State_Abbrev":"NC"},
"geometry":{ "type": "Point", "coordinates": [-82.537941,35.534945]}},
{ "type": "Feature", "properties": {"Name":"Biscoe town","State":"North Carolina","State_Abbrev":"NC"},
"geometry":{ "type": "Point", "coordinates": [-79.779714,35.358939]}},
{ "type": "Feature", "properties": {"Name":"Black Creek town","State":"North Carolina","State_Abbrev":"NC"},
"geometry":{ "type": "Point", "coordinates": [-77.932613,35.63683]}},
{ "type": "Feature", "properties": {"Name":"Black Mountain town","State":"North Carolina","State_Abbrev":"NC"},
"geometry":{ "type": "Point", "coordinates": [-82.327856,35.614963]}},
{ "type": "Feature", "properties": {"Name":"Bladenboro town","State":"North Carolina","State_Abbrev":"NC"},
"geometry":{ "type": "Point", "coordinates": [-78.79466,34.54087]}},
{ "type": "Feature", "properties": {"Name":"Blowing Rock town","State":"North Carolina","State_Abbrev":"NC"},
"geometry":{ "type": "Point", "coordinates": [-81.666326,36.129182]}},
{ "type": "Feature", "properties": {"Name":"Blue Clay Farms CDP","State":"North Carolina","State_Abbrev":"NC"},
"geometry":{ "type": "Point", "coordinates": [-77.891303,34.298725]}},
{ "type": "Feature", "properties": {"Name":"Boardman town","State":"North Carolina","State_Abbrev":"NC"},
"geometry":{ "type": "Point", "coordinates": [-78.942602,34.430143]}},
{ "type": "Feature", "properties": {"Name":"Bogue town","State":"North Carolina","State_Abbrev":"NC"},
"geometry":{ "type": "Point", "coordinates": [-77.028471,34.691677]}},
{ "type": "Feature", "properties": {"Name":"Boiling Spring Lakes city","State":"North Carolina","State_Abbrev":"NC"},
"geometry":{ "type": "Point", "coordinates": [-78.074891,34.043913]}},
{ "type": "Feature", "properties": {"Name":"Boiling Springs town","State":"North Carolina","State_Abbrev":"NC"},
"geometry":{ "type": "Point", "coordinates": [-81.663595,35.252053]}},
{ "type": "Feature", "properties": {"Name":"Bolivia town","State":"North Carolina","State_Abbrev":"NC"},
"geometry":{ "type": "Point", "coordinates": [-78.147365,34.069925]}},
{ "type": "Feature", "properties": {"Name":"Bolton town","State":"North Carolina","State_Abbrev":"NC"},
"geometry":{ "type": "Point", "coordinates": [-78.397685,34.317425]}},
{ "type": "Feature", "properties": {"Name":"Bonnetsville CDP","State":"North Carolina","State_Abbrev":"NC"},
"geometry":{ "type": "Point", "coordinates": [-78.401857,35.005679]}},
{ "type": "Feature", "properties": {"Name":"Boone town","State":"North Carolina","State_Abbrev":"NC"},
"geometry":{ "type": "Point", "coordinates": [-81.665197,36.213842]}},
{ "type": "Feature", "properties": {"Name":"Boonville town","State":"North Carolina","State_Abbrev":"NC"},
"geometry":{ "type": "Point", "coordinates": [-80.709317,36.233965]}},
{ "type": "Feature", "properties": {"Name":"Bostic town","State":"North Carolina","State_Abbrev":"NC"},
"geometry":{ "type": "Point", "coordinates": [-81.835988,35.362456]}},
{ "type": "Feature", "properties": {"Name":"Bowdens CDP","State":"North Carolina","State_Abbrev":"NC"},
"geometry":{ "type": "Point", "coordinates": [-78.108367,35.061866]}},
{ "type": "Feature", "properties": {"Name":"Bowmore CDP","State":"North Carolina","State_Abbrev":"NC"},
"geometry":{ "type": "Point", "coordinates": [-79.299959,34.935847]}},
{ "type": "Feature", "properties": {"Name":"Brandywine Bay CDP","State":"North Carolina","State_Abbrev":"NC"},
"geometry":{ "type": "Point", "coordinates": [-76.83002,34.740379]}},
{ "type": "Feature", "properties": {"Name":"Brevard city","State":"North Carolina","State_Abbrev":"NC"},
"geometry":{ "type": "Point", "coordinates": [-82.726863,35.243141]}},
{ "type": "Feature", "properties": {"Name":"Briar Chapel CDP","State":"North Carolina","State_Abbrev":"NC"},
"geometry":{ "type": "Point", "coordinates": [-79.116832,35.824161]}},
{ "type": "Feature", "properties": {"Name":"Brices Creek CDP","State":"North Carolina","State_Abbrev":"NC"},
"geometry":{ "type": "Point", "coordinates": [-77.081921,35.036957]}},
{ "type": "Feature", "properties": {"Name":"Bridgeton town","State":"North Carolina","State_Abbrev":"NC"},
"geometry":{ "type": "Point", "coordinates": [-77.012553,35.127835]}},
{ "type": "Feature", "properties": {"Name":"Broad Creek CDP","State":"North Carolina","State_Abbrev":"NC"},
"geometry":{ "type": "Point", "coordinates": [-76.919025,34.73411]}},
{ "type": "Feature", "properties": {"Name":"Broadway town","State":"North Carolina","State_Abbrev":"NC"},
"geometry":{ "type": "Point", "coordinates": [-79.057165,35.45729]}},
{ "type": "Feature", "properties": {"Name":"Brogden CDP","State":"North Carolina","State_Abbrev":"NC"},
"geometry":{ "type": "Point", "coordinates": [-78.029375,35.295581]}},
{ "type": "Feature", "properties": {"Name":"Brookford town","State":"North Carolina","State_Abbrev":"NC"},
"geometry":{ "type": "Point", "coordinates": [-81.344474,35.703143]}},
{ "type": "Feature", "properties": {"Name":"Brunswick town","State":"North Carolina","State_Abbrev":"NC"},
"geometry":{ "type": "Point", "coordinates": [-78.70479,34.290797]}},
{ "type": "Feature", "properties": {"Name":"Bryson City town","State":"North Carolina","State_Abbrev":"NC"},
"geometry":{ "type": "Point", "coordinates": [-83.447265,35.42661]}},
{ "type": "Feature", "properties": {"Name":"Buies Creek CDP","State":"North Carolina","State_Abbrev":"NC"},
"geometry":{ "type": "Point", "coordinates": [-78.743178,35.40785]}},
{ "type": "Feature", "properties": {"Name":"Bunn town","State":"North Carolina","State_Abbrev":"NC"},
"geometry":{ "type": "Point", "coordinates": [-78.251893,35.959059]}},
{ "type": "Feature", "properties": {"Name":"Bunnlevel CDP","State":"North Carolina","State_Abbrev":"NC"},
"geometry":{ "type": "Point", "coordinates": [-78.759121,35.306505]}},
{ "type": "Feature", "properties": {"Name":"Burgaw town","State":"North Carolina","State_Abbrev":"NC"},
"geometry":{ "type": "Point", "coordinates": [-77.923012,34.551466]}},
{ "type": "Feature", "properties": {"Name":"Burlington city","State":"North Carolina","State_Abbrev":"NC"},
"geometry":{ "type": "Point", "coordinates": [-79.4683,36.076128]}},
{ "type": "Feature", "properties": {"Name":"Burnsville town","State":"North Carolina","State_Abbrev":"NC"},
"geometry":{ "type": "Point", "coordinates": [-82.297697,35.916312]}},
{ "type": "Feature", "properties": {"Name":"Butner town","State":"North Carolina","State_Abbrev":"NC"},
"geometry":{ "type": "Point", "coordinates": [-78.740676,36.134328]}},
{ "type": "Feature", "properties": {"Name":"Butters CDP","State":"North Carolina","State_Abbrev":"NC"},
"geometry":{ "type": "Point", "coordinates": [-78.851126,34.566514]}},
{ "type": "Feature", "properties": {"Name":"Buxton CDP","State":"North Carolina","State_Abbrev":"NC"},
"geometry":{ "type": "Point", "coordinates": [-75.538313,35.253294]}},
{ "type": "Feature", "properties": {"Name":"Cajah's Mountain town","State":"North Carolina","State_Abbrev":"NC"},
"geometry":{ "type": "Point", "coordinates": [-81.536187,35.850711]}},
{ "type": "Feature", "properties": {"Name":"Calabash town","State":"North Carolina","State_Abbrev":"NC"},
"geometry":{ "type": "Point", "coordinates": [-78.557291,33.892563]}},
{ "type": "Feature", "properties": {"Name":"Calypso town","State":"North Carolina","State_Abbrev":"NC"},
"geometry":{ "type": "Point", "coordinates": [-78.104411,35.154609]}},
{ "type": "Feature", "properties": {"Name":"Camden CDP","State":"North Carolina","State_Abbrev":"NC"},
"geometry":{ "type": "Point", "coordinates": [-76.169189,36.325193]}},
{ "type": "Feature", "properties": {"Name":"Cameron town","State":"North Carolina","State_Abbrev":"NC"},
"geometry":{ "type": "Point", "coordinates": [-79.254178,35.325872]}},
{ "type": "Feature", "properties": {"Name":"Candor town","State":"North Carolina","State_Abbrev":"NC"},
"geometry":{ "type": "Point", "coordinates": [-79.732521,35.296389]}},
{ "type": "Feature", "properties": {"Name":"Canton town","State":"North Carolina","State_Abbrev":"NC"},
"geometry":{ "type": "Point", "coordinates": [-82.848575,35.53888]}},
{ "type": "Feature", "properties": {"Name":"Cape Carteret town","State":"North Carolina","State_Abbrev":"NC"},
"geometry":{ "type": "Point", "coordinates": [-77.060196,34.69432]}},
{ "type": "Feature", "properties": {"Name":"Cape Colony CDP","State":"North Carolina","State_Abbrev":"NC"},
"geometry":{ "type": "Point", "coordinates": [-76.582774,36.019624]}},
{ "type": "Feature", "properties": {"Name":"Caroleen CDP","State":"North Carolina","State_Abbrev":"NC"},
"geometry":{ "type": "Point", "coordinates": [-81.791373,35.281094]}},
{ "type": "Feature", "properties": {"Name":"Carolina Beach town","State":"North Carolina","State_Abbrev":"NC"},
"geometry":{ "type": "Point", "coordinates": [-77.899788,34.041874]}},
{ "type": "Feature", "properties": {"Name":"Carolina Meadows CDP","State":"North Carolina","State_Abbrev":"NC"},
"geometry":{ "type": "Point", "coordinates": [-79.017884,35.859725]}},
{ "type": "Feature", "properties": {"Name":"Carolina Shores town","State":"North Carolina","State_Abbrev":"NC"},
"geometry":{ "type": "Point", "coordinates": [-78.57311,33.907949]}},
{ "type": "Feature", "properties": {"Name":"Carrboro town","State":"North Carolina","State_Abbrev":"NC"},
"geometry":{ "type": "Point", "coordinates": [-79.086995,35.92623]}},
{ "type": "Feature", "properties": {"Name":"Carthage town","State":"North Carolina","State_Abbrev":"NC"},
"geometry":{ "type": "Point", "coordinates": [-79.410927,35.322266]}},
{ "type": "Feature", "properties": {"Name":"Cary town","State":"North Carolina","State_Abbrev":"NC"},
"geometry":{ "type": "Point", "coordinates": [-78.823444,35.781302]}},
{ "type": "Feature", "properties": {"Name":"Casar town","State":"North Carolina","State_Abbrev":"NC"},
"geometry":{ "type": "Point", "coordinates": [-81.616844,35.512708]}},
{ "type": "Feature", "properties": {"Name":"Cashiers CDP","State":"North Carolina","State_Abbrev":"NC"},
"geometry":{ "type": "Point", "coordinates": [-83.098001,35.107936]}},
{ "type": "Feature", "properties": {"Name":"Castalia town","State":"North Carolina","State_Abbrev":"NC"},
"geometry":{ "type": "Point", "coordinates": [-78.057597,36.082279]}},
{ "type": "Feature", "properties": {"Name":"Castle Hayne CDP","State":"North Carolina","State_Abbrev":"NC"},
"geometry":{ "type": "Point", "coordinates": [-77.909889,34.35551]}},
{ "type": "Feature", "properties": {"Name":"Caswell Beach town","State":"North Carolina","State_Abbrev":"NC"},
"geometry":{ "type": "Point", "coordinates": [-78.048656,33.905869]}},
{ "type": "Feature", "properties": {"Name":"Catawba town","State":"North Carolina","State_Abbrev":"NC"},
"geometry":{ "type": "Point", "coordinates": [-81.069547,35.707622]}},
{ "type": "Feature", "properties": {"Name":"Cedar Point town","State":"North Carolina","State_Abbrev":"NC"},
"geometry":{ "type": "Point", "coordinates": [-77.081521,34.685756]}},
{ "type": "Feature", "properties": {"Name":"Cedar Rock village","State":"North Carolina","State_Abbrev":"NC"},
"geometry":{ "type": "Point", "coordinates": [-81.458373,35.943458]}},
{ "type": "Feature", "properties": {"Name":"Centerville CDP","State":"North Carolina","State_Abbrev":"NC"},
"geometry":{ "type": "Point", "coordinates": [-78.114439,36.188019]}},
{ "type": "Feature", "properties": {"Name":"Cerro Gordo town","State":"North Carolina","State_Abbrev":"NC"},
"geometry":{ "type": "Point", "coordinates": [-78.928722,34.322567]}},
{ "type": "Feature", "properties": {"Name":"Chadbourn town","State":"North Carolina","State_Abbrev":"NC"},
"geometry":{ "type": "Point", "coordinates": [-78.82499,34.325165]}},
{ "type": "Feature", "properties": {"Name":"Chapel Hill town","State":"North Carolina","State_Abbrev":"NC"},
"geometry":{ "type": "Point", "coordinates": [-79.045124,35.921285]}},
{ "type": "Feature", "properties": {"Name":"Charlotte city","State":"North Carolina","State_Abbrev":"NC"},
"geometry":{ "type": "Point", "coordinates": [-80.83099,35.209045]}},
{ "type": "Feature", "properties": {"Name":"Cherokee CDP","State":"North Carolina","State_Abbrev":"NC"},
"geometry":{ "type": "Point", "coordinates": [-83.301093,35.485954]}},
{ "type": "Feature", "properties": {"Name":"Cherry Branch CDP","State":"North Carolina","State_Abbrev":"NC"},
"geometry":{ "type": "Point", "coordinates": [-76.811196,34.934316]}},
{ "type": "Feature", "properties": {"Name":"Cherryville city","State":"North Carolina","State_Abbrev":"NC"},
"geometry":{ "type": "Point", "coordinates": [-81.378942,35.384566]}},
{ "type": "Feature", "properties": {"Name":"Chimney Rock Village village","State":"North Carolina","State_Abbrev":"NC"},
"geometry":{ "type": "Point", "coordinates": [-82.255159,35.450979]}},
{ "type": "Feature", "properties": {"Name":"China Grove town","State":"North Carolina","State_Abbrev":"NC"},
"geometry":{ "type": "Point", "coordinates": [-80.576535,35.571383]}},
{ "type": "Feature", "properties": {"Name":"Chinquapin CDP","State":"North Carolina","State_Abbrev":"NC"},
"geometry":{ "type": "Point", "coordinates": [-77.824596,34.829229]}},
{ "type": "Feature", "properties": {"Name":"Chocowinity town","State":"North Carolina","State_Abbrev":"NC"},
"geometry":{ "type": "Point", "coordinates": [-77.10147,35.51464]}},
{ "type": "Feature", "properties": {"Name":"Chowan Beach CDP","State":"North Carolina","State_Abbrev":"NC"},
"geometry":{ "type": "Point", "coordinates": [-76.712414,36.213926]}},
{ "type": "Feature", "properties": {"Name":"Claremont city","State":"North Carolina","State_Abbrev":"NC"},
"geometry":{ "type": "Point", "coordinates": [-81.154724,35.709438]}},
{ "type": "Feature", "properties": {"Name":"Clarkton town","State":"North Carolina","State_Abbrev":"NC"},
"geometry":{ "type": "Point", "coordinates": [-78.655849,34.488647]}},
{ "type": "Feature", "properties": {"Name":"Clayton town","State":"North Carolina","State_Abbrev":"NC"},
"geometry":{ "type": "Point", "coordinates": [-78.448539,35.652449]}},
{ "type": "Feature", "properties": {"Name":"Clemmons village","State":"North Carolina","State_Abbrev":"NC"},
"geometry":{ "type": "Point", "coordinates": [-80.386699,36.033223]}},
{ "type": "Feature", "properties": {"Name":"Cleveland town","State":"North Carolina","State_Abbrev":"NC"},
"geometry":{ "type": "Point", "coordinates": [-80.681677,35.733065]}},
{ "type": "Feature", "properties": {"Name":"Cliffside CDP","State":"North Carolina","State_Abbrev":"NC"},
"geometry":{ "type": "Point", "coordinates": [-81.765287,35.248003]}},
{ "type": "Feature", "properties": {"Name":"Clinton city","State":"North Carolina","State_Abbrev":"NC"},
"geometry":{ "type": "Point", "coordinates": [-78.33154,35.00043]}},
{ "type": "Feature", "properties": {"Name":"Clyde town","State":"North Carolina","State_Abbrev":"NC"},
"geometry":{ "type": "Point", "coordinates": [-82.910826,35.533083]}},
{ "type": "Feature", "properties": {"Name":"Coats town","State":"North Carolina","State_Abbrev":"NC"},
"geometry":{ "type": "Point", "coordinates": [-78.668393,35.406911]}},
{ "type": "Feature", "properties": {"Name":"Cofield village","State":"North Carolina","State_Abbrev":"NC"},
"geometry":{ "type": "Point", "coordinates": [-76.910517,36.356689]}},
{ "type": "Feature", "properties": {"Name":"Coinjock CDP","State":"North Carolina","State_Abbrev":"NC"},
"geometry":{ "type": "Point", "coordinates": [-75.952011,36.350964]}},
{ "type": "Feature", "properties": {"Name":"Colerain town","State":"North Carolina","State_Abbrev":"NC"},
"geometry":{ "type": "Point", "coordinates": [-76.7664,36.201573]}},
{ "type": "Feature", "properties": {"Name":"Columbia town","State":"North Carolina","State_Abbrev":"NC"},
"geometry":{ "type": "Point", "coordinates": [-76.24048,35.923406]}},
{ "type": "Feature", "properties": {"Name":"Columbus town","State":"North Carolina","State_Abbrev":"NC"},
"geometry":{ "type": "Point", "coordinates": [-82.209786,35.251165]}},
{ "type": "Feature", "properties": {"Name":"Como town","State":"North Carolina","State_Abbrev":"NC"},
"geometry":{ "type": "Point", "coordinates": [-76.999618,36.498273]}},
{ "type": "Feature", "properties": {"Name":"Concord city","State":"North Carolina","State_Abbrev":"NC"},
"geometry":{ "type": "Point", "coordinates": [-80.63551,35.392094]}},
{ "type": "Feature", "properties": {"Name":"Conetoe town","State":"North Carolina","State_Abbrev":"NC"},
"geometry":{ "type": "Point", "coordinates": [-77.457113,35.817812]}},
{ "type": "Feature", "properties": {"Name":"Connelly Springs town","State":"North Carolina","State_Abbrev":"NC"},
"geometry":{ "type": "Point", "coordinates": [-81.497047,35.754991]}},
{ "type": "Feature", "properties": {"Name":"Conover city","State":"North Carolina","State_Abbrev":"NC"},
"geometry":{ "type": "Point", "coordinates": [-81.216825,35.715216]}},
{ "type": "Feature", "properties": {"Name":"Conway town","State":"North Carolina","State_Abbrev":"NC"},
"geometry":{ "type": "Point", "coordinates": [-77.2287,36.438869]}},
{ "type": "Feature", "properties": {"Name":"Cooleemee town","State":"North Carolina","State_Abbrev":"NC"},
"geometry":{ "type": "Point", "coordinates": [-80.556923,35.811245]}},
{ "type": "Feature", "properties": {"Name":"Cordova CDP","State":"North Carolina","State_Abbrev":"NC"},
"geometry":{ "type": "Point", "coordinates": [-79.815778,34.914723]}},
{ "type": "Feature", "properties": {"Name":"Cornelius town","State":"North Carolina","State_Abbrev":"NC"},
"geometry":{ "type": "Point", "coordinates": [-80.881329,35.473234]}},
{ "type": "Feature", "properties": {"Name":"Cove City town","State":"North Carolina","State_Abbrev":"NC"},
"geometry":{ "type": "Point", "coordinates": [-77.320524,35.188968]}},
{ "type": "Feature", "properties": {"Name":"Cove Creek CDP","State":"North Carolina","State_Abbrev":"NC"},
"geometry":{ "type": "Point", "coordinates": [-81.786373,36.287392]}},
{ "type": "Feature", "properties": {"Name":"Cramerton town","State":"North Carolina","State_Abbrev":"NC"},
"geometry":{ "type": "Point", "coordinates": [-81.073257,35.23004]}},
{ "type": "Feature", "properties": {"Name":"Creedmoor city","State":"North Carolina","State_Abbrev":"NC"},
"geometry":{ "type": "Point", "coordinates": [-78.677955,36.125026]}},
{ "type": "Feature", "properties": {"Name":"Creswell town","State":"North Carolina","State_Abbrev":"NC"},
"geometry":{ "type": "Point", "coordinates": [-76.399127,35.871421]}},
{ "type": "Feature", "properties": {"Name":"Cricket CDP","State":"North Carolina","State_Abbrev":"NC"},
"geometry":{ "type": "Point", "coordinates": [-81.193401,36.168844]}},
{ "type": "Feature", "properties": {"Name":"Crossnore town","State":"North Carolina","State_Abbrev":"NC"},
"geometry":{ "type": "Point", "coordinates": [-81.930841,36.022198]}},
{ "type": "Feature", "properties": {"Name":"Crouse CDP","State":"North Carolina","State_Abbrev":"NC"},
"geometry":{ "type": "Point", "coordinates": [-81.30123,35.424107]}},
{ "type": "Feature", "properties": {"Name":"Cullowhee CDP","State":"North Carolina","State_Abbrev":"NC"},
"geometry":{ "type": "Point", "coordinates": [-83.181548,35.309726]}},
{ "type": "Feature", "properties": {"Name":"Cypress Landing CDP","State":"North Carolina","State_Abbrev":"NC"},
"geometry":{ "type": "Point", "coordinates": [-77.054678,35.497573]}},
{ "type": "Feature", "properties": {"Name":"Dallas town","State":"North Carolina","State_Abbrev":"NC"},
"geometry":{ "type": "Point", "coordinates": [-81.183183,35.317935]}},
{ "type": "Feature", "properties": {"Name":"Dana CDP","State":"North Carolina","State_Abbrev":"NC"},
"geometry":{ "type": "Point", "coordinates": [-82.361094,35.320602]}},
{ "type": "Feature", "properties": {"Name":"Danbury town","State":"North Carolina","State_Abbrev":"NC"},
"geometry":{ "type": "Point", "coordinates": [-80.211747,36.41098]}},
{ "type": "Feature", "properties": {"Name":"Davidson town","State":"North Carolina","State_Abbrev":"NC"},
"geometry":{ "type": "Point", "coordinates": [-80.820914,35.480656]}},
{ "type": "Feature", "properties": {"Name":"Davis CDP","State":"North Carolina","State_Abbrev":"NC"},
"geometry":{ "type": "Point", "coordinates": [-76.468564,34.790939]}},
{ "type": "Feature", "properties": {"Name":"Deep Run CDP","State":"North Carolina","State_Abbrev":"NC"},
"geometry":{ "type": "Point", "coordinates": [-77.716192,35.141429]}},
{ "type": "Feature", "properties": {"Name":"Deercroft CDP","State":"North Carolina","State_Abbrev":"NC"},
"geometry":{ "type": "Point", "coordinates": [-79.433091,34.957125]}},
{ "type": "Feature", "properties": {"Name":"Delco CDP","State":"North Carolina","State_Abbrev":"NC"},
"geometry":{ "type": "Point", "coordinates": [-78.226661,34.318818]}},
{ "type": "Feature", "properties": {"Name":"Dellview town","State":"North Carolina","State_Abbrev":"NC"},
"geometry":{ "type": "Point", "coordinates": [-81.412707,35.386552]}},
{ "type": "Feature", "properties": {"Name":"Delway CDP","State":"North Carolina","State_Abbrev":"NC"},
"geometry":{ "type": "Point", "coordinates": [-78.215334,34.81902]}},
{ "type": "Feature", "properties": {"Name":"Denton town","State":"North Carolina","State_Abbrev":"NC"},
"geometry":{ "type": "Point", "coordinates": [-80.110205,35.637992]}},
{ "type": "Feature", "properties": {"Name":"Denver CDP","State":"North Carolina","State_Abbrev":"NC"},
"geometry":{ "type": "Point", "coordinates": [-81.044706,35.545552]}},
{ "type": "Feature", "properties": {"Name":"Dillsboro town","State":"North Carolina","State_Abbrev":"NC"},
"geometry":{ "type": "Point", "coordinates": [-83.25262,35.370606]}},
{ "type": "Feature", "properties": {"Name":"Dobbins Heights town","State":"North Carolina","State_Abbrev":"NC"},
"geometry":{ "type": "Point", "coordinates": [-79.6933,34.90688]}},
{ "type": "Feature", "properties": {"Name":"Dobson town","State":"North Carolina","State_Abbrev":"NC"},
"geometry":{ "type": "Point", "coordinates": [-80.723739,36.392641]}},
{ "type": "Feature", "properties": {"Name":"Dortches town","State":"North Carolina","State_Abbrev":"NC"},
"geometry":{ "type": "Point", "coordinates": [-77.857229,36.011422]}},
{ "type": "Feature", "properties": {"Name":"Dover town","State":"North Carolina","State_Abbrev":"NC"},
"geometry":{ "type": "Point", "coordinates": [-77.433779,35.215477]}},
{ "type": "Feature", "properties": {"Name":"Drexel town","State":"North Carolina","State_Abbrev":"NC"},
"geometry":{ "type": "Point", "coordinates": [-81.608757,35.756843]}},
{ "type": "Feature", "properties": {"Name":"Dublin town","State":"North Carolina","State_Abbrev":"NC"},
"geometry":{ "type": "Point", "coordinates": [-78.723094,34.656249]}},
{ "type": "Feature", "properties": {"Name":"Duck town","State":"North Carolina","State_Abbrev":"NC"},
"geometry":{ "type": "Point", "coordinates": [-75.754772,36.185219]}},
{ "type": "Feature", "properties": {"Name":"Dudley CDP","State":"North Carolina","State_Abbrev":"NC"},
"geometry":{ "type": "Point", "coordinates": [-78.040487,35.265187]}},
{ "type": "Feature", "properties": {"Name":"Dundarrach CDP","State":"North Carolina","State_Abbrev":"NC"},
"geometry":{ "type": "Point", "coordinates": [-79.157461,34.924666]}},
{ "type": "Feature", "properties": {"Name":"Dunn city","State":"North Carolina","State_Abbrev":"NC"},
"geometry":{ "type": "Point", "coordinates": [-78.612962,35.311635]}},
{ "type": "Feature", "properties": {"Name":"Durham city","State":"North Carolina","State_Abbrev":"NC"},
"geometry":{ "type": "Point", "coordinates": [-78.900058,35.978164]}},
{ "type": "Feature", "properties": {"Name":"Earl town","State":"North Carolina","State_Abbrev":"NC"},
"geometry":{ "type": "Point", "coordinates": [-81.53401,35.195424]}},
{ "type": "Feature", "properties": {"Name":"East Arcadia town","State":"North Carolina","State_Abbrev":"NC"},
"geometry":{ "type": "Point", "coordinates": [-78.323186,34.381603]}},
{ "type": "Feature", "properties": {"Name":"East Bend town","State":"North Carolina","State_Abbrev":"NC"},
"geometry":{ "type": "Point", "coordinates": [-80.508899,36.217472]}},
{ "type": "Feature", "properties": {"Name":"East Flat Rock CDP","State":"North Carolina","State_Abbrev":"NC"},
"geometry":{ "type": "Point", "coordinates": [-82.416555,35.280999]}},
{ "type": "Feature", "properties": {"Name":"East Laurinburg town","State":"North Carolina","State_Abbrev":"NC"},
"geometry":{ "type": "Point", "coordinates": [-79.445078,34.769079]}},
{ "type": "Feature", "properties": {"Name":"Eastover town","State":"North Carolina","State_Abbrev":"NC"},
"geometry":{ "type": "Point", "coordinates": [-78.786234,35.095268]}},
{ "type": "Feature", "properties": {"Name":"East Rockingham CDP","State":"North Carolina","State_Abbrev":"NC"},
"geometry":{ "type": "Point", "coordinates": [-79.764838,34.911881]}},
{ "type": "Feature", "properties": {"Name":"East Spencer town","State":"North Carolina","State_Abbrev":"NC"},
"geometry":{ "type": "Point", "coordinates": [-80.422714,35.681544]}},
{ "type": "Feature", "properties": {"Name":"Eden city","State":"North Carolina","State_Abbrev":"NC"},
"geometry":{ "type": "Point", "coordinates": [-79.74002,36.503042]}},
{ "type": "Feature", "properties": {"Name":"Edenton town","State":"North Carolina","State_Abbrev":"NC"},
"geometry":{ "type": "Point", "coordinates": [-76.598979,36.058565]}},
{ "type": "Feature", "properties": {"Name":"Edneyville CDP","State":"North Carolina","State_Abbrev":"NC"},
"geometry":{ "type": "Point", "coordinates": [-82.334286,35.402561]}},
{ "type": "Feature", "properties": {"Name":"Efland CDP","State":"North Carolina","State_Abbrev":"NC"},
"geometry":{ "type": "Point", "coordinates": [-79.17134,36.080386]}},
{ "type": "Feature", "properties": {"Name":"Elizabeth City city","State":"North Carolina","State_Abbrev":"NC"},
"geometry":{ "type": "Point", "coordinates": [-76.237809,36.294197]}},
{ "type": "Feature", "properties": {"Name":"Elizabethtown town","State":"North Carolina","State_Abbrev":"NC"},
"geometry":{ "type": "Point", "coordinates": [-78.606829,34.621974]}},
{ "type": "Feature", "properties": {"Name":"Elkin town","State":"North Carolina","State_Abbrev":"NC"},
"geometry":{ "type": "Point", "coordinates": [-80.847106,36.263365]}},
{ "type": "Feature", "properties": {"Name":"Elk Park town","State":"North Carolina","State_Abbrev":"NC"},
"geometry":{ "type": "Point", "coordinates": [-81.980813,36.158247]}},
{ "type": "Feature", "properties": {"Name":"Ellenboro town","State":"North Carolina","State_Abbrev":"NC"},
"geometry":{ "type": "Point", "coordinates": [-81.761274,35.330878]}},
{ "type": "Feature", "properties": {"Name":"Ellerbe town","State":"North Carolina","State_Abbrev":"NC"},
"geometry":{ "type": "Point", "coordinates": [-79.756986,35.069501]}},
{ "type": "Feature", "properties": {"Name":"Elm City town","State":"North Carolina","State_Abbrev":"NC"},
"geometry":{ "type": "Point", "coordinates": [-77.856682,35.804042]}},
{ "type": "Feature", "properties": {"Name":"Elon town","State":"North Carolina","State_Abbrev":"NC"},
"geometry":{ "type": "Point", "coordinates": [-79.508787,36.102266]}},
{ "type": "Feature", "properties": {"Name":"Elrod CDP","State":"North Carolina","State_Abbrev":"NC"},
"geometry":{ "type": "Point", "coordinates": [-79.23076,34.607243]}},
{ "type": "Feature", "properties": {"Name":"Elroy CDP","State":"North Carolina","State_Abbrev":"NC"},
"geometry":{ "type": "Point", "coordinates": [-77.922561,35.330766]}},
{ "type": "Feature", "properties": {"Name":"Emerald Isle town","State":"North Carolina","State_Abbrev":"NC"},
"geometry":{ "type": "Point", "coordinates": [-77.031368,34.664426]}},
{ "type": "Feature", "properties": {"Name":"Emma CDP","State":"North Carolina","State_Abbrev":"NC"},
"geometry":{ "type": "Point", "coordinates": [-82.59577,35.601974]}},
{ "type": "Feature", "properties": {"Name":"Enfield town","State":"North Carolina","State_Abbrev":"NC"},
"geometry":{ "type": "Point", "coordinates": [-77.669023,36.179924]}},
{ "type": "Feature", "properties": {"Name":"Engelhard CDP","State":"North Carolina","State_Abbrev":"NC"},
"geometry":{ "type": "Point", "coordinates": [-76.00946,35.509235]}},
{ "type": "Feature", "properties": {"Name":"Enochville CDP","State":"North Carolina","State_Abbrev":"NC"},
"geometry":{ "type": "Point", "coordinates": [-80.665783,35.520179]}},
{ "type": "Feature", "properties": {"Name":"Erwin town","State":"North Carolina","State_Abbrev":"NC"},
"geometry":{ "type": "Point", "coordinates": [-78.67353,35.322217]}},
{ "type": "Feature", "properties": {"Name":"Etowah CDP","State":"North Carolina","State_Abbrev":"NC"},
"geometry":{ "type": "Point", "coordinates": [-82.588679,35.304442]}},
{ "type": "Feature", "properties": {"Name":"Eureka town","State":"North Carolina","State_Abbrev":"NC"},
"geometry":{ "type": "Point", "coordinates": [-77.876325,35.541389]}},
{ "type": "Feature", "properties": {"Name":"Everetts town","State":"North Carolina","State_Abbrev":"NC"},
"geometry":{ "type": "Point", "coordinates": [-77.17212,35.834608]}},
{ "type": "Feature", "properties": {"Name":"Evergreen CDP","State":"North Carolina","State_Abbrev":"NC"},
"geometry":{ "type": "Point", "coordinates": [-78.911375,34.41486]}},
{ "type": "Feature", "properties": {"Name":"Fair Bluff town","State":"North Carolina","State_Abbrev":"NC"},
"geometry":{ "type": "Point", "coordinates": [-79.033124,34.312581]}},
{ "type": "Feature", "properties": {"Name":"Fairfield CDP","State":"North Carolina","State_Abbrev":"NC"},
"geometry":{ "type": "Point", "coordinates": [-76.226508,35.5504]}},
{ "type": "Feature", "properties": {"Name":"Fairfield Harbour CDP","State":"North Carolina","State_Abbrev":"NC"},
"geometry":{ "type": "Point", "coordinates": [-76.958375,35.069514]}},
{ "type": "Feature", "properties": {"Name":"Fairmont town","State":"North Carolina","State_Abbrev":"NC"},
"geometry":{ "type": "Point", "coordinates": [-79.113202,34.494759]}},
{ "type": "Feature", "properties": {"Name":"Fairplains CDP","State":"North Carolina","State_Abbrev":"NC"},
"geometry":{ "type": "Point", "coordinates": [-81.151533,36.192925]}},
{ "type": "Feature", "properties": {"Name":"Fairview CDP","State":"North Carolina","State_Abbrev":"NC"},
"geometry":{ "type": "Point", "coordinates": [-82.401308,35.522518]}},
{ "type": "Feature", "properties": {"Name":"Fairview town","State":"North Carolina","State_Abbrev":"NC"},
"geometry":{ "type": "Point", "coordinates": [-80.524387,35.15598]}},
{ "type": "Feature", "properties": {"Name":"Faison town","State":"North Carolina","State_Abbrev":"NC"},
"geometry":{ "type": "Point", "coordinates": [-78.136287,35.116461]}},
{ "type": "Feature", "properties": {"Name":"Faith town","State":"North Carolina","State_Abbrev":"NC"},
"geometry":{ "type": "Point", "coordinates": [-80.458304,35.58999]}},
{ "type": "Feature", "properties": {"Name":"Falcon town","State":"North Carolina","State_Abbrev":"NC"},
"geometry":{ "type": "Point", "coordinates": [-78.65389,35.194804]}},
{ "type": "Feature", "properties": {"Name":"Falkland town","State":"North Carolina","State_Abbrev":"NC"},
"geometry":{ "type": "Point", "coordinates": [-77.512878,35.698537]}},
{ "type": "Feature", "properties": {"Name":"Fallston town","State":"North Carolina","State_Abbrev":"NC"},
"geometry":{ "type": "Point", "coordinates": [-81.502178,35.429414]}},
{ "type": "Feature", "properties": {"Name":"Farmington CDP","State":"North Carolina","State_Abbrev":"NC"},
"geometry":{ "type": "Point", "coordinates": [-80.535687,36.008493]}},
{ "type": "Feature", "properties": {"Name":"Farmville town","State":"North Carolina","State_Abbrev":"NC"},
"geometry":{ "type": "Point", "coordinates": [-77.590618,35.595026]}},
{ "type": "Feature", "properties": {"Name":"Fayetteville city","State":"North Carolina","State_Abbrev":"NC"},
"geometry":{ "type": "Point", "coordinates": [-78.973515,35.082766]}},
{ "type": "Feature", "properties": {"Name":"Fearrington Village CDP","State":"North Carolina","State_Abbrev":"NC"},
"geometry":{ "type": "Point", "coordinates": [-79.079024,35.79832]}},
{ "type": "Feature", "properties": {"Name":"Five Points CDP","State":"North Carolina","State_Abbrev":"NC"},
"geometry":{ "type": "Point", "coordinates": [-79.351267,35.015402]}},
{ "type": "Feature", "properties": {"Name":"Flat Rock village","State":"North Carolina","State_Abbrev":"NC"},
"geometry":{ "type": "Point", "coordinates": [-82.451618,35.266841]}},
{ "type": "Feature", "properties": {"Name":"Flat Rock CDP","State":"North Carolina","State_Abbrev":"NC"},
"geometry":{ "type": "Point", "coordinates": [-80.58218,36.508005]}},
{ "type": "Feature", "properties": {"Name":"Fletcher town","State":"North Carolina","State_Abbrev":"NC"},
"geometry":{ "type": "Point", "coordinates": [-82.50743,35.432863]}},
{ "type": "Feature", "properties": {"Name":"Fontana Dam town","State":"North Carolina","State_Abbrev":"NC"},
"geometry":{ "type": "Point", "coordinates": [-83.8248,35.432797]}},
{ "type": "Feature", "properties": {"Name":"Forest City town","State":"North Carolina","State_Abbrev":"NC"},
"geometry":{ "type": "Point", "coordinates": [-81.870751,35.334708]}},
{ "type": "Feature", "properties": {"Name":"Forest Hills village","State":"North Carolina","State_Abbrev":"NC"},
"geometry":{ "type": "Point", "coordinates": [-83.195423,35.295759]}},
{ "type": "Feature", "properties": {"Name":"Forest Oaks CDP","State":"North Carolina","State_Abbrev":"NC"},
"geometry":{ "type": "Point", "coordinates": [-79.708028,35.988461]}},
{ "type": "Feature", "properties": {"Name":"Foscoe CDP","State":"North Carolina","State_Abbrev":"NC"},
"geometry":{ "type": "Point", "coordinates": [-81.776466,36.152278]}},
{ "type": "Feature", "properties": {"Name":"Fountain town","State":"North Carolina","State_Abbrev":"NC"},
"geometry":{ "type": "Point", "coordinates": [-77.631673,35.672112]}},
{ "type": "Feature", "properties": {"Name":"Four Oaks town","State":"North Carolina","State_Abbrev":"NC"},
"geometry":{ "type": "Point", "coordinates": [-78.418551,35.450625]}},
{ "type": "Feature", "properties": {"Name":"Foxfire village","State":"North Carolina","State_Abbrev":"NC"},
"geometry":{ "type": "Point", "coordinates": [-79.562976,35.178492]}},
{ "type": "Feature", "properties": {"Name":"Franklin town","State":"North Carolina","State_Abbrev":"NC"},
"geometry":{ "type": "Point", "coordinates": [-83.380691,35.179422]}},
{ "type": "Feature", "properties": {"Name":"Franklinton town","State":"North Carolina","State_Abbrev":"NC"},
"geometry":{ "type": "Point", "coordinates": [-78.455083,36.10114]}},
{ "type": "Feature", "properties": {"Name":"Franklinville town","State":"North Carolina","State_Abbrev":"NC"},
"geometry":{ "type": "Point", "coordinates": [-79.684222,35.739424]}},
{ "type": "Feature", "properties": {"Name":"Fremont town","State":"North Carolina","State_Abbrev":"NC"},
"geometry":{ "type": "Point", "coordinates": [-77.975132,35.543685]}},
{ "type": "Feature", "properties": {"Name":"Frisco CDP","State":"North Carolina","State_Abbrev":"NC"},
"geometry":{ "type": "Point", "coordinates": [-75.59873,35.247856]}},
{ "type": "Feature", "properties": {"Name":"Fruitland CDP","State":"North Carolina","State_Abbrev":"NC"},
"geometry":{ "type": "Point", "coordinates": [-82.421255,35.397784]}},
{ "type": "Feature", "properties": {"Name":"Fuquay-Varina town","State":"North Carolina","State_Abbrev":"NC"},
"geometry":{ "type": "Point", "coordinates": [-78.777201,35.597567]}},
{ "type": "Feature", "properties": {"Name":"Gamewell town","State":"North Carolina","State_Abbrev":"NC"},
"geometry":{ "type": "Point", "coordinates": [-81.597809,35.863975]}},
{ "type": "Feature", "properties": {"Name":"Garland town","State":"North Carolina","State_Abbrev":"NC"},
"geometry":{ "type": "Point", "coordinates": [-78.394917,34.785902]}},
{ "type": "Feature", "properties": {"Name":"Garner town","State":"North Carolina","State_Abbrev":"NC"},
"geometry":{ "type": "Point", "coordinates": [-78.614929,35.693552]}},
{ "type": "Feature", "properties": {"Name":"Garysburg town","State":"North Carolina","State_Abbrev":"NC"},
"geometry":{ "type": "Point", "coordinates": [-77.560383,36.447851]}},
{ "type": "Feature", "properties": {"Name":"Gaston town","State":"North Carolina","State_Abbrev":"NC"},
"geometry":{ "type": "Point", "coordinates": [-77.646416,36.495229]}},
{ "type": "Feature", "properties": {"Name":"Gastonia city","State":"North Carolina","State_Abbrev":"NC"},
"geometry":{ "type": "Point", "coordinates": [-81.186436,35.248796]}},
{ "type": "Feature", "properties": {"Name":"Gatesville town","State":"North Carolina","State_Abbrev":"NC"},
"geometry":{ "type": "Point", "coordinates": [-76.756592,36.407355]}},
{ "type": "Feature", "properties": {"Name":"Germanton CDP","State":"North Carolina","State_Abbrev":"NC"},
"geometry":{ "type": "Point", "coordinates": [-80.239041,36.250145]}},
{ "type": "Feature", "properties": {"Name":"Gerton CDP","State":"North Carolina","State_Abbrev":"NC"},
"geometry":{ "type": "Point", "coordinates": [-82.350409,35.475785]}},
{ "type": "Feature", "properties": {"Name":"Gibson town","State":"North Carolina","State_Abbrev":"NC"},
"geometry":{ "type": "Point", "coordinates": [-79.606882,34.759489]}},
{ "type": "Feature", "properties": {"Name":"Gibsonville town","State":"North Carolina","State_Abbrev":"NC"},
"geometry":{ "type": "Point", "coordinates": [-79.542008,36.101958]}},
{ "type": "Feature", "properties": {"Name":"Glen Alpine town","State":"North Carolina","State_Abbrev":"NC"},
"geometry":{ "type": "Point", "coordinates": [-81.782576,35.73074]}},
{ "type": "Feature", "properties": {"Name":"Glen Raven CDP","State":"North Carolina","State_Abbrev":"NC"},
"geometry":{ "type": "Point", "coordinates": [-79.464759,36.125482]}},
{ "type": "Feature", "properties": {"Name":"Glenville CDP","State":"North Carolina","State_Abbrev":"NC"},
"geometry":{ "type": "Point", "coordinates": [-83.120371,35.16925]}},
{ "type": "Feature", "properties": {"Name":"Glenwood CDP","State":"North Carolina","State_Abbrev":"NC"},
"geometry":{ "type": "Point", "coordinates": [-81.982792,35.615788]}},
{ "type": "Feature", "properties": {"Name":"Gloucester CDP","State":"North Carolina","State_Abbrev":"NC"},
"geometry":{ "type": "Point", "coordinates": [-76.538617,34.73211]}},
{ "type": "Feature", "properties": {"Name":"Godwin town","State":"North Carolina","State_Abbrev":"NC"},
"geometry":{ "type": "Point", "coordinates": [-78.677273,35.209478]}},
{ "type": "Feature", "properties": {"Name":"Gold Hill CDP","State":"North Carolina","State_Abbrev":"NC"},
"geometry":{ "type": "Point", "coordinates": [-80.347491,35.518597]}},
{ "type": "Feature", "properties": {"Name":"Goldsboro city","State":"North Carolina","State_Abbrev":"NC"},
"geometry":{ "type": "Point", "coordinates": [-77.971869,35.378226]}},
{ "type": "Feature", "properties": {"Name":"Goldston town","State":"North Carolina","State_Abbrev":"NC"},
"geometry":{ "type": "Point", "coordinates": [-79.326032,35.593352]}},
{ "type": "Feature", "properties": {"Name":"Gorman CDP","State":"North Carolina","State_Abbrev":"NC"},
"geometry":{ "type": "Point", "coordinates": [-78.806865,36.041782]}},
{ "type": "Feature", "properties": {"Name":"Governors Club CDP","State":"North Carolina","State_Abbrev":"NC"},
"geometry":{ "type": "Point", "coordinates": [-79.04751,35.842155]}},
{ "type": "Feature", "properties": {"Name":"Governors Village CDP","State":"North Carolina","State_Abbrev":"NC"},
"geometry":{ "type": "Point", "coordinates": [-79.025541,35.853016]}},
{ "type": "Feature", "properties": {"Name":"Graham city","State":"North Carolina","State_Abbrev":"NC"},
"geometry":{ "type": "Point", "coordinates": [-79.389436,36.056356]}},
{ "type": "Feature", "properties": {"Name":"Graingers CDP","State":"North Carolina","State_Abbrev":"NC"},
"geometry":{ "type": "Point", "coordinates": [-77.506613,35.316313]}},
{ "type": "Feature", "properties": {"Name":"Grandfather Village village","State":"North Carolina","State_Abbrev":"NC"},
"geometry":{ "type": "Point", "coordinates": [-81.853802,36.09303]}},
{ "type": "Feature", "properties": {"Name":"Grandy CDP","State":"North Carolina","State_Abbrev":"NC"},
"geometry":{ "type": "Point", "coordinates": [-75.879817,36.235206]}},
{ "type": "Feature", "properties": {"Name":"Granite Falls town","State":"North Carolina","State_Abbrev":"NC"},
"geometry":{ "type": "Point", "coordinates": [-81.424353,35.797235]}},
{ "type": "Feature", "properties": {"Name":"Granite Quarry town","State":"North Carolina","State_Abbrev":"NC"},
"geometry":{ "type": "Point", "coordinates": [-80.448688,35.612938]}},
{ "type": "Feature", "properties": {"Name":"Grantsboro town","State":"North Carolina","State_Abbrev":"NC"},
"geometry":{ "type": "Point", "coordinates": [-76.844682,35.144868]}},
{ "type": "Feature", "properties": {"Name":"Greenevers town","State":"North Carolina","State_Abbrev":"NC"},
"geometry":{ "type": "Point", "coordinates": [-77.925135,34.827134]}},
{ "type": "Feature", "properties": {"Name":"Green Level town","State":"North Carolina","State_Abbrev":"NC"},
"geometry":{ "type": "Point", "coordinates": [-79.344995,36.122758]}},
{ "type": "Feature", "properties": {"Name":"Greensboro city","State":"North Carolina","State_Abbrev":"NC"},
"geometry":{ "type": "Point", "coordinates": [-79.825447,36.095246]}},
{ "type": "Feature", "properties": {"Name":"Greenville city","State":"North Carolina","State_Abbrev":"NC"},
"geometry":{ "type": "Point", "coordinates": [-77.375256,35.596431]}},
{ "type": "Feature", "properties": {"Name":"Grifton town","State":"North Carolina","State_Abbrev":"NC"},
"geometry":{ "type": "Point", "coordinates": [-77.442479,35.380043]}},
{ "type": "Feature", "properties": {"Name":"Grimesland town","State":"North Carolina","State_Abbrev":"NC"},
"geometry":{ "type": "Point", "coordinates": [-77.198198,35.567103]}},
{ "type": "Feature", "properties": {"Name":"Grover town","State":"North Carolina","State_Abbrev":"NC"},
"geometry":{ "type": "Point", "coordinates": [-81.458069,35.171663]}},
{ "type": "Feature", "properties": {"Name":"Gulf CDP","State":"North Carolina","State_Abbrev":"NC"},
"geometry":{ "type": "Point", "coordinates": [-79.280824,35.557605]}},
{ "type": "Feature", "properties": {"Name":"Half Moon CDP","State":"North Carolina","State_Abbrev":"NC"},
"geometry":{ "type": "Point", "coordinates": [-77.459131,34.829764]}},
{ "type": "Feature", "properties": {"Name":"Halifax town","State":"North Carolina","State_Abbrev":"NC"},
"geometry":{ "type": "Point", "coordinates": [-77.590095,36.325495]}},
{ "type": "Feature", "properties": {"Name":"Hallsboro CDP","State":"North Carolina","State_Abbrev":"NC"},
"geometry":{ "type": "Point", "coordinates": [-78.593376,34.318915]}},
{ "type": "Feature", "properties": {"Name":"Hamilton town","State":"North Carolina","State_Abbrev":"NC"},
"geometry":{ "type": "Point", "coordinates": [-77.206745,35.944378]}},
{ "type": "Feature", "properties": {"Name":"Hamlet city","State":"North Carolina","State_Abbrev":"NC"},
"geometry":{ "type": "Point", "coordinates": [-79.710612,34.889203]}},
{ "type": "Feature", "properties": {"Name":"Hampstead CDP","State":"North Carolina","State_Abbrev":"NC"},
"geometry":{ "type": "Point", "coordinates": [-77.754305,34.36246]}},
{ "type": "Feature", "properties": {"Name":"Harkers Island CDP","State":"North Carolina","State_Abbrev":"NC"},
"geometry":{ "type": "Point", "coordinates": [-76.555547,34.698038]}},
{ "type": "Feature", "properties": {"Name":"Harmony town","State":"North Carolina","State_Abbrev":"NC"},
"geometry":{ "type": "Point", "coordinates": [-80.774406,35.958041]}},
{ "type": "Feature", "properties": {"Name":"Harrells town","State":"North Carolina","State_Abbrev":"NC"},
"geometry":{ "type": "Point", "coordinates": [-78.201514,34.727835]}},
{ "type": "Feature", "properties": {"Name":"Harrellsville town","State":"North Carolina","State_Abbrev":"NC"},
"geometry":{ "type": "Point", "coordinates": [-76.791777,36.301674]}},
{ "type": "Feature", "properties": {"Name":"Harrisburg town","State":"North Carolina","State_Abbrev":"NC"},
"geometry":{ "type": "Point", "coordinates": [-80.645849,35.307549]}},
{ "type": "Feature", "properties": {"Name":"Hassell town","State":"North Carolina","State_Abbrev":"NC"},
"geometry":{ "type": "Point", "coordinates": [-77.27636,35.908579]}},
{ "type": "Feature", "properties": {"Name":"Hatteras CDP","State":"North Carolina","State_Abbrev":"NC"},
"geometry":{ "type": "Point", "coordinates": [-75.687947,35.219928]}},
{ "type": "Feature", "properties": {"Name":"Havelock city","State":"North Carolina","State_Abbrev":"NC"},
"geometry":{ "type": "Point", "coordinates": [-76.899469,34.908905]}},
{ "type": "Feature", "properties": {"Name":"Haw River town","State":"North Carolina","State_Abbrev":"NC"},
"geometry":{ "type": "Point", "coordinates": [-79.361949,36.094833]}},
{ "type": "Feature", "properties": {"Name":"Hayesville town","State":"North Carolina","State_Abbrev":"NC"},
"geometry":{ "type": "Point", "coordinates": [-83.817935,35.045018]}},
{ "type": "Feature", "properties": {"Name":"Hays CDP","State":"North Carolina","State_Abbrev":"NC"},
"geometry":{ "type": "Point", "coordinates": [-81.114163,36.246892]}},
{ "type": "Feature", "properties": {"Name":"Hemby Bridge town","State":"North Carolina","State_Abbrev":"NC"},
"geometry":{ "type": "Point", "coordinates": [-80.624889,35.108725]}},
{ "type": "Feature", "properties": {"Name":"Henderson city","State":"North Carolina","State_Abbrev":"NC"},
"geometry":{ "type": "Point", "coordinates": [-78.414923,36.32604]}},
{ "type": "Feature", "properties": {"Name":"Hendersonville city","State":"North Carolina","State_Abbrev":"NC"},
"geometry":{ "type": "Point", "coordinates": [-82.456741,35.324952]}},
{ "type": "Feature", "properties": {"Name":"Henrietta CDP","State":"North Carolina","State_Abbrev":"NC"},
"geometry":{ "type": "Point", "coordinates": [-81.804409,35.257827]}},
{ "type": "Feature", "properties": {"Name":"Hertford town","State":"North Carolina","State_Abbrev":"NC"},
"geometry":{ "type": "Point", "coordinates": [-76.466552,36.176849]}},
{ "type": "Feature", "properties": {"Name":"Hickory city","State":"North Carolina","State_Abbrev":"NC"},
"geometry":{ "type": "Point", "coordinates": [-81.321818,35.740092]}},
{ "type": "Feature", "properties": {"Name":"Hiddenite CDP","State":"North Carolina","State_Abbrev":"NC"},
"geometry":{ "type": "Point", "coordinates": [-81.081056,35.9077]}},
{ "type": "Feature", "properties": {"Name":"Highlands town","State":"North Carolina","State_Abbrev":"NC"},
"geometry":{ "type": "Point", "coordinates": [-83.197579,35.053845]}},
{ "type": "Feature", "properties": {"Name":"High Point city","State":"North Carolina","State_Abbrev":"NC"},
"geometry":{ "type": "Point", "coordinates": [-79.992713,35.990803]}},
{ "type": "Feature", "properties": {"Name":"High Shoals city","State":"North Carolina","State_Abbrev":"NC"},
"geometry":{ "type": "Point", "coordinates": [-81.202072,35.389979]}},
{ "type": "Feature", "properties": {"Name":"Hightsville CDP","State":"North Carolina","State_Abbrev":"NC"},
"geometry":{ "type": "Point", "coordinates": [-77.937498,34.269353]}},
{ "type": "Feature", "properties": {"Name":"Hildebran town","State":"North Carolina","State_Abbrev":"NC"},
"geometry":{ "type": "Point", "coordinates": [-81.421031,35.7182]}},
{ "type": "Feature", "properties": {"Name":"Hillsborough town","State":"North Carolina","State_Abbrev":"NC"},
"geometry":{ "type": "Point", "coordinates": [-79.097979,36.077903]}},
{ "type": "Feature", "properties": {"Name":"Hobgood town","State":"North Carolina","State_Abbrev":"NC"},
"geometry":{ "type": "Point", "coordinates": [-77.393977,36.026734]}},
{ "type": "Feature", "properties": {"Name":"Hobucken CDP","State":"North Carolina","State_Abbrev":"NC"},
"geometry":{ "type": "Point", "coordinates": [-76.573099,35.251758]}},
{ "type": "Feature", "properties": {"Name":"Hoffman town","State":"North Carolina","State_Abbrev":"NC"},
"geometry":{ "type": "Point", "coordinates": [-79.549136,35.031323]}},
{ "type": "Feature", "properties": {"Name":"Holden Beach town","State":"North Carolina","State_Abbrev":"NC"},
"geometry":{ "type": "Point", "coordinates": [-78.320769,33.911987]}},
{ "type": "Feature", "properties": {"Name":"Hollister CDP","State":"North Carolina","State_Abbrev":"NC"},
"geometry":{ "type": "Point", "coordinates": [-77.935694,36.258282]}},
{ "type": "Feature", "properties": {"Name":"Holly Ridge town","State":"North Carolina","State_Abbrev":"NC"},
"geometry":{ "type": "Point", "coordinates": [-77.56315,34.493482]}},
{ "type": "Feature", "properties": {"Name":"Holly Springs town","State":"North Carolina","State_Abbrev":"NC"},
"geometry":{ "type": "Point", "coordinates": [-78.840759,35.653276]}},
{ "type": "Feature", "properties": {"Name":"Hookerton town","State":"North Carolina","State_Abbrev":"NC"},
"geometry":{ "type": "Point", "coordinates": [-77.589371,35.422976]}},
{ "type": "Feature", "properties": {"Name":"Hoopers Creek CDP","State":"North Carolina","State_Abbrev":"NC"},
"geometry":{ "type": "Point", "coordinates": [-82.435624,35.444918]}},
{ "type": "Feature", "properties": {"Name":"Hope Mills town","State":"North Carolina","State_Abbrev":"NC"},
"geometry":{ "type": "Point", "coordinates": [-78.956815,34.97112]}},
{ "type": "Feature", "properties": {"Name":"Horse Shoe CDP","State":"North Carolina","State_Abbrev":"NC"},
"geometry":{ "type": "Point", "coordinates": [-82.562696,35.332385]}},
{ "type": "Feature", "properties": {"Name":"Hot Springs town","State":"North Carolina","State_Abbrev":"NC"},
"geometry":{ "type": "Point", "coordinates": [-82.829421,35.893553]}},
{ "type": "Feature", "properties": {"Name":"Hudson town","State":"North Carolina","State_Abbrev":"NC"},
"geometry":{ "type": "Point", "coordinates": [-81.486711,35.847743]}},
{ "type": "Feature", "properties": {"Name":"Huntersville town","State":"North Carolina","State_Abbrev":"NC"},
"geometry":{ "type": "Point", "coordinates": [-80.86868,35.40681]}},
{ "type": "Feature", "properties": {"Name":"Icard CDP","State":"North Carolina","State_Abbrev":"NC"},
"geometry":{ "type": "Point", "coordinates": [-81.458469,35.72547]}},
{ "type": "Feature", "properties": {"Name":"Indian Beach town","State":"North Carolina","State_Abbrev":"NC"},
"geometry":{ "type": "Point", "coordinates": [-76.898158,34.685566]}},
{ "type": "Feature", "properties": {"Name":"Indian Trail town","State":"North Carolina","State_Abbrev":"NC"},
"geometry":{ "type": "Point", "coordinates": [-80.642431,35.07171]}},
{ "type": "Feature", "properties": {"Name":"Ingold CDP","State":"North Carolina","State_Abbrev":"NC"},
"geometry":{ "type": "Point", "coordinates": [-78.351773,34.827653]}},
{ "type": "Feature", "properties": {"Name":"Iron Station CDP","State":"North Carolina","State_Abbrev":"NC"},
"geometry":{ "type": "Point", "coordinates": [-81.154713,35.453943]}},
{ "type": "Feature", "properties": {"Name":"Ivanhoe CDP","State":"North Carolina","State_Abbrev":"NC"},
"geometry":{ "type": "Point", "coordinates": [-78.251697,34.583625]}},
{ "type": "Feature", "properties": {"Name":"JAARS CDP","State":"North Carolina","State_Abbrev":"NC"},
"geometry":{ "type": "Point", "coordinates": [-80.750261,34.864493]}},
{ "type": "Feature", "properties": {"Name":"Jackson town","State":"North Carolina","State_Abbrev":"NC"},
"geometry":{ "type": "Point", "coordinates": [-77.419341,36.390095]}},
{ "type": "Feature", "properties": {"Name":"Jackson Heights CDP","State":"North Carolina","State_Abbrev":"NC"},
"geometry":{ "type": "Point", "coordinates": [-77.633272,35.22362]}},
{ "type": "Feature", "properties": {"Name":"Jackson Springs CDP","State":"North Carolina","State_Abbrev":"NC"},
"geometry":{ "type": "Point", "coordinates": [-79.629762,35.212675]}},
{ "type": "Feature", "properties": {"Name":"Jacksonville city","State":"North Carolina","State_Abbrev":"NC"},
"geometry":{ "type": "Point", "coordinates": [-77.393661,34.72973]}},
{ "type": "Feature", "properties": {"Name":"James City CDP","State":"North Carolina","State_Abbrev":"NC"},
"geometry":{ "type": "Point", "coordinates": [-76.998097,35.045369]}},
{ "type": "Feature", "properties": {"Name":"Jamestown town","State":"North Carolina","State_Abbrev":"NC"},
"geometry":{ "type": "Point", "coordinates": [-79.934601,35.998445]}},
{ "type": "Feature", "properties": {"Name":"Jamesville town","State":"North Carolina","State_Abbrev":"NC"},
"geometry":{ "type": "Point", "coordinates": [-76.900182,35.812198]}},
{ "type": "Feature", "properties": {"Name":"Jefferson town","State":"North Carolina","State_Abbrev":"NC"},
"geometry":{ "type": "Point", "coordinates": [-81.468261,36.420551]}},
{ "type": "Feature", "properties": {"Name":"Jonesville town","State":"North Carolina","State_Abbrev":"NC"},
"geometry":{ "type": "Point", "coordinates": [-80.83368,36.23528]}},
{ "type": "Feature", "properties": {"Name":"Kannapolis city","State":"North Carolina","State_Abbrev":"NC"},
"geometry":{ "type": "Point", "coordinates": [-80.638448,35.477466]}},
{ "type": "Feature", "properties": {"Name":"Keener CDP","State":"North Carolina","State_Abbrev":"NC"},
"geometry":{ "type": "Point", "coordinates": [-78.298372,35.121096]}},
{ "type": "Feature", "properties": {"Name":"Kelford town","State":"North Carolina","State_Abbrev":"NC"},
"geometry":{ "type": "Point", "coordinates": [-77.224303,36.181248]}},
{ "type": "Feature", "properties": {"Name":"Kelly CDP","State":"North Carolina","State_Abbrev":"NC"},
"geometry":{ "type": "Point", "coordinates": [-78.310961,34.463963]}},
{ "type": "Feature", "properties": {"Name":"Kenansville town","State":"North Carolina","State_Abbrev":"NC"},
"geometry":{ "type": "Point", "coordinates": [-77.965993,34.959836]}},
{ "type": "Feature", "properties": {"Name":"Kenly town","State":"North Carolina","State_Abbrev":"NC"},
"geometry":{ "type": "Point", "coordinates": [-78.127935,35.600767]}},
{ "type": "Feature", "properties": {"Name":"Kernersville town","State":"North Carolina","State_Abbrev":"NC"},
"geometry":{ "type": "Point", "coordinates": [-80.084523,36.106342]}},
{ "type": "Feature", "properties": {"Name":"Kill Devil Hills town","State":"North Carolina","State_Abbrev":"NC"},
"geometry":{ "type": "Point", "coordinates": [-75.671355,36.01711]}},
{ "type": "Feature", "properties": {"Name":"King city","State":"North Carolina","State_Abbrev":"NC"},
"geometry":{ "type": "Point", "coordinates": [-80.356863,36.27468]}},
{ "type": "Feature", "properties": {"Name":"Kings Grant CDP","State":"North Carolina","State_Abbrev":"NC"},
"geometry":{ "type": "Point", "coordinates": [-77.860998,34.265906]}},
{ "type": "Feature", "properties": {"Name":"Kings Mountain city","State":"North Carolina","State_Abbrev":"NC"},
"geometry":{ "type": "Point", "coordinates": [-81.350403,35.235763]}},
{ "type": "Feature", "properties": {"Name":"Kingstown town","State":"North Carolina","State_Abbrev":"NC"},
"geometry":{ "type": "Point", "coordinates": [-81.620051,35.362105]}},
{ "type": "Feature", "properties": {"Name":"Kinston city","State":"North Carolina","State_Abbrev":"NC"},
"geometry":{ "type": "Point", "coordinates": [-77.593368,35.275099]}},
{ "type": "Feature", "properties": {"Name":"Kittrell town","State":"North Carolina","State_Abbrev":"NC"},
"geometry":{ "type": "Point", "coordinates": [-78.441334,36.221807]}},
{ "type": "Feature", "properties": {"Name":"Kitty Hawk town","State":"North Carolina","State_Abbrev":"NC"},
"geometry":{ "type": "Point", "coordinates": [-75.717216,36.07012]}},
{ "type": "Feature", "properties": {"Name":"Knightdale town","State":"North Carolina","State_Abbrev":"NC"},
"geometry":{ "type": "Point", "coordinates": [-78.496457,35.791726]}},
{ "type": "Feature", "properties": {"Name":"Kure Beach town","State":"North Carolina","State_Abbrev":"NC"},
"geometry":{ "type": "Point", "coordinates": [-77.90758,33.999336]}},
{ "type": "Feature", "properties": {"Name":"La Grange town","State":"North Carolina","State_Abbrev":"NC"},
"geometry":{ "type": "Point", "coordinates": [-77.789906,35.306519]}},
{ "type": "Feature", "properties": {"Name":"Lake Junaluska CDP","State":"North Carolina","State_Abbrev":"NC"},
"geometry":{ "type": "Point", "coordinates": [-82.972773,35.530206]}},
{ "type": "Feature", "properties": {"Name":"Lake Lure town","State":"North Carolina","State_Abbrev":"NC"},
"geometry":{ "type": "Point", "coordinates": [-82.2022,35.448384]}},
{ "type": "Feature", "properties": {"Name":"Lake Norman of Catawba CDP","State":"North Carolina","State_Abbrev":"NC"},
"geometry":{ "type": "Point", "coordinates": [-80.987543,35.598359]}},
{ "type": "Feature", "properties": {"Name":"Lake Norman of Iredell CDP","State":"North Carolina","State_Abbrev":"NC"},
"geometry":{ "type": "Point", "coordinates": [-80.929939,35.54431]}},
{ "type": "Feature", "properties": {"Name":"Lake Park village","State":"North Carolina","State_Abbrev":"NC"},
"geometry":{ "type": "Point", "coordinates": [-80.634374,35.084487]}},
{ "type": "Feature", "properties": {"Name":"Lake Royale CDP","State":"North Carolina","State_Abbrev":"NC"},
"geometry":{ "type": "Point", "coordinates": [-78.192232,35.964886]}},
{ "type": "Feature", "properties": {"Name":"Lake Santeetlah town","State":"North Carolina","State_Abbrev":"NC"},
"geometry":{ "type": "Point", "coordinates": [-83.866444,35.364004]}},
{ "type": "Feature", "properties": {"Name":"Lake Waccamaw town","State":"North Carolina","State_Abbrev":"NC"},
"geometry":{ "type": "Point", "coordinates": [-78.511186,34.318218]}},
{ "type": "Feature", "properties": {"Name":"Landis town","State":"North Carolina","State_Abbrev":"NC"},
"geometry":{ "type": "Point", "coordinates": [-80.610475,35.549567]}},
{ "type": "Feature", "properties": {"Name":"Lansing town","State":"North Carolina","State_Abbrev":"NC"},
"geometry":{ "type": "Point", "coordinates": [-81.509641,36.49947]}},
{ "type": "Feature", "properties": {"Name":"Lasker town","State":"North Carolina","State_Abbrev":"NC"},
"geometry":{ "type": "Point", "coordinates": [-77.305747,36.350221]}},
{ "type": "Feature", "properties": {"Name":"Lattimore town","State":"North Carolina","State_Abbrev":"NC"},
"geometry":{ "type": "Point", "coordinates": [-81.660204,35.315388]}},
{ "type": "Feature", "properties": {"Name":"Laurel Hill CDP","State":"North Carolina","State_Abbrev":"NC"},
"geometry":{ "type": "Point", "coordinates": [-79.54546,34.809526]}},
{ "type": "Feature", "properties": {"Name":"Laurel Park town","State":"North Carolina","State_Abbrev":"NC"},
"geometry":{ "type": "Point", "coordinates": [-82.505774,35.311547]}},
{ "type": "Feature", "properties": {"Name":"Laurinburg city","State":"North Carolina","State_Abbrev":"NC"},
"geometry":{ "type": "Point", "coordinates": [-79.477378,34.762138]}},
{ "type": "Feature", "properties": {"Name":"Lawndale town","State":"North Carolina","State_Abbrev":"NC"},
"geometry":{ "type": "Point", "coordinates": [-81.562104,35.414384]}},
{ "type": "Feature", "properties": {"Name":"Leggett town","State":"North Carolina","State_Abbrev":"NC"},
"geometry":{ "type": "Point", "coordinates": [-77.580111,35.989512]}},
{ "type": "Feature", "properties": {"Name":"Leland town","State":"North Carolina","State_Abbrev":"NC"},
"geometry":{ "type": "Point", "coordinates": [-78.044659,34.222977]}},
{ "type": "Feature", "properties": {"Name":"Lenoir city","State":"North Carolina","State_Abbrev":"NC"},
"geometry":{ "type": "Point", "coordinates": [-81.524827,35.907679]}},
{ "type": "Feature", "properties": {"Name":"Lewiston Woodville town","State":"North Carolina","State_Abbrev":"NC"},
"geometry":{ "type": "Point", "coordinates": [-77.179554,36.114886]}},
{ "type": "Feature", "properties": {"Name":"Lewisville town","State":"North Carolina","State_Abbrev":"NC"},
"geometry":{ "type": "Point", "coordinates": [-80.424552,36.105194]}},
{ "type": "Feature", "properties": {"Name":"Lexington city","State":"North Carolina","State_Abbrev":"NC"},
"geometry":{ "type": "Point", "coordinates": [-80.274285,35.79718]}},
{ "type": "Feature", "properties": {"Name":"Liberty town","State":"North Carolina","State_Abbrev":"NC"},
"geometry":{ "type": "Point", "coordinates": [-79.569307,35.85503]}},
{ "type": "Feature", "properties": {"Name":"Light Oak CDP","State":"North Carolina","State_Abbrev":"NC"},
"geometry":{ "type": "Point", "coordinates": [-81.477386,35.286692]}},
{ "type": "Feature", "properties": {"Name":"Lilesville town","State":"North Carolina","State_Abbrev":"NC"},
"geometry":{ "type": "Point", "coordinates": [-79.984534,34.967494]}},
{ "type": "Feature", "properties": {"Name":"Lillington town","State":"North Carolina","State_Abbrev":"NC"},
"geometry":{ "type": "Point", "coordinates": [-78.811703,35.41308]}},
{ "type": "Feature", "properties": {"Name":"Lincolnton city","State":"North Carolina","State_Abbrev":"NC"},
"geometry":{ "type": "Point", "coordinates": [-81.238107,35.474854]}},
{ "type": "Feature", "properties": {"Name":"Linden town","State":"North Carolina","State_Abbrev":"NC"},
"geometry":{ "type": "Point", "coordinates": [-78.747619,35.254564]}},
{ "type": "Feature", "properties": {"Name":"Linville CDP","State":"North Carolina","State_Abbrev":"NC"},
"geometry":{ "type": "Point", "coordinates": [-81.871431,36.067474]}},
{ "type": "Feature", "properties": {"Name":"Littleton town","State":"North Carolina","State_Abbrev":"NC"},
"geometry":{ "type": "Point", "coordinates": [-77.911002,36.434316]}},
{ "type": "Feature", "properties": {"Name":"Locust city","State":"North Carolina","State_Abbrev":"NC"},
"geometry":{ "type": "Point", "coordinates": [-80.436614,35.268666]}},
{ "type": "Feature", "properties": {"Name":"Long Creek CDP","State":"North Carolina","State_Abbrev":"NC"},
"geometry":{ "type": "Point", "coordinates": [-78.017234,34.433991]}},
{ "type": "Feature", "properties": {"Name":"Long View town","State":"North Carolina","State_Abbrev":"NC"},
"geometry":{ "type": "Point", "coordinates": [-81.385475,35.723092]}},
{ "type": "Feature", "properties": {"Name":"Louisburg town","State":"North Carolina","State_Abbrev":"NC"},
"geometry":{ "type": "Point", "coordinates": [-78.300772,36.098724]}},
{ "type": "Feature", "properties": {"Name":"Love Valley town","State":"North Carolina","State_Abbrev":"NC"},
"geometry":{ "type": "Point", "coordinates": [-80.972558,35.989719]}},
{ "type": "Feature", "properties": {"Name":"Lowell city","State":"North Carolina","State_Abbrev":"NC"},
"geometry":{ "type": "Point", "coordinates": [-81.104927,35.275799]}},
{ "type": "Feature", "properties": {"Name":"Lowesville CDP","State":"North Carolina","State_Abbrev":"NC"},
"geometry":{ "type": "Point", "coordinates": [-81.005184,35.42452]}},
{ "type": "Feature", "properties": {"Name":"Lowgap CDP","State":"North Carolina","State_Abbrev":"NC"},
"geometry":{ "type": "Point", "coordinates": [-80.871226,36.524957]}},
{ "type": "Feature", "properties": {"Name":"Lucama town","State":"North Carolina","State_Abbrev":"NC"},
"geometry":{ "type": "Point", "coordinates": [-78.00744,35.644834]}},
{ "type": "Feature", "properties": {"Name":"Lumber Bridge town","State":"North Carolina","State_Abbrev":"NC"},
"geometry":{ "type": "Point", "coordinates": [-79.072258,34.889927]}},
{ "type": "Feature", "properties": {"Name":"Lumberton city","State":"North Carolina","State_Abbrev":"NC"},
"geometry":{ "type": "Point", "coordinates": [-79.018601,34.630608]}},
{ "type": "Feature", "properties": {"Name":"McAdenville town","State":"North Carolina","State_Abbrev":"NC"},
"geometry":{ "type": "Point", "coordinates": [-81.079919,35.265415]}},
{ "type": "Feature", "properties": {"Name":"Macclesfield town","State":"North Carolina","State_Abbrev":"NC"},
"geometry":{ "type": "Point", "coordinates": [-77.669686,35.752271]}},
{ "type": "Feature", "properties": {"Name":"McDonald town","State":"North Carolina","State_Abbrev":"NC"},
"geometry":{ "type": "Point", "coordinates": [-79.176253,34.553745]}},
{ "type": "Feature", "properties": {"Name":"McFarlan town","State":"North Carolina","State_Abbrev":"NC"},
"geometry":{ "type": "Point", "coordinates": [-79.976632,34.814818]}},
{ "type": "Feature", "properties": {"Name":"McLeansville CDP","State":"North Carolina","State_Abbrev":"NC"},
"geometry":{ "type": "Point", "coordinates": [-79.654748,36.097555]}},
{ "type": "Feature", "properties": {"Name":"Macon town","State":"North Carolina","State_Abbrev":"NC"},
"geometry":{ "type": "Point", "coordinates": [-78.083935,36.43959]}},
{ "type": "Feature", "properties": {"Name":"Madison town","State":"North Carolina","State_Abbrev":"NC"},
"geometry":{ "type": "Point", "coordinates": [-79.975984,36.393981]}},
{ "type": "Feature", "properties": {"Name":"Maggie Valley town","State":"North Carolina","State_Abbrev":"NC"},
"geometry":{ "type": "Point", "coordinates": [-83.100572,35.519107]}},
{ "type": "Feature", "properties": {"Name":"Magnolia town","State":"North Carolina","State_Abbrev":"NC"},
"geometry":{ "type": "Point", "coordinates": [-78.053284,34.896248]}},
{ "type": "Feature", "properties": {"Name":"Maiden town","State":"North Carolina","State_Abbrev":"NC"},
"geometry":{ "type": "Point", "coordinates": [-81.207201,35.571127]}},
{ "type": "Feature", "properties": {"Name":"Mamers CDP","State":"North Carolina","State_Abbrev":"NC"},
"geometry":{ "type": "Point", "coordinates": [-78.936614,35.411314]}},
{ "type": "Feature", "properties": {"Name":"Manns Harbor CDP","State":"North Carolina","State_Abbrev":"NC"},
"geometry":{ "type": "Point", "coordinates": [-75.780687,35.898488]}},
{ "type": "Feature", "properties": {"Name":"Manteo town","State":"North Carolina","State_Abbrev":"NC"},
"geometry":{ "type": "Point", "coordinates": [-75.651279,35.898596]}},
{ "type": "Feature", "properties": {"Name":"Marble CDP","State":"North Carolina","State_Abbrev":"NC"},
"geometry":{ "type": "Point", "coordinates": [-83.926506,35.177017]}},
{ "type": "Feature", "properties": {"Name":"Marietta town","State":"North Carolina","State_Abbrev":"NC"},
"geometry":{ "type": "Point", "coordinates": [-79.124858,34.368198]}},
{ "type": "Feature", "properties": {"Name":"Marion city","State":"North Carolina","State_Abbrev":"NC"},
"geometry":{ "type": "Point", "coordinates": [-82.001288,35.677565]}},
{ "type": "Feature", "properties": {"Name":"Mar-Mac CDP","State":"North Carolina","State_Abbrev":"NC"},
"geometry":{ "type": "Point", "coordinates": [-78.056992,35.330838]}},
{ "type": "Feature", "properties": {"Name":"Marshall town","State":"North Carolina","State_Abbrev":"NC"},
"geometry":{ "type": "Point", "coordinates": [-82.680022,35.798559]}},
{ "type": "Feature", "properties": {"Name":"Marshallberg CDP","State":"North Carolina","State_Abbrev":"NC"},
"geometry":{ "type": "Point", "coordinates": [-76.513556,34.726015]}},
{ "type": "Feature", "properties": {"Name":"Mars Hill town","State":"North Carolina","State_Abbrev":"NC"},
"geometry":{ "type": "Point", "coordinates": [-82.548563,35.828217]}},
{ "type": "Feature", "properties": {"Name":"Marshville town","State":"North Carolina","State_Abbrev":"NC"},
"geometry":{ "type": "Point", "coordinates": [-80.368977,34.986242]}},
{ "type": "Feature", "properties": {"Name":"Marvin village","State":"North Carolina","State_Abbrev":"NC"},
"geometry":{ "type": "Point", "coordinates": [-80.816668,34.999622]}},
{ "type": "Feature", "properties": {"Name":"Matthews town","State":"North Carolina","State_Abbrev":"NC"},
"geometry":{ "type": "Point", "coordinates": [-80.709693,35.119788]}},
{ "type": "Feature", "properties": {"Name":"Maury CDP","State":"North Carolina","State_Abbrev":"NC"},
"geometry":{ "type": "Point", "coordinates": [-77.590224,35.479202]}},
{ "type": "Feature", "properties": {"Name":"Maxton town","State":"North Carolina","State_Abbrev":"NC"},
"geometry":{ "type": "Point", "coordinates": [-79.352731,34.7365]}},
{ "type": "Feature", "properties": {"Name":"Mayodan town","State":"North Carolina","State_Abbrev":"NC"},
"geometry":{ "type": "Point", "coordinates": [-79.968895,36.422573]}},
{ "type": "Feature", "properties": {"Name":"Maysville town","State":"North Carolina","State_Abbrev":"NC"},
"geometry":{ "type": "Point", "coordinates": [-77.231975,34.907106]}},
{ "type": "Feature", "properties": {"Name":"Mebane city","State":"North Carolina","State_Abbrev":"NC"},
"geometry":{ "type": "Point", "coordinates": [-79.276742,36.081679]}},
{ "type": "Feature", "properties": {"Name":"Mesic town","State":"North Carolina","State_Abbrev":"NC"},
"geometry":{ "type": "Point", "coordinates": [-76.645831,35.204233]}},
{ "type": "Feature", "properties": {"Name":"Micro town","State":"North Carolina","State_Abbrev":"NC"},
"geometry":{ "type": "Point", "coordinates": [-78.203517,35.562379]}},
{ "type": "Feature", "properties": {"Name":"Middleburg town","State":"North Carolina","State_Abbrev":"NC"},
"geometry":{ "type": "Point", "coordinates": [-78.323436,36.398941]}},
{ "type": "Feature", "properties": {"Name":"Middlesex town","State":"North Carolina","State_Abbrev":"NC"},
"geometry":{ "type": "Point", "coordinates": [-78.204811,35.789383]}},
{ "type": "Feature", "properties": {"Name":"Midland town","State":"North Carolina","State_Abbrev":"NC"},
"geometry":{ "type": "Point", "coordinates": [-80.529954,35.249158]}},
{ "type": "Feature", "properties": {"Name":"Midway town","State":"North Carolina","State_Abbrev":"NC"},
"geometry":{ "type": "Point", "coordinates": [-80.220448,35.975135]}},
{ "type": "Feature", "properties": {"Name":"Millers Creek CDP","State":"North Carolina","State_Abbrev":"NC"},
"geometry":{ "type": "Point", "coordinates": [-81.235553,36.190867]}},
{ "type": "Feature", "properties": {"Name":"Millingport CDP","State":"North Carolina","State_Abbrev":"NC"},
"geometry":{ "type": "Point", "coordinates": [-80.311341,35.376354]}},
{ "type": "Feature", "properties": {"Name":"Mills River town","State":"North Carolina","State_Abbrev":"NC"},
"geometry":{ "type": "Point", "coordinates": [-82.588899,35.38135]}},
{ "type": "Feature", "properties": {"Name":"Milton town","State":"North Carolina","State_Abbrev":"NC"},
"geometry":{ "type": "Point", "coordinates": [-79.207937,36.537704]}},
{ "type": "Feature", "properties": {"Name":"Milwaukee CDP","State":"North Carolina","State_Abbrev":"NC"},
"geometry":{ "type": "Point", "coordinates": [-77.231213,36.402535]}},
{ "type": "Feature", "properties": {"Name":"Mineral Springs town","State":"North Carolina","State_Abbrev":"NC"},
"geometry":{ "type": "Point", "coordinates": [-80.686368,34.944236]}},
{ "type": "Feature", "properties": {"Name":"Minnesott Beach town","State":"North Carolina","State_Abbrev":"NC"},
"geometry":{ "type": "Point", "coordinates": [-76.824077,34.986499]}},
{ "type": "Feature", "properties": {"Name":"Mint Hill town","State":"North Carolina","State_Abbrev":"NC"},
"geometry":{ "type": "Point", "coordinates": [-80.655698,35.178473]}},
{ "type": "Feature", "properties": {"Name":"Misenheimer village","State":"North Carolina","State_Abbrev":"NC"},
"geometry":{ "type": "Point", "coordinates": [-80.286022,35.476983]}},
{ "type": "Feature", "properties": {"Name":"Mocksville town","State":"North Carolina","State_Abbrev":"NC"},
"geometry":{ "type": "Point", "coordinates": [-80.561095,35.899716]}},
{ "type": "Feature", "properties": {"Name":"Momeyer town","State":"North Carolina","State_Abbrev":"NC"},
"geometry":{ "type": "Point", "coordinates": [-78.048054,35.960007]}},
{ "type": "Feature", "properties": {"Name":"Moncure CDP","State":"North Carolina","State_Abbrev":"NC"},
"geometry":{ "type": "Point", "coordinates": [-79.074681,35.62582]}},
{ "type": "Feature", "properties": {"Name":"Monroe city","State":"North Carolina","State_Abbrev":"NC"},
"geometry":{ "type": "Point", "coordinates": [-80.561277,35.001591]}},
{ "type": "Feature", "properties": {"Name":"Montreat town","State":"North Carolina","State_Abbrev":"NC"},
"geometry":{ "type": "Point", "coordinates": [-82.299164,35.64804]}},
{ "type": "Feature", "properties": {"Name":"Mooresboro town","State":"North Carolina","State_Abbrev":"NC"},
"geometry":{ "type": "Point", "coordinates": [-81.698586,35.299205]}},
{ "type": "Feature", "properties": {"Name":"Mooresville town","State":"North Carolina","State_Abbrev":"NC"},
"geometry":{ "type": "Point", "coordinates": [-80.827755,35.583717]}},
{ "type": "Feature", "properties": {"Name":"Moravian Falls CDP","State":"North Carolina","State_Abbrev":"NC"},
"geometry":{ "type": "Point", "coordinates": [-81.180431,36.107404]}},
{ "type": "Feature", "properties": {"Name":"Morehead City town","State":"North Carolina","State_Abbrev":"NC"},
"geometry":{ "type": "Point", "coordinates": [-76.739088,34.727891]}},
{ "type": "Feature", "properties": {"Name":"Morganton city","State":"North Carolina","State_Abbrev":"NC"},
"geometry":{ "type": "Point", "coordinates": [-81.700354,35.740836]}},
{ "type": "Feature", "properties": {"Name":"Morrisville town","State":"North Carolina","State_Abbrev":"NC"},
"geometry":{ "type": "Point", "coordinates": [-78.839001,35.836356]}},
{ "type": "Feature", "properties": {"Name":"Morven town","State":"North Carolina","State_Abbrev":"NC"},
"geometry":{ "type": "Point", "coordinates": [-80.000013,34.86431]}},
{ "type": "Feature", "properties": {"Name":"Mountain Home CDP","State":"North Carolina","State_Abbrev":"NC"},
"geometry":{ "type": "Point", "coordinates": [-82.501972,35.370322]}},
{ "type": "Feature", "properties": {"Name":"Mountain View CDP","State":"North Carolina","State_Abbrev":"NC"},
"geometry":{ "type": "Point", "coordinates": [-81.368953,35.683097]}},
{ "type": "Feature", "properties": {"Name":"Mount Airy city","State":"North Carolina","State_Abbrev":"NC"},
"geometry":{ "type": "Point", "coordinates": [-80.614538,36.508487]}},
{ "type": "Feature", "properties": {"Name":"Mount Gilead town","State":"North Carolina","State_Abbrev":"NC"},
"geometry":{ "type": "Point", "coordinates": [-80.005007,35.216362]}},
{ "type": "Feature", "properties": {"Name":"Mount Holly city","State":"North Carolina","State_Abbrev":"NC"},
"geometry":{ "type": "Point", "coordinates": [-81.006609,35.314404]}},
{ "type": "Feature", "properties": {"Name":"Mount Olive town","State":"North Carolina","State_Abbrev":"NC"},
"geometry":{ "type": "Point", "coordinates": [-78.066131,35.199807]}},
{ "type": "Feature", "properties": {"Name":"Mount Pleasant town","State":"North Carolina","State_Abbrev":"NC"},
"geometry":{ "type": "Point", "coordinates": [-80.431831,35.394268]}},
{ "type": "Feature", "properties": {"Name":"Moyock CDP","State":"North Carolina","State_Abbrev":"NC"},
"geometry":{ "type": "Point", "coordinates": [-76.17333,36.501198]}},
{ "type": "Feature", "properties": {"Name":"Mulberry CDP","State":"North Carolina","State_Abbrev":"NC"},
"geometry":{ "type": "Point", "coordinates": [-81.165236,36.225723]}},
{ "type": "Feature", "properties": {"Name":"Murfreesboro town","State":"North Carolina","State_Abbrev":"NC"},
"geometry":{ "type": "Point", "coordinates": [-77.097663,36.441967]}},
{ "type": "Feature", "properties": {"Name":"Murphy town","State":"North Carolina","State_Abbrev":"NC"},
"geometry":{ "type": "Point", "coordinates": [-84.024901,35.094326]}},
{ "type": "Feature", "properties": {"Name":"Murraysville CDP","State":"North Carolina","State_Abbrev":"NC"},
"geometry":{ "type": "Point", "coordinates": [-77.842337,34.291629]}},
{ "type": "Feature", "properties": {"Name":"Myrtle Grove CDP","State":"North Carolina","State_Abbrev":"NC"},
"geometry":{ "type": "Point", "coordinates": [-77.888912,34.126924]}},
{ "type": "Feature", "properties": {"Name":"Nags Head town","State":"North Carolina","State_Abbrev":"NC"},
"geometry":{ "type": "Point", "coordinates": [-75.625685,35.947529]}},
{ "type": "Feature", "properties": {"Name":"Nashville town","State":"North Carolina","State_Abbrev":"NC"},
"geometry":{ "type": "Point", "coordinates": [-77.956734,35.96923]}},
{ "type": "Feature", "properties": {"Name":"Navassa town","State":"North Carolina","State_Abbrev":"NC"},
"geometry":{ "type": "Point", "coordinates": [-78.038729,34.283384]}},
{ "type": "Feature", "properties": {"Name":"Nebo CDP","State":"North Carolina","State_Abbrev":"NC"},
"geometry":{ "type": "Point", "coordinates": [-81.913895,35.715823]}},
{ "type": "Feature", "properties": {"Name":"Neuse Forest CDP","State":"North Carolina","State_Abbrev":"NC"},
"geometry":{ "type": "Point", "coordinates": [-76.944329,34.965059]}},
{ "type": "Feature", "properties": {"Name":"New Bern city","State":"North Carolina","State_Abbrev":"NC"},
"geometry":{ "type": "Point", "coordinates": [-77.070531,35.095857]}},
{ "type": "Feature", "properties": {"Name":"New Hope CDP","State":"North Carolina","State_Abbrev":"NC"},
"geometry":{ "type": "Point", "coordinates": [-77.892198,35.378232]}},
{ "type": "Feature", "properties": {"Name":"Newland town","State":"North Carolina","State_Abbrev":"NC"},
"geometry":{ "type": "Point", "coordinates": [-81.927355,36.08797]}},
{ "type": "Feature", "properties": {"Name":"New London town","State":"North Carolina","State_Abbrev":"NC"},
"geometry":{ "type": "Point", "coordinates": [-80.219812,35.434915]}},
{ "type": "Feature", "properties": {"Name":"Newport town","State":"North Carolina","State_Abbrev":"NC"},
"geometry":{ "type": "Point", "coordinates": [-76.879076,34.770703]}},
{ "type": "Feature", "properties": {"Name":"Newton city","State":"North Carolina","State_Abbrev":"NC"},
"geometry":{ "type": "Point", "coordinates": [-81.232269,35.662162]}},
{ "type": "Feature", "properties": {"Name":"Newton Grove town","State":"North Carolina","State_Abbrev":"NC"},
"geometry":{ "type": "Point", "coordinates": [-78.353679,35.251172]}},
{ "type": "Feature", "properties": {"Name":"Norlina town","State":"North Carolina","State_Abbrev":"NC"},
"geometry":{ "type": "Point", "coordinates": [-78.195017,36.44499]}},
{ "type": "Feature", "properties": {"Name":"Norman town","State":"North Carolina","State_Abbrev":"NC"},
"geometry":{ "type": "Point", "coordinates": [-79.723159,35.169761]}},
{ "type": "Feature", "properties": {"Name":"Northchase CDP","State":"North Carolina","State_Abbrev":"NC"},
"geometry":{ "type": "Point", "coordinates": [-77.877488,34.307823]}},
{ "type": "Feature", "properties": {"Name":"Northlakes CDP","State":"North Carolina","State_Abbrev":"NC"},
"geometry":{ "type": "Point", "coordinates": [-81.367835,35.780523]}},
{ "type": "Feature", "properties": {"Name":"North Topsail Beach town","State":"North Carolina","State_Abbrev":"NC"},
"geometry":{ "type": "Point", "coordinates": [-77.437538,34.488497]}},
{ "type": "Feature", "properties": {"Name":"Northwest city","State":"North Carolina","State_Abbrev":"NC"},
"geometry":{ "type": "Point", "coordinates": [-78.144793,34.316025]}},
{ "type": "Feature", "properties": {"Name":"North Wilkesboro town","State":"North Carolina","State_Abbrev":"NC"},
"geometry":{ "type": "Point", "coordinates": [-81.138928,36.172833]}},
{ "type": "Feature", "properties": {"Name":"Norwood town","State":"North Carolina","State_Abbrev":"NC"},
"geometry":{ "type": "Point", "coordinates": [-80.110777,35.23281]}},
{ "type": "Feature", "properties": {"Name":"Oakboro town","State":"North Carolina","State_Abbrev":"NC"},
"geometry":{ "type": "Point", "coordinates": [-80.334374,35.228513]}},
{ "type": "Feature", "properties": {"Name":"Oak City town","State":"North Carolina","State_Abbrev":"NC"},
"geometry":{ "type": "Point", "coordinates": [-77.305093,35.962519]}},
{ "type": "Feature", "properties": {"Name":"Oak Island town","State":"North Carolina","State_Abbrev":"NC"},
"geometry":{ "type": "Point", "coordinates": [-78.119793,33.913278]}},
{ "type": "Feature", "properties": {"Name":"Oak Ridge town","State":"North Carolina","State_Abbrev":"NC"},
"geometry":{ "type": "Point", "coordinates": [-79.992233,36.174072]}},
{ "type": "Feature", "properties": {"Name":"Ocean Isle Beach town","State":"North Carolina","State_Abbrev":"NC"},
"geometry":{ "type": "Point", "coordinates": [-78.462084,33.887615]}},
{ "type": "Feature", "properties": {"Name":"Ocracoke CDP","State":"North Carolina","State_Abbrev":"NC"},
"geometry":{ "type": "Point", "coordinates": [-75.998527,35.073231]}},
{ "type": "Feature", "properties": {"Name":"Ogden CDP","State":"North Carolina","State_Abbrev":"NC"},
"geometry":{ "type": "Point", "coordinates": [-77.789005,34.263427]}},
{ "type": "Feature", "properties": {"Name":"Old Fort town","State":"North Carolina","State_Abbrev":"NC"},
"geometry":{ "type": "Point", "coordinates": [-82.177975,35.630329]}},
{ "type": "Feature", "properties": {"Name":"Old Hundred CDP","State":"North Carolina","State_Abbrev":"NC"},
"geometry":{ "type": "Point", "coordinates": [-79.592146,34.824491]}},
{ "type": "Feature", "properties": {"Name":"Oriental town","State":"North Carolina","State_Abbrev":"NC"},
"geometry":{ "type": "Point", "coordinates": [-76.680841,35.03095]}},
{ "type": "Feature", "properties": {"Name":"Orrum town","State":"North Carolina","State_Abbrev":"NC"},
"geometry":{ "type": "Point", "coordinates": [-79.008945,34.466727]}},
{ "type": "Feature", "properties": {"Name":"Ossipee town","State":"North Carolina","State_Abbrev":"NC"},
"geometry":{ "type": "Point", "coordinates": [-79.516892,36.166278]}},
{ "type": "Feature", "properties": {"Name":"Oxford city","State":"North Carolina","State_Abbrev":"NC"},
"geometry":{ "type": "Point", "coordinates": [-78.586512,36.321727]}},
{ "type": "Feature", "properties": {"Name":"Pantego town","State":"North Carolina","State_Abbrev":"NC"},
"geometry":{ "type": "Point", "coordinates": [-76.659397,35.587373]}},
{ "type": "Feature", "properties": {"Name":"Parkton town","State":"North Carolina","State_Abbrev":"NC"},
"geometry":{ "type": "Point", "coordinates": [-79.011287,34.902837]}},
{ "type": "Feature", "properties": {"Name":"Parmele town","State":"North Carolina","State_Abbrev":"NC"},
"geometry":{ "type": "Point", "coordinates": [-77.314314,35.818086]}},
{ "type": "Feature", "properties": {"Name":"Patterson Springs town","State":"North Carolina","State_Abbrev":"NC"},
"geometry":{ "type": "Point", "coordinates": [-81.516148,35.23276]}},
{ "type": "Feature", "properties": {"Name":"Peachland town","State":"North Carolina","State_Abbrev":"NC"},
"geometry":{ "type": "Point", "coordinates": [-80.265965,34.993122]}},
{ "type": "Feature", "properties": {"Name":"Peletier town","State":"North Carolina","State_Abbrev":"NC"},
"geometry":{ "type": "Point", "coordinates": [-77.071314,34.728435]}},
{ "type": "Feature", "properties": {"Name":"Pembroke town","State":"North Carolina","State_Abbrev":"NC"},
"geometry":{ "type": "Point", "coordinates": [-79.193397,34.676625]}},
{ "type": "Feature", "properties": {"Name":"Pikeville town","State":"North Carolina","State_Abbrev":"NC"},
"geometry":{ "type": "Point", "coordinates": [-77.987757,35.497206]}},
{ "type": "Feature", "properties": {"Name":"Pilot Mountain town","State":"North Carolina","State_Abbrev":"NC"},
"geometry":{ "type": "Point", "coordinates": [-80.47422,36.383939]}},
{ "type": "Feature", "properties": {"Name":"Pinebluff town","State":"North Carolina","State_Abbrev":"NC"},
"geometry":{ "type": "Point", "coordinates": [-79.471547,35.108943]}},
{ "type": "Feature", "properties": {"Name":"Pinehurst village","State":"North Carolina","State_Abbrev":"NC"},
"geometry":{ "type": "Point", "coordinates": [-79.469829,35.191105]}},
{ "type": "Feature", "properties": {"Name":"Pine Knoll Shores town","State":"North Carolina","State_Abbrev":"NC"},
"geometry":{ "type": "Point", "coordinates": [-76.831913,34.697208]}},
{ "type": "Feature", "properties": {"Name":"Pine Level town","State":"North Carolina","State_Abbrev":"NC"},
"geometry":{ "type": "Point", "coordinates": [-78.248642,35.503321]}},
{ "type": "Feature", "properties": {"Name":"Pinetops town","State":"North Carolina","State_Abbrev":"NC"},
"geometry":{ "type": "Point", "coordinates": [-77.637775,35.791136]}},
{ "type": "Feature", "properties": {"Name":"Pinetown CDP","State":"North Carolina","State_Abbrev":"NC"},
"geometry":{ "type": "Point", "coordinates": [-76.855789,35.6111]}},
{ "type": "Feature", "properties": {"Name":"Pineville town","State":"North Carolina","State_Abbrev":"NC"},
"geometry":{ "type": "Point", "coordinates": [-80.893517,35.093703]}},
{ "type": "Feature", "properties": {"Name":"Piney Green CDP","State":"North Carolina","State_Abbrev":"NC"},
"geometry":{ "type": "Point", "coordinates": [-77.301035,34.765542]}},
{ "type": "Feature", "properties": {"Name":"Pink Hill town","State":"North Carolina","State_Abbrev":"NC"},
"geometry":{ "type": "Point", "coordinates": [-77.743632,35.056213]}},
{ "type": "Feature", "properties": {"Name":"Pinnacle CDP","State":"North Carolina","State_Abbrev":"NC"},
"geometry":{ "type": "Point", "coordinates": [-80.423167,36.322773]}},
{ "type": "Feature", "properties": {"Name":"Pittsboro town","State":"North Carolina","State_Abbrev":"NC"},
"geometry":{ "type": "Point", "coordinates": [-79.168917,35.727766]}},
{ "type": "Feature", "properties": {"Name":"Plain View CDP","State":"North Carolina","State_Abbrev":"NC"},
"geometry":{ "type": "Point", "coordinates": [-78.560225,35.243991]}},
{ "type": "Feature", "properties": {"Name":"Pleasant Garden town","State":"North Carolina","State_Abbrev":"NC"},
"geometry":{ "type": "Point", "coordinates": [-79.754697,35.952037]}},
{ "type": "Feature", "properties": {"Name":"Pleasant Hill CDP","State":"North Carolina","State_Abbrev":"NC"},
"geometry":{ "type": "Point", "coordinates": [-80.894621,36.254037]}},
{ "type": "Feature", "properties": {"Name":"Plymouth town","State":"North Carolina","State_Abbrev":"NC"},
"geometry":{ "type": "Point", "coordinates": [-76.748202,35.858537]}},
{ "type": "Feature", "properties": {"Name":"Polkton town","State":"North Carolina","State_Abbrev":"NC"},
"geometry":{ "type": "Point", "coordinates": [-80.196307,35.003049]}},
{ "type": "Feature", "properties": {"Name":"Polkville city","State":"North Carolina","State_Abbrev":"NC"},
"geometry":{ "type": "Point", "coordinates": [-81.643987,35.416275]}},
{ "type": "Feature", "properties": {"Name":"Pollocksville town","State":"North Carolina","State_Abbrev":"NC"},
"geometry":{ "type": "Point", "coordinates": [-77.222152,35.006004]}},
{ "type": "Feature", "properties": {"Name":"Porters Neck CDP","State":"North Carolina","State_Abbrev":"NC"},
"geometry":{ "type": "Point", "coordinates": [-77.770617,34.293204]}},
{ "type": "Feature", "properties": {"Name":"Potters Hill CDP","State":"North Carolina","State_Abbrev":"NC"},
"geometry":{ "type": "Point", "coordinates": [-77.703153,34.964547]}},
{ "type": "Feature", "properties": {"Name":"Powellsville town","State":"North Carolina","State_Abbrev":"NC"},
"geometry":{ "type": "Point", "coordinates": [-76.931573,36.225251]}},
{ "type": "Feature", "properties": {"Name":"Princeton town","State":"North Carolina","State_Abbrev":"NC"},
"geometry":{ "type": "Point", "coordinates": [-78.16142,35.466709]}},
{ "type": "Feature", "properties": {"Name":"Princeville town","State":"North Carolina","State_Abbrev":"NC"},
"geometry":{ "type": "Point", "coordinates": [-77.529029,35.887632]}},
{ "type": "Feature", "properties": {"Name":"Proctorville town","State":"North Carolina","State_Abbrev":"NC"},
"geometry":{ "type": "Point", "coordinates": [-79.037039,34.475179]}},
{ "type": "Feature", "properties": {"Name":"Prospect CDP","State":"North Carolina","State_Abbrev":"NC"},
"geometry":{ "type": "Point", "coordinates": [-79.225155,34.735811]}},
{ "type": "Feature", "properties": {"Name":"Pumpkin Center CDP","State":"North Carolina","State_Abbrev":"NC"},
"geometry":{ "type": "Point", "coordinates": [-77.364175,34.786034]}},
{ "type": "Feature", "properties": {"Name":"Raeford city","State":"North Carolina","State_Abbrev":"NC"},
"geometry":{ "type": "Point", "coordinates": [-79.229567,34.981303]}},
{ "type": "Feature", "properties": {"Name":"Raemon CDP","State":"North Carolina","State_Abbrev":"NC"},
"geometry":{ "type": "Point", "coordinates": [-79.346275,34.61713]}},
{ "type": "Feature", "properties": {"Name":"Raleigh city","State":"North Carolina","State_Abbrev":"NC"},
"geometry":{ "type": "Point", "coordinates": [-78.641493,35.830204]}},
{ "type": "Feature", "properties": {"Name":"Ramseur town","State":"North Carolina","State_Abbrev":"NC"},
"geometry":{ "type": "Point", "coordinates": [-79.65477,35.737063]}},
{ "type": "Feature", "properties": {"Name":"Randleman city","State":"North Carolina","State_Abbrev":"NC"},
"geometry":{ "type": "Point", "coordinates": [-79.807662,35.815921]}},
{ "type": "Feature", "properties": {"Name":"Ranlo town","State":"North Carolina","State_Abbrev":"NC"},
"geometry":{ "type": "Point", "coordinates": [-81.129174,35.289948]}},
{ "type": "Feature", "properties": {"Name":"Raynham town","State":"North Carolina","State_Abbrev":"NC"},
"geometry":{ "type": "Point", "coordinates": [-79.190856,34.576089]}},
{ "type": "Feature", "properties": {"Name":"Red Cross town","State":"North Carolina","State_Abbrev":"NC"},
"geometry":{ "type": "Point", "coordinates": [-80.362301,35.265207]}},
{ "type": "Feature", "properties": {"Name":"Red Oak town","State":"North Carolina","State_Abbrev":"NC"},
"geometry":{ "type": "Point", "coordinates": [-77.90376,36.061282]}},
{ "type": "Feature", "properties": {"Name":"Red Springs town","State":"North Carolina","State_Abbrev":"NC"},
"geometry":{ "type": "Point", "coordinates": [-79.181112,34.806148]}},
{ "type": "Feature", "properties": {"Name":"Reidsville city","State":"North Carolina","State_Abbrev":"NC"},
"geometry":{ "type": "Point", "coordinates": [-79.673826,36.341304]}},
{ "type": "Feature", "properties": {"Name":"Rennert town","State":"North Carolina","State_Abbrev":"NC"},
"geometry":{ "type": "Point", "coordinates": [-79.079116,34.814093]}},
{ "type": "Feature", "properties": {"Name":"Rex CDP","State":"North Carolina","State_Abbrev":"NC"},
"geometry":{ "type": "Point", "coordinates": [-79.046852,34.850794]}},
{ "type": "Feature", "properties": {"Name":"Rhodhiss town","State":"North Carolina","State_Abbrev":"NC"},
"geometry":{ "type": "Point", "coordinates": [-81.432237,35.765541]}},
{ "type": "Feature", "properties": {"Name":"Richfield town","State":"North Carolina","State_Abbrev":"NC"},
"geometry":{ "type": "Point", "coordinates": [-80.259455,35.472454]}},
{ "type": "Feature", "properties": {"Name":"Richlands town","State":"North Carolina","State_Abbrev":"NC"},
"geometry":{ "type": "Point", "coordinates": [-77.542825,34.900157]}},
{ "type": "Feature", "properties": {"Name":"Rich Square town","State":"North Carolina","State_Abbrev":"NC"},
"geometry":{ "type": "Point", "coordinates": [-77.283906,36.273942]}},
{ "type": "Feature", "properties": {"Name":"Riegelwood CDP","State":"North Carolina","State_Abbrev":"NC"},
"geometry":{ "type": "Point", "coordinates": [-78.220368,34.340118]}},
{ "type": "Feature", "properties": {"Name":"River Bend town","State":"North Carolina","State_Abbrev":"NC"},
"geometry":{ "type": "Point", "coordinates": [-77.149927,35.068909]}},
{ "type": "Feature", "properties": {"Name":"River Road CDP","State":"North Carolina","State_Abbrev":"NC"},
"geometry":{ "type": "Point", "coordinates": [-76.987107,35.508399]}},
{ "type": "Feature", "properties": {"Name":"Roanoke Rapids city","State":"North Carolina","State_Abbrev":"NC"},
"geometry":{ "type": "Point", "coordinates": [-77.648586,36.446049]}},
{ "type": "Feature", "properties": {"Name":"Robbins town","State":"North Carolina","State_Abbrev":"NC"},
"geometry":{ "type": "Point", "coordinates": [-79.582927,35.427722]}},
{ "type": "Feature", "properties": {"Name":"Robbinsville town","State":"North Carolina","State_Abbrev":"NC"},
"geometry":{ "type": "Point", "coordinates": [-83.809512,35.321454]}},
{ "type": "Feature", "properties": {"Name":"Roberdel CDP","State":"North Carolina","State_Abbrev":"NC"},
"geometry":{ "type": "Point", "coordinates": [-79.747949,34.979075]}},
{ "type": "Feature", "properties": {"Name":"Robersonville town","State":"North Carolina","State_Abbrev":"NC"},
"geometry":{ "type": "Point", "coordinates": [-77.253291,35.824701]}},
{ "type": "Feature", "properties": {"Name":"Rockfish CDP","State":"North Carolina","State_Abbrev":"NC"},
"geometry":{ "type": "Point", "coordinates": [-79.07006,34.990557]}},
{ "type": "Feature", "properties": {"Name":"Rockingham city","State":"North Carolina","State_Abbrev":"NC"},
"geometry":{ "type": "Point", "coordinates": [-79.760317,34.938562]}},
{ "type": "Feature", "properties": {"Name":"Rockwell town","State":"North Carolina","State_Abbrev":"NC"},
"geometry":{ "type": "Point", "coordinates": [-80.409219,35.553042]}},
{ "type": "Feature", "properties": {"Name":"Rocky Mount city","State":"North Carolina","State_Abbrev":"NC"},
"geometry":{ "type": "Point", "coordinates": [-77.803783,35.969322]}},
{ "type": "Feature", "properties": {"Name":"Rocky Point CDP","State":"North Carolina","State_Abbrev":"NC"},
"geometry":{ "type": "Point", "coordinates": [-77.890907,34.444048]}},
{ "type": "Feature", "properties": {"Name":"Rodanthe CDP","State":"North Carolina","State_Abbrev":"NC"},
"geometry":{ "type": "Point", "coordinates": [-75.466355,35.592476]}},
{ "type": "Feature", "properties": {"Name":"Rolesville town","State":"North Carolina","State_Abbrev":"NC"},
"geometry":{ "type": "Point", "coordinates": [-78.461452,35.9246]}},
{ "type": "Feature", "properties": {"Name":"Ronda town","State":"North Carolina","State_Abbrev":"NC"},
"geometry":{ "type": "Point", "coordinates": [-80.943237,36.221718]}},
{ "type": "Feature", "properties": {"Name":"Roper town","State":"North Carolina","State_Abbrev":"NC"},
"geometry":{ "type": "Point", "coordinates": [-76.617058,35.87864]}},
{ "type": "Feature", "properties": {"Name":"Roseboro town","State":"North Carolina","State_Abbrev":"NC"},
"geometry":{ "type": "Point", "coordinates": [-78.514126,34.955726]}},
{ "type": "Feature", "properties": {"Name":"Rose Hill town","State":"North Carolina","State_Abbrev":"NC"},
"geometry":{ "type": "Point", "coordinates": [-78.025943,34.826028]}},
{ "type": "Feature", "properties": {"Name":"Rosman town","State":"North Carolina","State_Abbrev":"NC"},
"geometry":{ "type": "Point", "coordinates": [-82.820155,35.145826]}},
{ "type": "Feature", "properties": {"Name":"Rougemont CDP","State":"North Carolina","State_Abbrev":"NC"},
"geometry":{ "type": "Point", "coordinates": [-78.91089,36.213373]}},
{ "type": "Feature", "properties": {"Name":"Rowland town","State":"North Carolina","State_Abbrev":"NC"},
"geometry":{ "type": "Point", "coordinates": [-79.292851,34.536068]}},
{ "type": "Feature", "properties": {"Name":"Roxboro city","State":"North Carolina","State_Abbrev":"NC"},
"geometry":{ "type": "Point", "coordinates": [-78.980635,36.388916]}},
{ "type": "Feature", "properties": {"Name":"Roxobel town","State":"North Carolina","State_Abbrev":"NC"},
"geometry":{ "type": "Point", "coordinates": [-77.239804,36.201528]}},
{ "type": "Feature", "properties": {"Name":"Royal Pines CDP","State":"North Carolina","State_Abbrev":"NC"},
"geometry":{ "type": "Point", "coordinates": [-82.502313,35.478822]}},
{ "type": "Feature", "properties": {"Name":"Ruffin CDP","State":"North Carolina","State_Abbrev":"NC"},
"geometry":{ "type": "Point", "coordinates": [-79.533373,36.438241]}},
{ "type": "Feature", "properties": {"Name":"Rural Hall town","State":"North Carolina","State_Abbrev":"NC"},
"geometry":{ "type": "Point", "coordinates": [-80.296908,36.224504]}},
{ "type": "Feature", "properties": {"Name":"Ruth town","State":"North Carolina","State_Abbrev":"NC"},
"geometry":{ "type": "Point", "coordinates": [-81.944847,35.382369]}},
{ "type": "Feature", "properties": {"Name":"Rutherford College town","State":"North Carolina","State_Abbrev":"NC"},
"geometry":{ "type": "Point", "coordinates": [-81.527006,35.75157]}},
{ "type": "Feature", "properties": {"Name":"Rutherfordton town","State":"North Carolina","State_Abbrev":"NC"},
"geometry":{ "type": "Point", "coordinates": [-81.961337,35.364067]}},
{ "type": "Feature", "properties": {"Name":"St. Helena village","State":"North Carolina","State_Abbrev":"NC"},
"geometry":{ "type": "Point", "coordinates": [-77.917394,34.516623]}},
{ "type": "Feature", "properties": {"Name":"St. James town","State":"North Carolina","State_Abbrev":"NC"},
"geometry":{ "type": "Point", "coordinates": [-78.116087,33.945957]}},
{ "type": "Feature", "properties": {"Name":"St. Pauls town","State":"North Carolina","State_Abbrev":"NC"},
"geometry":{ "type": "Point", "coordinates": [-78.976559,34.809197]}},
{ "type": "Feature", "properties": {"Name":"St. Stephens CDP","State":"North Carolina","State_Abbrev":"NC"},
"geometry":{ "type": "Point", "coordinates": [-81.272949,35.764556]}},
{ "type": "Feature", "properties": {"Name":"Salem CDP","State":"North Carolina","State_Abbrev":"NC"},
"geometry":{ "type": "Point", "coordinates": [-81.700298,35.699725]}},
{ "type": "Feature", "properties": {"Name":"Salemburg town","State":"North Carolina","State_Abbrev":"NC"},
"geometry":{ "type": "Point", "coordinates": [-78.502799,35.015158]}},
{ "type": "Feature", "properties": {"Name":"Salisbury city","State":"North Carolina","State_Abbrev":"NC"},
"geometry":{ "type": "Point", "coordinates": [-80.48893,35.665499]}},
{ "type": "Feature", "properties": {"Name":"Saluda city","State":"North Carolina","State_Abbrev":"NC"},
"geometry":{ "type": "Point", "coordinates": [-82.346904,35.23752]}},
{ "type": "Feature", "properties": {"Name":"Salvo CDP","State":"North Carolina","State_Abbrev":"NC"},
"geometry":{ "type": "Point", "coordinates": [-75.468168,35.548536]}},
{ "type": "Feature", "properties": {"Name":"Sandy Creek town","State":"North Carolina","State_Abbrev":"NC"},
"geometry":{ "type": "Point", "coordinates": [-78.15871,34.281894]}},
{ "type": "Feature", "properties": {"Name":"Sandyfield town","State":"North Carolina","State_Abbrev":"NC"},
"geometry":{ "type": "Point", "coordinates": [-78.303792,34.367566]}},
{ "type": "Feature", "properties": {"Name":"Sanford city","State":"North Carolina","State_Abbrev":"NC"},
"geometry":{ "type": "Point", "coordinates": [-79.178628,35.487193]}},
{ "type": "Feature", "properties": {"Name":"Saratoga town","State":"North Carolina","State_Abbrev":"NC"},
"geometry":{ "type": "Point", "coordinates": [-77.775636,35.653661]}},
{ "type": "Feature", "properties": {"Name":"Sawmills town","State":"North Carolina","State_Abbrev":"NC"},
"geometry":{ "type": "Point", "coordinates": [-81.476331,35.817593]}},
{ "type": "Feature", "properties": {"Name":"Saxapahaw CDP","State":"North Carolina","State_Abbrev":"NC"},
"geometry":{ "type": "Point", "coordinates": [-79.316168,35.960751]}},
{ "type": "Feature", "properties": {"Name":"Scotch Meadows CDP","State":"North Carolina","State_Abbrev":"NC"},
"geometry":{ "type": "Point", "coordinates": [-79.517716,34.688948]}},
{ "type": "Feature", "properties": {"Name":"Scotland Neck town","State":"North Carolina","State_Abbrev":"NC"},
"geometry":{ "type": "Point", "coordinates": [-77.421384,36.130799]}},
{ "type": "Feature", "properties": {"Name":"Seaboard town","State":"North Carolina","State_Abbrev":"NC"},
"geometry":{ "type": "Point", "coordinates": [-77.441966,36.49069]}},
{ "type": "Feature", "properties": {"Name":"Sea Breeze CDP","State":"North Carolina","State_Abbrev":"NC"},
"geometry":{ "type": "Point", "coordinates": [-77.89229,34.067504]}},
{ "type": "Feature", "properties": {"Name":"Seagrove town","State":"North Carolina","State_Abbrev":"NC"},
"geometry":{ "type": "Point", "coordinates": [-79.781418,35.539534]}},
{ "type": "Feature", "properties": {"Name":"Sedalia town","State":"North Carolina","State_Abbrev":"NC"},
"geometry":{ "type": "Point", "coordinates": [-79.617739,36.075827]}},
{ "type": "Feature", "properties": {"Name":"Selma town","State":"North Carolina","State_Abbrev":"NC"},
"geometry":{ "type": "Point", "coordinates": [-78.291735,35.539726]}},
{ "type": "Feature", "properties": {"Name":"Seven Devils town","State":"North Carolina","State_Abbrev":"NC"},
"geometry":{ "type": "Point", "coordinates": [-81.813167,36.149492]}},
{ "type": "Feature", "properties": {"Name":"Seven Lakes CDP","State":"North Carolina","State_Abbrev":"NC"},
"geometry":{ "type": "Point", "coordinates": [-79.58602,35.264231]}},
{ "type": "Feature", "properties": {"Name":"Seven Springs town","State":"North Carolina","State_Abbrev":"NC"},
"geometry":{ "type": "Point", "coordinates": [-77.845136,35.224832]}},
{ "type": "Feature", "properties": {"Name":"Severn town","State":"North Carolina","State_Abbrev":"NC"},
"geometry":{ "type": "Point", "coordinates": [-77.189288,36.514203]}},
{ "type": "Feature", "properties": {"Name":"Shallotte town","State":"North Carolina","State_Abbrev":"NC"},
"geometry":{ "type": "Point", "coordinates": [-78.380813,33.978243]}},
{ "type": "Feature", "properties": {"Name":"Shannon CDP","State":"North Carolina","State_Abbrev":"NC"},
"geometry":{ "type": "Point", "coordinates": [-79.139587,34.847668]}},
{ "type": "Feature", "properties": {"Name":"Sharpsburg town","State":"North Carolina","State_Abbrev":"NC"},
"geometry":{ "type": "Point", "coordinates": [-77.830751,35.866385]}},
{ "type": "Feature", "properties": {"Name":"Shelby city","State":"North Carolina","State_Abbrev":"NC"},
"geometry":{ "type": "Point", "coordinates": [-81.545645,35.290405]}},
{ "type": "Feature", "properties": {"Name":"Siler City town","State":"North Carolina","State_Abbrev":"NC"},
"geometry":{ "type": "Point", "coordinates": [-79.455674,35.726107]}},
{ "type": "Feature", "properties": {"Name":"Silver City CDP","State":"North Carolina","State_Abbrev":"NC"},
"geometry":{ "type": "Point", "coordinates": [-79.229185,34.99724]}},
{ "type": "Feature", "properties": {"Name":"Silver Lake CDP","State":"North Carolina","State_Abbrev":"NC"},
"geometry":{ "type": "Point", "coordinates": [-77.908935,34.142298]}},
{ "type": "Feature", "properties": {"Name":"Simpson village","State":"North Carolina","State_Abbrev":"NC"},
"geometry":{ "type": "Point", "coordinates": [-77.278981,35.575293]}},
{ "type": "Feature", "properties": {"Name":"Sims town","State":"North Carolina","State_Abbrev":"NC"},
"geometry":{ "type": "Point", "coordinates": [-78.060272,35.759289]}},
{ "type": "Feature", "properties": {"Name":"Skippers Corner CDP","State":"North Carolina","State_Abbrev":"NC"},
"geometry":{ "type": "Point", "coordinates": [-77.914625,34.326718]}},
{ "type": "Feature", "properties": {"Name":"Smithfield town","State":"North Carolina","State_Abbrev":"NC"},
"geometry":{ "type": "Point", "coordinates": [-78.352216,35.52382]}},
{ "type": "Feature", "properties": {"Name":"Smithtown CDP","State":"North Carolina","State_Abbrev":"NC"},
"geometry":{ "type": "Point", "coordinates": [-80.571195,36.233084]}},
{ "type": "Feature", "properties": {"Name":"Sneads Ferry CDP","State":"North Carolina","State_Abbrev":"NC"},
"geometry":{ "type": "Point", "coordinates": [-77.377566,34.555217]}},
{ "type": "Feature", "properties": {"Name":"Snow Hill town","State":"North Carolina","State_Abbrev":"NC"},
"geometry":{ "type": "Point", "coordinates": [-77.67678,35.450529]}},
{ "type": "Feature", "properties": {"Name":"Southern Pines town","State":"North Carolina","State_Abbrev":"NC"},
"geometry":{ "type": "Point", "coordinates": [-79.395851,35.190407]}},
{ "type": "Feature", "properties": {"Name":"Southern Shores town","State":"North Carolina","State_Abbrev":"NC"},
"geometry":{ "type": "Point", "coordinates": [-75.732997,36.116745]}},
{ "type": "Feature", "properties": {"Name":"South Henderson CDP","State":"North Carolina","State_Abbrev":"NC"},
"geometry":{ "type": "Point", "coordinates": [-78.405945,36.303304]}},
{ "type": "Feature", "properties": {"Name":"South Mills CDP","State":"North Carolina","State_Abbrev":"NC"},
"geometry":{ "type": "Point", "coordinates": [-76.33074,36.437866]}},
{ "type": "Feature", "properties": {"Name":"Southmont CDP","State":"North Carolina","State_Abbrev":"NC"},
"geometry":{ "type": "Point", "coordinates": [-80.276026,35.650427]}},
{ "type": "Feature", "properties": {"Name":"Southport city","State":"North Carolina","State_Abbrev":"NC"},
"geometry":{ "type": "Point", "coordinates": [-78.008458,33.933326]}},
{ "type": "Feature", "properties": {"Name":"South Rosemary CDP","State":"North Carolina","State_Abbrev":"NC"},
"geometry":{ "type": "Point", "coordinates": [-77.713421,36.453357]}},
{ "type": "Feature", "properties": {"Name":"South Weldon CDP","State":"North Carolina","State_Abbrev":"NC"},
"geometry":{ "type": "Point", "coordinates": [-77.602424,36.413552]}},
{ "type": "Feature", "properties": {"Name":"Sparta town","State":"North Carolina","State_Abbrev":"NC"},
"geometry":{ "type": "Point", "coordinates": [-81.122598,36.50298]}},
{ "type": "Feature", "properties": {"Name":"Speed town","State":"North Carolina","State_Abbrev":"NC"},
"geometry":{ "type": "Point", "coordinates": [-77.444466,35.968503]}},
{ "type": "Feature", "properties": {"Name":"Spencer town","State":"North Carolina","State_Abbrev":"NC"},
"geometry":{ "type": "Point", "coordinates": [-80.426354,35.69895]}},
{ "type": "Feature", "properties": {"Name":"Spencer Mountain town","State":"North Carolina","State_Abbrev":"NC"},
"geometry":{ "type": "Point", "coordinates": [-81.113372,35.308557]}},
{ "type": "Feature", "properties": {"Name":"Spindale town","State":"North Carolina","State_Abbrev":"NC"},
"geometry":{ "type": "Point", "coordinates": [-81.923198,35.359716]}},
{ "type": "Feature", "properties": {"Name":"Spivey's Corner CDP","State":"North Carolina","State_Abbrev":"NC"},
"geometry":{ "type": "Point", "coordinates": [-78.482562,35.198222]}},
{ "type": "Feature", "properties": {"Name":"Spout Springs CDP","State":"North Carolina","State_Abbrev":"NC"},
"geometry":{ "type": "Point", "coordinates": [-79.035604,35.268214]}},
{ "type": "Feature", "properties": {"Name":"Springdale CDP","State":"North Carolina","State_Abbrev":"NC"},
"geometry":{ "type": "Point", "coordinates": [-81.145293,35.29029]}},
{ "type": "Feature", "properties": {"Name":"Spring Hope town","State":"North Carolina","State_Abbrev":"NC"},
"geometry":{ "type": "Point", "coordinates": [-78.108966,35.944126]}},
{ "type": "Feature", "properties": {"Name":"Spring Lake town","State":"North Carolina","State_Abbrev":"NC"},
"geometry":{ "type": "Point", "coordinates": [-78.994722,35.18459]}},
{ "type": "Feature", "properties": {"Name":"Spruce Pine town","State":"North Carolina","State_Abbrev":"NC"},
"geometry":{ "type": "Point", "coordinates": [-82.072999,35.910438]}},
{ "type": "Feature", "properties": {"Name":"Staley town","State":"North Carolina","State_Abbrev":"NC"},
"geometry":{ "type": "Point", "coordinates": [-79.551736,35.797947]}},
{ "type": "Feature", "properties": {"Name":"Stallings town","State":"North Carolina","State_Abbrev":"NC"},
"geometry":{ "type": "Point", "coordinates": [-80.66012,35.110304]}},
{ "type": "Feature", "properties": {"Name":"Stanfield town","State":"North Carolina","State_Abbrev":"NC"},
"geometry":{ "type": "Point", "coordinates": [-80.430225,35.233727]}},
{ "type": "Feature", "properties": {"Name":"Stanley town","State":"North Carolina","State_Abbrev":"NC"},
"geometry":{ "type": "Point", "coordinates": [-81.094445,35.355451]}},
{ "type": "Feature", "properties": {"Name":"Stantonsburg town","State":"North Carolina","State_Abbrev":"NC"},
"geometry":{ "type": "Point", "coordinates": [-77.819777,35.605289]}},
{ "type": "Feature", "properties": {"Name":"Star town","State":"North Carolina","State_Abbrev":"NC"},
"geometry":{ "type": "Point", "coordinates": [-79.783311,35.399067]}},
{ "type": "Feature", "properties": {"Name":"Statesville city","State":"North Carolina","State_Abbrev":"NC"},
"geometry":{ "type": "Point", "coordinates": [-80.871654,35.783369]}},
{ "type": "Feature", "properties": {"Name":"Stedman town","State":"North Carolina","State_Abbrev":"NC"},
"geometry":{ "type": "Point", "coordinates": [-78.700121,35.013483]}},
{ "type": "Feature", "properties": {"Name":"Stem town","State":"North Carolina","State_Abbrev":"NC"},
"geometry":{ "type": "Point", "coordinates": [-78.718046,36.19824]}},
{ "type": "Feature", "properties": {"Name":"Stokes CDP","State":"North Carolina","State_Abbrev":"NC"},
"geometry":{ "type": "Point", "coordinates": [-77.267597,35.710541]}},
{ "type": "Feature", "properties": {"Name":"Stokesdale town","State":"North Carolina","State_Abbrev":"NC"},
"geometry":{ "type": "Point", "coordinates": [-79.977413,36.228073]}},
{ "type": "Feature", "properties": {"Name":"Stoneville town","State":"North Carolina","State_Abbrev":"NC"},
"geometry":{ "type": "Point", "coordinates": [-79.906351,36.465314]}},
{ "type": "Feature", "properties": {"Name":"Stonewall town","State":"North Carolina","State_Abbrev":"NC"},
"geometry":{ "type": "Point", "coordinates": [-76.741543,35.138756]}},
{ "type": "Feature", "properties": {"Name":"Stony Point CDP","State":"North Carolina","State_Abbrev":"NC"},
"geometry":{ "type": "Point", "coordinates": [-81.044121,35.867809]}},
{ "type": "Feature", "properties": {"Name":"Stovall town","State":"North Carolina","State_Abbrev":"NC"},
"geometry":{ "type": "Point", "coordinates": [-78.568892,36.447546]}},
{ "type": "Feature", "properties": {"Name":"Sugar Mountain village","State":"North Carolina","State_Abbrev":"NC"},
"geometry":{ "type": "Point", "coordinates": [-81.864743,36.126382]}},
{ "type": "Feature", "properties": {"Name":"Summerfield town","State":"North Carolina","State_Abbrev":"NC"},
"geometry":{ "type": "Point", "coordinates": [-79.89721,36.196913]}},
{ "type": "Feature", "properties": {"Name":"Sunbury CDP","State":"North Carolina","State_Abbrev":"NC"},
"geometry":{ "type": "Point", "coordinates": [-76.612732,36.446894]}},
{ "type": "Feature", "properties": {"Name":"Sunset Beach town","State":"North Carolina","State_Abbrev":"NC"},
"geometry":{ "type": "Point", "coordinates": [-78.504984,33.894817]}},
{ "type": "Feature", "properties": {"Name":"Surf City town","State":"North Carolina","State_Abbrev":"NC"},
"geometry":{ "type": "Point", "coordinates": [-77.534942,34.437326]}},
{ "type": "Feature", "properties": {"Name":"Swannanoa CDP","State":"North Carolina","State_Abbrev":"NC"},
"geometry":{ "type": "Point", "coordinates": [-82.387171,35.600776]}},
{ "type": "Feature", "properties": {"Name":"Swan Quarter CDP","State":"North Carolina","State_Abbrev":"NC"},
"geometry":{ "type": "Point", "coordinates": [-76.319711,35.413034]}},
{ "type": "Feature", "properties": {"Name":"Swansboro town","State":"North Carolina","State_Abbrev":"NC"},
"geometry":{ "type": "Point", "coordinates": [-77.134274,34.693583]}},
{ "type": "Feature", "properties": {"Name":"Swepsonville town","State":"North Carolina","State_Abbrev":"NC"},
"geometry":{ "type": "Point", "coordinates": [-79.356096,36.02878]}},
{ "type": "Feature", "properties": {"Name":"Sylva town","State":"North Carolina","State_Abbrev":"NC"},
"geometry":{ "type": "Point", "coordinates": [-83.218481,35.375434]}},
{ "type": "Feature", "properties": {"Name":"Tabor City town","State":"North Carolina","State_Abbrev":"NC"},
"geometry":{ "type": "Point", "coordinates": [-78.873181,34.154503]}},
{ "type": "Feature", "properties": {"Name":"Tarboro town","State":"North Carolina","State_Abbrev":"NC"},
"geometry":{ "type": "Point", "coordinates": [-77.557211,35.905219]}},
{ "type": "Feature", "properties": {"Name":"Tar Heel town","State":"North Carolina","State_Abbrev":"NC"},
"geometry":{ "type": "Point", "coordinates": [-78.790896,34.733896]}},
{ "type": "Feature", "properties": {"Name":"Taylorsville town","State":"North Carolina","State_Abbrev":"NC"},
"geometry":{ "type": "Point", "coordinates": [-81.175951,35.916779]}},
{ "type": "Feature", "properties": {"Name":"Taylortown town","State":"North Carolina","State_Abbrev":"NC"},
"geometry":{ "type": "Point", "coordinates": [-79.491651,35.214623]}},
{ "type": "Feature", "properties": {"Name":"Teachey town","State":"North Carolina","State_Abbrev":"NC"},
"geometry":{ "type": "Point", "coordinates": [-78.005985,34.770812]}},
{ "type": "Feature", "properties": {"Name":"Thomasville city","State":"North Carolina","State_Abbrev":"NC"},
"geometry":{ "type": "Point", "coordinates": [-80.079936,35.881543]}},
{ "type": "Feature", "properties": {"Name":"Toast CDP","State":"North Carolina","State_Abbrev":"NC"},
"geometry":{ "type": "Point", "coordinates": [-80.635453,36.496679]}},
{ "type": "Feature", "properties": {"Name":"Tobaccoville village","State":"North Carolina","State_Abbrev":"NC"},
"geometry":{ "type": "Point", "coordinates": [-80.358846,36.225597]}},
{ "type": "Feature", "properties": {"Name":"Topsail Beach town","State":"North Carolina","State_Abbrev":"NC"},
"geometry":{ "type": "Point", "coordinates": [-77.647572,34.366371]}},
{ "type": "Feature", "properties": {"Name":"Trenton town","State":"North Carolina","State_Abbrev":"NC"},
"geometry":{ "type": "Point", "coordinates": [-77.354643,35.063306]}},
{ "type": "Feature", "properties": {"Name":"Trent Woods town","State":"North Carolina","State_Abbrev":"NC"},
"geometry":{ "type": "Point", "coordinates": [-77.091963,35.082008]}},
{ "type": "Feature", "properties": {"Name":"Trinity city","State":"North Carolina","State_Abbrev":"NC"},
"geometry":{ "type": "Point", "coordinates": [-80.010447,35.876794]}},
{ "type": "Feature", "properties": {"Name":"Troutman town","State":"North Carolina","State_Abbrev":"NC"},
"geometry":{ "type": "Point", "coordinates": [-80.903739,35.701339]}},
{ "type": "Feature", "properties": {"Name":"Troy town","State":"North Carolina","State_Abbrev":"NC"},
"geometry":{ "type": "Point", "coordinates": [-79.891851,35.364635]}},
{ "type": "Feature", "properties": {"Name":"Tryon town","State":"North Carolina","State_Abbrev":"NC"},
"geometry":{ "type": "Point", "coordinates": [-82.2379,35.208808]}},
{ "type": "Feature", "properties": {"Name":"Turkey town","State":"North Carolina","State_Abbrev":"NC"},
"geometry":{ "type": "Point", "coordinates": [-78.184152,34.995035]}},
{ "type": "Feature", "properties": {"Name":"Tyro CDP","State":"North Carolina","State_Abbrev":"NC"},
"geometry":{ "type": "Point", "coordinates": [-80.376446,35.799712]}},
{ "type": "Feature", "properties": {"Name":"Unionville town","State":"North Carolina","State_Abbrev":"NC"},
"geometry":{ "type": "Point", "coordinates": [-80.517126,35.078492]}},
{ "type": "Feature", "properties": {"Name":"Valdese town","State":"North Carolina","State_Abbrev":"NC"},
"geometry":{ "type": "Point", "coordinates": [-81.572674,35.755545]}},
{ "type": "Feature", "properties": {"Name":"Valle Crucis CDP","State":"North Carolina","State_Abbrev":"NC"},
"geometry":{ "type": "Point", "coordinates": [-81.796639,36.215615]}},
{ "type": "Feature", "properties": {"Name":"Valley Hill CDP","State":"North Carolina","State_Abbrev":"NC"},
"geometry":{ "type": "Point", "coordinates": [-82.492677,35.293902]}},
{ "type": "Feature", "properties": {"Name":"Vanceboro town","State":"North Carolina","State_Abbrev":"NC"},
"geometry":{ "type": "Point", "coordinates": [-77.1567,35.303057]}},
{ "type": "Feature", "properties": {"Name":"Vandemere town","State":"North Carolina","State_Abbrev":"NC"},
"geometry":{ "type": "Point", "coordinates": [-76.661661,35.19273]}},
{ "type": "Feature", "properties": {"Name":"Vander CDP","State":"North Carolina","State_Abbrev":"NC"},
"geometry":{ "type": "Point", "coordinates": [-78.785383,35.038274]}},
{ "type": "Feature", "properties": {"Name":"Vann Crossroads CDP","State":"North Carolina","State_Abbrev":"NC"},
"geometry":{ "type": "Point", "coordinates": [-78.40411,35.170129]}},
{ "type": "Feature", "properties": {"Name":"Varnamtown town","State":"North Carolina","State_Abbrev":"NC"},
"geometry":{ "type": "Point", "coordinates": [-78.232694,33.945848]}},
{ "type": "Feature", "properties": {"Name":"Vass town","State":"North Carolina","State_Abbrev":"NC"},
"geometry":{ "type": "Point", "coordinates": [-79.285182,35.252138]}},
{ "type": "Feature", "properties": {"Name":"Waco town","State":"North Carolina","State_Abbrev":"NC"},
"geometry":{ "type": "Point", "coordinates": [-81.429329,35.362648]}},
{ "type": "Feature", "properties": {"Name":"Wade town","State":"North Carolina","State_Abbrev":"NC"},
"geometry":{ "type": "Point", "coordinates": [-78.739673,35.163402]}},
{ "type": "Feature", "properties": {"Name":"Wadesboro town","State":"North Carolina","State_Abbrev":"NC"},
"geometry":{ "type": "Point", "coordinates": [-80.074694,34.963829]}},
{ "type": "Feature", "properties": {"Name":"Wagram town","State":"North Carolina","State_Abbrev":"NC"},
"geometry":{ "type": "Point", "coordinates": [-79.365208,34.8891]}},
{ "type": "Feature", "properties": {"Name":"Wake Forest town","State":"North Carolina","State_Abbrev":"NC"},
"geometry":{ "type": "Point", "coordinates": [-78.500686,35.96201]}},
{ "type": "Feature", "properties": {"Name":"Wakulla CDP","State":"North Carolina","State_Abbrev":"NC"},
"geometry":{ "type": "Point", "coordinates": [-79.25597,34.796961]}},
{ "type": "Feature", "properties": {"Name":"Walkertown town","State":"North Carolina","State_Abbrev":"NC"},
"geometry":{ "type": "Point", "coordinates": [-80.169053,36.149274]}},
{ "type": "Feature", "properties": {"Name":"Wallace town","State":"North Carolina","State_Abbrev":"NC"},
"geometry":{ "type": "Point", "coordinates": [-77.990577,34.737886]}},
{ "type": "Feature", "properties": {"Name":"Wallburg town","State":"North Carolina","State_Abbrev":"NC"},
"geometry":{ "type": "Point", "coordinates": [-80.166928,36.013148]}},
{ "type": "Feature", "properties": {"Name":"Walnut Cove town","State":"North Carolina","State_Abbrev":"NC"},
"geometry":{ "type": "Point", "coordinates": [-80.140898,36.29354]}},
{ "type": "Feature", "properties": {"Name":"Walnut Creek village","State":"North Carolina","State_Abbrev":"NC"},
"geometry":{ "type": "Point", "coordinates": [-77.874719,35.309371]}},
{ "type": "Feature", "properties": {"Name":"Walstonburg town","State":"North Carolina","State_Abbrev":"NC"},
"geometry":{ "type": "Point", "coordinates": [-77.698006,35.596092]}},
{ "type": "Feature", "properties": {"Name":"Wanchese CDP","State":"North Carolina","State_Abbrev":"NC"},
"geometry":{ "type": "Point", "coordinates": [-75.641657,35.840187]}},
{ "type": "Feature", "properties": {"Name":"Warrenton town","State":"North Carolina","State_Abbrev":"NC"},
"geometry":{ "type": "Point", "coordinates": [-78.157262,36.398638]}},
{ "type": "Feature", "properties": {"Name":"Warsaw town","State":"North Carolina","State_Abbrev":"NC"},
"geometry":{ "type": "Point", "coordinates": [-78.092726,34.999578]}},
{ "type": "Feature", "properties": {"Name":"Washington city","State":"North Carolina","State_Abbrev":"NC"},
"geometry":{ "type": "Point", "coordinates": [-77.054238,35.557979]}},
{ "type": "Feature", "properties": {"Name":"Washington Park town","State":"North Carolina","State_Abbrev":"NC"},
"geometry":{ "type": "Point", "coordinates": [-77.03158,35.532862]}},
{ "type": "Feature", "properties": {"Name":"Watha town","State":"North Carolina","State_Abbrev":"NC"},
"geometry":{ "type": "Point", "coordinates": [-77.957595,34.651193]}},
{ "type": "Feature", "properties": {"Name":"Waves CDP","State":"North Carolina","State_Abbrev":"NC"},
"geometry":{ "type": "Point", "coordinates": [-75.465481,35.5659]}},
{ "type": "Feature", "properties": {"Name":"Waxhaw town","State":"North Carolina","State_Abbrev":"NC"},
"geometry":{ "type": "Point", "coordinates": [-80.739968,34.937472]}},
{ "type": "Feature", "properties": {"Name":"Waynesville town","State":"North Carolina","State_Abbrev":"NC"},
"geometry":{ "type": "Point", "coordinates": [-82.99929,35.485596]}},
{ "type": "Feature", "properties": {"Name":"Weaverville town","State":"North Carolina","State_Abbrev":"NC"},
"geometry":{ "type": "Point", "coordinates": [-82.555719,35.699321]}},
{ "type": "Feature", "properties": {"Name":"Webster town","State":"North Carolina","State_Abbrev":"NC"},
"geometry":{ "type": "Point", "coordinates": [-83.218978,35.349976]}},
{ "type": "Feature", "properties": {"Name":"Weddington town","State":"North Carolina","State_Abbrev":"NC"},
"geometry":{ "type": "Point", "coordinates": [-80.735422,35.022127]}},
{ "type": "Feature", "properties": {"Name":"Welcome CDP","State":"North Carolina","State_Abbrev":"NC"},
"geometry":{ "type": "Point", "coordinates": [-80.254773,35.906624]}},
{ "type": "Feature", "properties": {"Name":"Weldon town","State":"North Carolina","State_Abbrev":"NC"},
"geometry":{ "type": "Point", "coordinates": [-77.612986,36.423998]}},
{ "type": "Feature", "properties": {"Name":"Wendell town","State":"North Carolina","State_Abbrev":"NC"},
"geometry":{ "type": "Point", "coordinates": [-78.364069,35.768159]}},
{ "type": "Feature", "properties": {"Name":"Wentworth town","State":"North Carolina","State_Abbrev":"NC"},
"geometry":{ "type": "Point", "coordinates": [-79.756911,36.401166]}},
{ "type": "Feature", "properties": {"Name":"Wesley Chapel village","State":"North Carolina","State_Abbrev":"NC"},
"geometry":{ "type": "Point", "coordinates": [-80.693443,35.005842]}},
{ "type": "Feature", "properties": {"Name":"West Canton CDP","State":"North Carolina","State_Abbrev":"NC"},
"geometry":{ "type": "Point", "coordinates": [-82.867084,35.538389]}},
{ "type": "Feature", "properties": {"Name":"West Jefferson town","State":"North Carolina","State_Abbrev":"NC"},
"geometry":{ "type": "Point", "coordinates": [-81.489617,36.383092]}},
{ "type": "Feature", "properties": {"Name":"West Marion CDP","State":"North Carolina","State_Abbrev":"NC"},
"geometry":{ "type": "Point", "coordinates": [-82.018963,35.652407]}},
{ "type": "Feature", "properties": {"Name":"Westport CDP","State":"North Carolina","State_Abbrev":"NC"},
"geometry":{ "type": "Point", "coordinates": [-80.976855,35.497255]}},
{ "type": "Feature", "properties": {"Name":"Whispering Pines village","State":"North Carolina","State_Abbrev":"NC"},
"geometry":{ "type": "Point", "coordinates": [-79.371915,35.248173]}},
{ "type": "Feature", "properties": {"Name":"Whitakers town","State":"North Carolina","State_Abbrev":"NC"},
"geometry":{ "type": "Point", "coordinates": [-77.712972,36.105704]}},
{ "type": "Feature", "properties": {"Name":"White Lake town","State":"North Carolina","State_Abbrev":"NC"},
"geometry":{ "type": "Point", "coordinates": [-78.491108,34.650229]}},
{ "type": "Feature", "properties": {"Name":"White Oak CDP","State":"North Carolina","State_Abbrev":"NC"},
"geometry":{ "type": "Point", "coordinates": [-78.71859,34.739661]}},
{ "type": "Feature", "properties": {"Name":"White Plains CDP","State":"North Carolina","State_Abbrev":"NC"},
"geometry":{ "type": "Point", "coordinates": [-80.649002,36.443767]}},
{ "type": "Feature", "properties": {"Name":"Whiteville city","State":"North Carolina","State_Abbrev":"NC"},
"geometry":{ "type": "Point", "coordinates": [-78.701428,34.330483]}},
{ "type": "Feature", "properties": {"Name":"Whitsett town","State":"North Carolina","State_Abbrev":"NC"},
"geometry":{ "type": "Point", "coordinates": [-79.572345,36.07918]}},
{ "type": "Feature", "properties": {"Name":"Whittier CDP","State":"North Carolina","State_Abbrev":"NC"},
"geometry":{ "type": "Point", "coordinates": [-83.354758,35.434676]}},
{ "type": "Feature", "properties": {"Name":"Wilkesboro town","State":"North Carolina","State_Abbrev":"NC"},
"geometry":{ "type": "Point", "coordinates": [-81.174898,36.142486]}},
{ "type": "Feature", "properties": {"Name":"Williamston town","State":"North Carolina","State_Abbrev":"NC"},
"geometry":{ "type": "Point", "coordinates": [-77.066078,35.846539]}},
{ "type": "Feature", "properties": {"Name":"Wilmington city","State":"North Carolina","State_Abbrev":"NC"},
"geometry":{ "type": "Point", "coordinates": [-77.885767,34.209225]}},
{ "type": "Feature", "properties": {"Name":"Wilson city","State":"North Carolina","State_Abbrev":"NC"},
"geometry":{ "type": "Point", "coordinates": [-77.93075,35.731488]}},
{ "type": "Feature", "properties": {"Name":"Wilson's Mills town","State":"North Carolina","State_Abbrev":"NC"},
"geometry":{ "type": "Point", "coordinates": [-78.362987,35.586155]}},
{ "type": "Feature", "properties": {"Name":"Windsor town","State":"North Carolina","State_Abbrev":"NC"},
"geometry":{ "type": "Point", "coordinates": [-76.939923,35.993023]}},
{ "type": "Feature", "properties": {"Name":"Winfall town","State":"North Carolina","State_Abbrev":"NC"},
"geometry":{ "type": "Point", "coordinates": [-76.456674,36.211603]}},
{ "type": "Feature", "properties": {"Name":"Wingate town","State":"North Carolina","State_Abbrev":"NC"},
"geometry":{ "type": "Point", "coordinates": [-80.44832,34.985997]}},
{ "type": "Feature", "properties": {"Name":"Winston-Salem city","State":"North Carolina","State_Abbrev":"NC"},
"geometry":{ "type": "Point", "coordinates": [-80.260829,36.102863]}},
{ "type": "Feature", "properties": {"Name":"Winterville town","State":"North Carolina","State_Abbrev":"NC"},
"geometry":{ "type": "Point", "coordinates": [-77.400073,35.528674]}},
{ "type": "Feature", "properties": {"Name":"Winton town","State":"North Carolina","State_Abbrev":"NC"},
"geometry":{ "type": "Point", "coordinates": [-76.934729,36.389448]}},
{ "type": "Feature", "properties": {"Name":"Woodfin town","State":"North Carolina","State_Abbrev":"NC"},
"geometry":{ "type": "Point", "coordinates": [-82.594404,35.646077]}},
{ "type": "Feature", "properties": {"Name":"Woodland town","State":"North Carolina","State_Abbrev":"NC"},
"geometry":{ "type": "Point", "coordinates": [-77.214912,36.330615]}},
{ "type": "Feature", "properties": {"Name":"Woodlawn CDP","State":"North Carolina","State_Abbrev":"NC"},
"geometry":{ "type": "Point", "coordinates": [-79.29592,36.117957]}},
{ "type": "Feature", "properties": {"Name":"Wrightsboro CDP","State":"North Carolina","State_Abbrev":"NC"},
"geometry":{ "type": "Point", "coordinates": [-77.930115,34.287561]}},
{ "type": "Feature", "properties": {"Name":"Wrightsville Beach town","State":"North Carolina","State_Abbrev":"NC"},
"geometry":{ "type": "Point", "coordinates": [-77.797924,34.212991]}},
{ "type": "Feature", "properties": {"Name":"Yadkin College CDP","State":"North Carolina","State_Abbrev":"NC"},
"geometry":{ "type": "Point", "coordinates": [-80.386075,35.872073]}},
{ "type": "Feature", "properties": {"Name":"Yadkinville town","State":"North Carolina","State_Abbrev":"NC"},
"geometry":{ "type": "Point", "coordinates": [-80.659328,36.131563]}},
{ "type": "Feature", "properties": {"Name":"Yanceyville town","State":"North Carolina","State_Abbrev":"NC"},
"geometry":{ "type": "Point", "coordinates": [-79.329357,36.4102]}},
{ "type": "Feature", "properties": {"Name":"Youngsville town","State":"North Carolina","State_Abbrev":"NC"},
"geometry":{ "type": "Point", "coordinates": [-78.487257,36.021109]}},
{ "type": "Feature", "properties": {"Name":"Zebulon town","State":"North Carolina","State_Abbrev":"NC"},
"geometry":{ "type": "Point", "coordinates": [-78.314158,35.829542]}}]}
