{"type":"FeatureCollection","features":[
{ "type": "Feature", "properties": {"Name":"Achille town","State":"Oklahoma","State_Abbrev":"OK"},
"geometry":{ "type": "Point", "coordinates": [-96.388752,33.835346]}},
{ "type": "Feature", "properties": {"Name":"Ada city","State":"Oklahoma","State_Abbrev":"OK"},
"geometry":{ "type": "Point", "coordinates": [-96.666802,34.766286]}},
{ "type": "Feature", "properties": {"Name":"Adair town","State":"Oklahoma","State_Abbrev":"OK"},
"geometry":{ "type": "Point", "coordinates": [-95.273445,36.43641]}},
{ "type": "Feature", "properties": {"Name":"Adams CDP","State":"Oklahoma","State_Abbrev":"OK"},
"geometry":{ "type": "Point", "coordinates": [-101.075164,36.754581]}},
{ "type": "Feature", "properties": {"Name":"Adamson CDP","State":"Oklahoma","State_Abbrev":"OK"},
"geometry":{ "type": "Point", "coordinates": [-95.547583,34.924784]}},
{ "type": "Feature", "properties": {"Name":"Addington town","State":"Oklahoma","State_Abbrev":"OK"},
"geometry":{ "type": "Point", "coordinates": [-97.966102,34.243091]}},
{ "type": "Feature", "properties": {"Name":"Afton town","State":"Oklahoma","State_Abbrev":"OK"},
"geometry":{ "type": "Point", "coordinates": [-94.957463,36.696535]}},
{ "type": "Feature", "properties": {"Name":"Agra town","State":"Oklahoma","State_Abbrev":"OK"},
"geometry":{ "type": "Point", "coordinates": [-96.870195,35.894937]}},
{ "type": "Feature", "properties": {"Name":"Akins CDP","State":"Oklahoma","State_Abbrev":"OK"},
"geometry":{ "type": "Point", "coordinates": [-94.666795,35.503967]}},
{ "type": "Feature", "properties": {"Name":"Albany CDP","State":"Oklahoma","State_Abbrev":"OK"},
"geometry":{ "type": "Point", "coordinates": [-96.155242,33.874518]}},
{ "type": "Feature", "properties": {"Name":"Albion town","State":"Oklahoma","State_Abbrev":"OK"},
"geometry":{ "type": "Point", "coordinates": [-95.099369,34.662141]}},
{ "type": "Feature", "properties": {"Name":"Alderson town","State":"Oklahoma","State_Abbrev":"OK"},
"geometry":{ "type": "Point", "coordinates": [-95.689431,34.900593]}},
{ "type": "Feature", "properties": {"Name":"Alex town","State":"Oklahoma","State_Abbrev":"OK"},
"geometry":{ "type": "Point", "coordinates": [-97.776329,34.922801]}},
{ "type": "Feature", "properties": {"Name":"Aline town","State":"Oklahoma","State_Abbrev":"OK"},
"geometry":{ "type": "Point", "coordinates": [-98.448672,36.50967]}},
{ "type": "Feature", "properties": {"Name":"Allen town","State":"Oklahoma","State_Abbrev":"OK"},
"geometry":{ "type": "Point", "coordinates": [-96.412889,34.877628]}},
{ "type": "Feature", "properties": {"Name":"Altus city","State":"Oklahoma","State_Abbrev":"OK"},
"geometry":{ "type": "Point", "coordinates": [-99.309046,34.657061]}},
{ "type": "Feature", "properties": {"Name":"Alva city","State":"Oklahoma","State_Abbrev":"OK"},
"geometry":{ "type": "Point", "coordinates": [-98.664877,36.789566]}},
{ "type": "Feature", "properties": {"Name":"Amber town","State":"Oklahoma","State_Abbrev":"OK"},
"geometry":{ "type": "Point", "coordinates": [-97.882055,35.160232]}},
{ "type": "Feature", "properties": {"Name":"Ames town","State":"Oklahoma","State_Abbrev":"OK"},
"geometry":{ "type": "Point", "coordinates": [-98.186139,36.246962]}},
{ "type": "Feature", "properties": {"Name":"Amorita town","State":"Oklahoma","State_Abbrev":"OK"},
"geometry":{ "type": "Point", "coordinates": [-98.293621,36.924012]}},
{ "type": "Feature", "properties": {"Name":"Anadarko city","State":"Oklahoma","State_Abbrev":"OK"},
"geometry":{ "type": "Point", "coordinates": [-98.244469,35.065296]}},
{ "type": "Feature", "properties": {"Name":"Antlers city","State":"Oklahoma","State_Abbrev":"OK"},
"geometry":{ "type": "Point", "coordinates": [-95.622759,34.233026]}},
{ "type": "Feature", "properties": {"Name":"Apache town","State":"Oklahoma","State_Abbrev":"OK"},
"geometry":{ "type": "Point", "coordinates": [-98.358726,34.894169]}},
{ "type": "Feature", "properties": {"Name":"Arapaho town","State":"Oklahoma","State_Abbrev":"OK"},
"geometry":{ "type": "Point", "coordinates": [-98.959345,35.577797]}},
{ "type": "Feature", "properties": {"Name":"Arcadia town","State":"Oklahoma","State_Abbrev":"OK"},
"geometry":{ "type": "Point", "coordinates": [-97.325515,35.665487]}},
{ "type": "Feature", "properties": {"Name":"Ardmore city","State":"Oklahoma","State_Abbrev":"OK"},
"geometry":{ "type": "Point", "coordinates": [-97.131848,34.196507]}},
{ "type": "Feature", "properties": {"Name":"Arkoma town","State":"Oklahoma","State_Abbrev":"OK"},
"geometry":{ "type": "Point", "coordinates": [-94.448332,35.330247]}},
{ "type": "Feature", "properties": {"Name":"Armstrong town","State":"Oklahoma","State_Abbrev":"OK"},
"geometry":{ "type": "Point", "coordinates": [-96.34484,34.052816]}},
{ "type": "Feature", "properties": {"Name":"Arnett town","State":"Oklahoma","State_Abbrev":"OK"},
"geometry":{ "type": "Point", "coordinates": [-99.772706,36.134487]}},
{ "type": "Feature", "properties": {"Name":"Arpelar CDP","State":"Oklahoma","State_Abbrev":"OK"},
"geometry":{ "type": "Point", "coordinates": [-95.951695,34.932848]}},
{ "type": "Feature", "properties": {"Name":"Asher town","State":"Oklahoma","State_Abbrev":"OK"},
"geometry":{ "type": "Point", "coordinates": [-96.925401,34.988373]}},
{ "type": "Feature", "properties": {"Name":"Ashland town","State":"Oklahoma","State_Abbrev":"OK"},
"geometry":{ "type": "Point", "coordinates": [-96.070867,34.765566]}},
{ "type": "Feature", "properties": {"Name":"Atoka city","State":"Oklahoma","State_Abbrev":"OK"},
"geometry":{ "type": "Point", "coordinates": [-96.131101,34.386353]}},
{ "type": "Feature", "properties": {"Name":"Atwood town","State":"Oklahoma","State_Abbrev":"OK"},
"geometry":{ "type": "Point", "coordinates": [-96.336762,34.955155]}},
{ "type": "Feature", "properties": {"Name":"Avant town","State":"Oklahoma","State_Abbrev":"OK"},
"geometry":{ "type": "Point", "coordinates": [-96.044119,36.490667]}},
{ "type": "Feature", "properties": {"Name":"Avard CDP","State":"Oklahoma","State_Abbrev":"OK"},
"geometry":{ "type": "Point", "coordinates": [-98.789357,36.697358]}},
{ "type": "Feature", "properties": {"Name":"Bache CDP","State":"Oklahoma","State_Abbrev":"OK"},
"geometry":{ "type": "Point", "coordinates": [-95.650521,34.894271]}},
{ "type": "Feature", "properties": {"Name":"Badger Lee CDP","State":"Oklahoma","State_Abbrev":"OK"},
"geometry":{ "type": "Point", "coordinates": [-94.818981,35.473733]}},
{ "type": "Feature", "properties": {"Name":"Baker CDP","State":"Oklahoma","State_Abbrev":"OK"},
"geometry":{ "type": "Point", "coordinates": [-101.017712,36.870414]}},
{ "type": "Feature", "properties": {"Name":"Ballou CDP","State":"Oklahoma","State_Abbrev":"OK"},
"geometry":{ "type": "Point", "coordinates": [-95.199834,36.142127]}},
{ "type": "Feature", "properties": {"Name":"Barber CDP","State":"Oklahoma","State_Abbrev":"OK"},
"geometry":{ "type": "Point", "coordinates": [-94.848449,35.752135]}},
{ "type": "Feature", "properties": {"Name":"Barnsdall city","State":"Oklahoma","State_Abbrev":"OK"},
"geometry":{ "type": "Point", "coordinates": [-96.15577,36.560938]}},
{ "type": "Feature", "properties": {"Name":"Baron CDP","State":"Oklahoma","State_Abbrev":"OK"},
"geometry":{ "type": "Point", "coordinates": [-94.602071,35.935523]}},
{ "type": "Feature", "properties": {"Name":"Bartlesville city","State":"Oklahoma","State_Abbrev":"OK"},
"geometry":{ "type": "Point", "coordinates": [-95.948454,36.737668]}},
{ "type": "Feature", "properties": {"Name":"Bearden town","State":"Oklahoma","State_Abbrev":"OK"},
"geometry":{ "type": "Point", "coordinates": [-96.388587,35.364298]}},
{ "type": "Feature", "properties": {"Name":"Beaver town","State":"Oklahoma","State_Abbrev":"OK"},
"geometry":{ "type": "Point", "coordinates": [-100.523543,36.815087]}},
{ "type": "Feature", "properties": {"Name":"Bee CDP","State":"Oklahoma","State_Abbrev":"OK"},
"geometry":{ "type": "Point", "coordinates": [-96.568773,34.124588]}},
{ "type": "Feature", "properties": {"Name":"Beggs city","State":"Oklahoma","State_Abbrev":"OK"},
"geometry":{ "type": "Point", "coordinates": [-96.066464,35.741386]}},
{ "type": "Feature", "properties": {"Name":"Belfonte CDP","State":"Oklahoma","State_Abbrev":"OK"},
"geometry":{ "type": "Point", "coordinates": [-94.551167,35.542915]}},
{ "type": "Feature", "properties": {"Name":"Bell CDP","State":"Oklahoma","State_Abbrev":"OK"},
"geometry":{ "type": "Point", "coordinates": [-94.567897,35.729723]}},
{ "type": "Feature", "properties": {"Name":"Bennington town","State":"Oklahoma","State_Abbrev":"OK"},
"geometry":{ "type": "Point", "coordinates": [-96.038388,34.005396]}},
{ "type": "Feature", "properties": {"Name":"Bentley CDP","State":"Oklahoma","State_Abbrev":"OK"},
"geometry":{ "type": "Point", "coordinates": [-96.07971,34.217411]}},
{ "type": "Feature", "properties": {"Name":"Bernice town","State":"Oklahoma","State_Abbrev":"OK"},
"geometry":{ "type": "Point", "coordinates": [-94.913481,36.623395]}},
{ "type": "Feature", "properties": {"Name":"Bessie town","State":"Oklahoma","State_Abbrev":"OK"},
"geometry":{ "type": "Point", "coordinates": [-98.989178,35.385419]}},
{ "type": "Feature", "properties": {"Name":"Bethany city","State":"Oklahoma","State_Abbrev":"OK"},
"geometry":{ "type": "Point", "coordinates": [-97.641734,35.507174]}},
{ "type": "Feature", "properties": {"Name":"Bethel Acres town","State":"Oklahoma","State_Abbrev":"OK"},
"geometry":{ "type": "Point", "coordinates": [-97.045059,35.311366]}},
{ "type": "Feature", "properties": {"Name":"Big Cabin town","State":"Oklahoma","State_Abbrev":"OK"},
"geometry":{ "type": "Point", "coordinates": [-95.221994,36.542261]}},
{ "type": "Feature", "properties": {"Name":"Billings town","State":"Oklahoma","State_Abbrev":"OK"},
"geometry":{ "type": "Point", "coordinates": [-97.441749,36.537595]}},
{ "type": "Feature", "properties": {"Name":"Binger town","State":"Oklahoma","State_Abbrev":"OK"},
"geometry":{ "type": "Point", "coordinates": [-98.343134,35.310487]}},
{ "type": "Feature", "properties": {"Name":"Bison CDP","State":"Oklahoma","State_Abbrev":"OK"},
"geometry":{ "type": "Point", "coordinates": [-97.897913,36.195948]}},
{ "type": "Feature", "properties": {"Name":"Bixby city","State":"Oklahoma","State_Abbrev":"OK"},
"geometry":{ "type": "Point", "coordinates": [-95.878343,35.945571]}},
{ "type": "Feature", "properties": {"Name":"Blackburn town","State":"Oklahoma","State_Abbrev":"OK"},
"geometry":{ "type": "Point", "coordinates": [-96.596551,36.373312]}},
{ "type": "Feature", "properties": {"Name":"Blackgum CDP","State":"Oklahoma","State_Abbrev":"OK"},
"geometry":{ "type": "Point", "coordinates": [-94.992135,35.612046]}},
{ "type": "Feature", "properties": {"Name":"Blackwell city","State":"Oklahoma","State_Abbrev":"OK"},
"geometry":{ "type": "Point", "coordinates": [-97.300871,36.801341]}},
{ "type": "Feature", "properties": {"Name":"Blair town","State":"Oklahoma","State_Abbrev":"OK"},
"geometry":{ "type": "Point", "coordinates": [-99.333436,34.780193]}},
{ "type": "Feature", "properties": {"Name":"Blanchard city","State":"Oklahoma","State_Abbrev":"OK"},
"geometry":{ "type": "Point", "coordinates": [-97.665221,35.152343]}},
{ "type": "Feature", "properties": {"Name":"Blanco CDP","State":"Oklahoma","State_Abbrev":"OK"},
"geometry":{ "type": "Point", "coordinates": [-95.773563,34.750821]}},
{ "type": "Feature", "properties": {"Name":"Blue CDP","State":"Oklahoma","State_Abbrev":"OK"},
"geometry":{ "type": "Point", "coordinates": [-96.230368,33.989938]}},
{ "type": "Feature", "properties": {"Name":"Bluejacket town","State":"Oklahoma","State_Abbrev":"OK"},
"geometry":{ "type": "Point", "coordinates": [-95.074033,36.800427]}},
{ "type": "Feature", "properties": {"Name":"Boise City city","State":"Oklahoma","State_Abbrev":"OK"},
"geometry":{ "type": "Point", "coordinates": [-102.509522,36.731336]}},
{ "type": "Feature", "properties": {"Name":"Bokchito town","State":"Oklahoma","State_Abbrev":"OK"},
"geometry":{ "type": "Point", "coordinates": [-96.141577,34.015434]}},
{ "type": "Feature", "properties": {"Name":"Bokoshe town","State":"Oklahoma","State_Abbrev":"OK"},
"geometry":{ "type": "Point", "coordinates": [-94.790406,35.190371]}},
{ "type": "Feature", "properties": {"Name":"Boley town","State":"Oklahoma","State_Abbrev":"OK"},
"geometry":{ "type": "Point", "coordinates": [-96.479953,35.489868]}},
{ "type": "Feature", "properties": {"Name":"Boswell town","State":"Oklahoma","State_Abbrev":"OK"},
"geometry":{ "type": "Point", "coordinates": [-95.869957,34.027613]}},
{ "type": "Feature", "properties": {"Name":"Bowlegs town","State":"Oklahoma","State_Abbrev":"OK"},
"geometry":{ "type": "Point", "coordinates": [-96.669273,35.147276]}},
{ "type": "Feature", "properties": {"Name":"Bowring CDP","State":"Oklahoma","State_Abbrev":"OK"},
"geometry":{ "type": "Point", "coordinates": [-96.11975,36.878744]}},
{ "type": "Feature", "properties": {"Name":"Box CDP","State":"Oklahoma","State_Abbrev":"OK"},
"geometry":{ "type": "Point", "coordinates": [-94.972763,35.570017]}},
{ "type": "Feature", "properties": {"Name":"Boynton town","State":"Oklahoma","State_Abbrev":"OK"},
"geometry":{ "type": "Point", "coordinates": [-95.6541,35.649415]}},
{ "type": "Feature", "properties": {"Name":"Bradley town","State":"Oklahoma","State_Abbrev":"OK"},
"geometry":{ "type": "Point", "coordinates": [-97.708744,34.877967]}},
{ "type": "Feature", "properties": {"Name":"Braggs town","State":"Oklahoma","State_Abbrev":"OK"},
"geometry":{ "type": "Point", "coordinates": [-95.198339,35.663293]}},
{ "type": "Feature", "properties": {"Name":"Braman town","State":"Oklahoma","State_Abbrev":"OK"},
"geometry":{ "type": "Point", "coordinates": [-97.335815,36.923644]}},
{ "type": "Feature", "properties": {"Name":"Bray town","State":"Oklahoma","State_Abbrev":"OK"},
"geometry":{ "type": "Point", "coordinates": [-97.817484,34.60836]}},
{ "type": "Feature", "properties": {"Name":"Breckenridge town","State":"Oklahoma","State_Abbrev":"OK"},
"geometry":{ "type": "Point", "coordinates": [-97.725465,36.457242]}},
{ "type": "Feature", "properties": {"Name":"Brent CDP","State":"Oklahoma","State_Abbrev":"OK"},
"geometry":{ "type": "Point", "coordinates": [-94.792473,35.36622]}},
{ "type": "Feature", "properties": {"Name":"Briartown CDP","State":"Oklahoma","State_Abbrev":"OK"},
"geometry":{ "type": "Point", "coordinates": [-95.238611,35.297323]}},
{ "type": "Feature", "properties": {"Name":"Bridge Creek town","State":"Oklahoma","State_Abbrev":"OK"},
"geometry":{ "type": "Point", "coordinates": [-97.734686,35.233546]}},
{ "type": "Feature", "properties": {"Name":"Bridgeport city","State":"Oklahoma","State_Abbrev":"OK"},
"geometry":{ "type": "Point", "coordinates": [-98.377478,35.547622]}},
{ "type": "Feature", "properties": {"Name":"Briggs CDP","State":"Oklahoma","State_Abbrev":"OK"},
"geometry":{ "type": "Point", "coordinates": [-94.878519,35.921763]}},
{ "type": "Feature", "properties": {"Name":"Bristow city","State":"Oklahoma","State_Abbrev":"OK"},
"geometry":{ "type": "Point", "coordinates": [-96.394395,35.833592]}},
{ "type": "Feature", "properties": {"Name":"Broken Arrow city","State":"Oklahoma","State_Abbrev":"OK"},
"geometry":{ "type": "Point", "coordinates": [-95.780996,36.036529]}},
{ "type": "Feature", "properties": {"Name":"Broken Bow city","State":"Oklahoma","State_Abbrev":"OK"},
"geometry":{ "type": "Point", "coordinates": [-94.741357,34.028862]}},
{ "type": "Feature", "properties": {"Name":"Bromide town","State":"Oklahoma","State_Abbrev":"OK"},
"geometry":{ "type": "Point", "coordinates": [-96.494761,34.418295]}},
{ "type": "Feature", "properties": {"Name":"Brooksville town","State":"Oklahoma","State_Abbrev":"OK"},
"geometry":{ "type": "Point", "coordinates": [-96.961127,35.209675]}},
{ "type": "Feature", "properties": {"Name":"Brush Creek CDP","State":"Oklahoma","State_Abbrev":"OK"},
"geometry":{ "type": "Point", "coordinates": [-94.783885,36.416473]}},
{ "type": "Feature", "properties": {"Name":"Brushy CDP","State":"Oklahoma","State_Abbrev":"OK"},
"geometry":{ "type": "Point", "coordinates": [-94.747517,35.561647]}},
{ "type": "Feature", "properties": {"Name":"Bryant CDP","State":"Oklahoma","State_Abbrev":"OK"},
"geometry":{ "type": "Point", "coordinates": [-96.062342,35.392286]}},
{ "type": "Feature", "properties": {"Name":"Buffalo town","State":"Oklahoma","State_Abbrev":"OK"},
"geometry":{ "type": "Point", "coordinates": [-99.637673,36.829412]}},
{ "type": "Feature", "properties": {"Name":"Bug Tussle CDP","State":"Oklahoma","State_Abbrev":"OK"},
"geometry":{ "type": "Point", "coordinates": [-95.675587,35.033312]}},
{ "type": "Feature", "properties": {"Name":"Bull Hollow CDP","State":"Oklahoma","State_Abbrev":"OK"},
"geometry":{ "type": "Point", "coordinates": [-94.900832,36.304625]}},
{ "type": "Feature", "properties": {"Name":"Bunch CDP","State":"Oklahoma","State_Abbrev":"OK"},
"geometry":{ "type": "Point", "coordinates": [-94.740242,35.698852]}},
{ "type": "Feature", "properties": {"Name":"Burbank town","State":"Oklahoma","State_Abbrev":"OK"},
"geometry":{ "type": "Point", "coordinates": [-96.728112,36.696085]}},
{ "type": "Feature", "properties": {"Name":"Burlington town","State":"Oklahoma","State_Abbrev":"OK"},
"geometry":{ "type": "Point", "coordinates": [-98.42341,36.900213]}},
{ "type": "Feature", "properties": {"Name":"Burneyville CDP","State":"Oklahoma","State_Abbrev":"OK"},
"geometry":{ "type": "Point", "coordinates": [-97.292396,33.890125]}},
{ "type": "Feature", "properties": {"Name":"Burns Flat town","State":"Oklahoma","State_Abbrev":"OK"},
"geometry":{ "type": "Point", "coordinates": [-99.175017,35.354693]}},
{ "type": "Feature", "properties": {"Name":"Bushyhead CDP","State":"Oklahoma","State_Abbrev":"OK"},
"geometry":{ "type": "Point", "coordinates": [-95.505238,36.461664]}},
{ "type": "Feature", "properties": {"Name":"Butler town","State":"Oklahoma","State_Abbrev":"OK"},
"geometry":{ "type": "Point", "coordinates": [-99.186377,35.636448]}},
{ "type": "Feature", "properties": {"Name":"Butler CDP","State":"Oklahoma","State_Abbrev":"OK"},
"geometry":{ "type": "Point", "coordinates": [-94.74057,36.538724]}},
{ "type": "Feature", "properties": {"Name":"Byars town","State":"Oklahoma","State_Abbrev":"OK"},
"geometry":{ "type": "Point", "coordinates": [-97.054224,34.871969]}},
{ "type": "Feature", "properties": {"Name":"Byng town","State":"Oklahoma","State_Abbrev":"OK"},
"geometry":{ "type": "Point", "coordinates": [-96.66777,34.865667]}},
{ "type": "Feature", "properties": {"Name":"Byron town","State":"Oklahoma","State_Abbrev":"OK"},
"geometry":{ "type": "Point", "coordinates": [-98.294423,36.901382]}},
{ "type": "Feature", "properties": {"Name":"Cache city","State":"Oklahoma","State_Abbrev":"OK"},
"geometry":{ "type": "Point", "coordinates": [-98.619548,34.627562]}},
{ "type": "Feature", "properties": {"Name":"Caddo town","State":"Oklahoma","State_Abbrev":"OK"},
"geometry":{ "type": "Point", "coordinates": [-96.263719,34.125593]}},
{ "type": "Feature", "properties": {"Name":"Calera town","State":"Oklahoma","State_Abbrev":"OK"},
"geometry":{ "type": "Point", "coordinates": [-96.42906,33.930829]}},
{ "type": "Feature", "properties": {"Name":"Calumet town","State":"Oklahoma","State_Abbrev":"OK"},
"geometry":{ "type": "Point", "coordinates": [-98.124786,35.601385]}},
{ "type": "Feature", "properties": {"Name":"Calvin town","State":"Oklahoma","State_Abbrev":"OK"},
"geometry":{ "type": "Point", "coordinates": [-96.249887,34.96638]}},
{ "type": "Feature", "properties": {"Name":"Camargo town","State":"Oklahoma","State_Abbrev":"OK"},
"geometry":{ "type": "Point", "coordinates": [-99.288454,36.017902]}},
{ "type": "Feature", "properties": {"Name":"Cameron town","State":"Oklahoma","State_Abbrev":"OK"},
"geometry":{ "type": "Point", "coordinates": [-94.539287,35.137457]}},
{ "type": "Feature", "properties": {"Name":"Canadian town","State":"Oklahoma","State_Abbrev":"OK"},
"geometry":{ "type": "Point", "coordinates": [-95.649404,35.173963]}},
{ "type": "Feature", "properties": {"Name":"Canadian Shores CDP","State":"Oklahoma","State_Abbrev":"OK"},
"geometry":{ "type": "Point", "coordinates": [-95.742081,35.172853]}},
{ "type": "Feature", "properties": {"Name":"Caney town","State":"Oklahoma","State_Abbrev":"OK"},
"geometry":{ "type": "Point", "coordinates": [-96.217168,34.235764]}},
{ "type": "Feature", "properties": {"Name":"Caney CDP","State":"Oklahoma","State_Abbrev":"OK"},
"geometry":{ "type": "Point", "coordinates": [-94.840026,35.829557]}},
{ "type": "Feature", "properties": {"Name":"Caney Ridge CDP","State":"Oklahoma","State_Abbrev":"OK"},
"geometry":{ "type": "Point", "coordinates": [-94.882761,35.763926]}},
{ "type": "Feature", "properties": {"Name":"Canton town","State":"Oklahoma","State_Abbrev":"OK"},
"geometry":{ "type": "Point", "coordinates": [-98.588403,36.055018]}},
{ "type": "Feature", "properties": {"Name":"Canute town","State":"Oklahoma","State_Abbrev":"OK"},
"geometry":{ "type": "Point", "coordinates": [-99.277927,35.421969]}},
{ "type": "Feature", "properties": {"Name":"Capron town","State":"Oklahoma","State_Abbrev":"OK"},
"geometry":{ "type": "Point", "coordinates": [-98.577622,36.896662]}},
{ "type": "Feature", "properties": {"Name":"Carlisle CDP","State":"Oklahoma","State_Abbrev":"OK"},
"geometry":{ "type": "Point", "coordinates": [-95.032222,35.506877]}},
{ "type": "Feature", "properties": {"Name":"Carlton Landing town","State":"Oklahoma","State_Abbrev":"OK"},
"geometry":{ "type": "Point", "coordinates": [-95.557049,35.211734]}},
{ "type": "Feature", "properties": {"Name":"Carmen town","State":"Oklahoma","State_Abbrev":"OK"},
"geometry":{ "type": "Point", "coordinates": [-98.457902,36.579117]}},
{ "type": "Feature", "properties": {"Name":"Carnegie town","State":"Oklahoma","State_Abbrev":"OK"},
"geometry":{ "type": "Point", "coordinates": [-98.599587,35.102742]}},
{ "type": "Feature", "properties": {"Name":"Carney town","State":"Oklahoma","State_Abbrev":"OK"},
"geometry":{ "type": "Point", "coordinates": [-97.015542,35.805891]}},
{ "type": "Feature", "properties": {"Name":"Carrier town","State":"Oklahoma","State_Abbrev":"OK"},
"geometry":{ "type": "Point", "coordinates": [-98.0172,36.478594]}},
{ "type": "Feature", "properties": {"Name":"Carter town","State":"Oklahoma","State_Abbrev":"OK"},
"geometry":{ "type": "Point", "coordinates": [-99.503576,35.216948]}},
{ "type": "Feature", "properties": {"Name":"Cartwright CDP","State":"Oklahoma","State_Abbrev":"OK"},
"geometry":{ "type": "Point", "coordinates": [-96.556978,33.85539]}},
{ "type": "Feature", "properties": {"Name":"Cashion town","State":"Oklahoma","State_Abbrev":"OK"},
"geometry":{ "type": "Point", "coordinates": [-97.675739,35.800909]}},
{ "type": "Feature", "properties": {"Name":"Castle town","State":"Oklahoma","State_Abbrev":"OK"},
"geometry":{ "type": "Point", "coordinates": [-96.391552,35.468109]}},
{ "type": "Feature", "properties": {"Name":"Catoosa city","State":"Oklahoma","State_Abbrev":"OK"},
"geometry":{ "type": "Point", "coordinates": [-95.77031,36.180264]}},
{ "type": "Feature", "properties": {"Name":"Cave Spring CDP","State":"Oklahoma","State_Abbrev":"OK"},
"geometry":{ "type": "Point", "coordinates": [-94.75814,35.728177]}},
{ "type": "Feature", "properties": {"Name":"Cayuga CDP","State":"Oklahoma","State_Abbrev":"OK"},
"geometry":{ "type": "Point", "coordinates": [-94.651732,36.637389]}},
{ "type": "Feature", "properties": {"Name":"Cedar Crest CDP","State":"Oklahoma","State_Abbrev":"OK"},
"geometry":{ "type": "Point", "coordinates": [-95.173148,36.123176]}},
{ "type": "Feature", "properties": {"Name":"Cedar Lake CDP","State":"Oklahoma","State_Abbrev":"OK"},
"geometry":{ "type": "Point", "coordinates": [-98.193009,35.427]}},
{ "type": "Feature", "properties": {"Name":"Cedar Valley city","State":"Oklahoma","State_Abbrev":"OK"},
"geometry":{ "type": "Point", "coordinates": [-97.500499,35.872919]}},
{ "type": "Feature", "properties": {"Name":"Cement town","State":"Oklahoma","State_Abbrev":"OK"},
"geometry":{ "type": "Point", "coordinates": [-98.136277,34.936209]}},
{ "type": "Feature", "properties": {"Name":"Centrahoma city","State":"Oklahoma","State_Abbrev":"OK"},
"geometry":{ "type": "Point", "coordinates": [-96.343671,34.610397]}},
{ "type": "Feature", "properties": {"Name":"Central High town","State":"Oklahoma","State_Abbrev":"OK"},
"geometry":{ "type": "Point", "coordinates": [-98.088648,34.614327]}},
{ "type": "Feature", "properties": {"Name":"Chance CDP","State":"Oklahoma","State_Abbrev":"OK"},
"geometry":{ "type": "Point", "coordinates": [-94.646266,36.067498]}},
{ "type": "Feature", "properties": {"Name":"Chandler city","State":"Oklahoma","State_Abbrev":"OK"},
"geometry":{ "type": "Point", "coordinates": [-96.836198,35.712784]}},
{ "type": "Feature", "properties": {"Name":"Chattanooga town","State":"Oklahoma","State_Abbrev":"OK"},
"geometry":{ "type": "Point", "coordinates": [-98.654017,34.42386]}},
{ "type": "Feature", "properties": {"Name":"Checotah city","State":"Oklahoma","State_Abbrev":"OK"},
"geometry":{ "type": "Point", "coordinates": [-95.522818,35.482436]}},
{ "type": "Feature", "properties": {"Name":"Chelsea town","State":"Oklahoma","State_Abbrev":"OK"},
"geometry":{ "type": "Point", "coordinates": [-95.434568,36.532037]}},
{ "type": "Feature", "properties": {"Name":"Cherokee city","State":"Oklahoma","State_Abbrev":"OK"},
"geometry":{ "type": "Point", "coordinates": [-98.357667,36.750694]}},
{ "type": "Feature", "properties": {"Name":"Cherry Tree CDP","State":"Oklahoma","State_Abbrev":"OK"},
"geometry":{ "type": "Point", "coordinates": [-94.643925,35.746465]}},
{ "type": "Feature", "properties": {"Name":"Chester CDP","State":"Oklahoma","State_Abbrev":"OK"},
"geometry":{ "type": "Point", "coordinates": [-98.921341,36.215676]}},
{ "type": "Feature", "properties": {"Name":"Chewey CDP","State":"Oklahoma","State_Abbrev":"OK"},
"geometry":{ "type": "Point", "coordinates": [-94.725729,36.112488]}},
{ "type": "Feature", "properties": {"Name":"Cheyenne town","State":"Oklahoma","State_Abbrev":"OK"},
"geometry":{ "type": "Point", "coordinates": [-99.676371,35.61092]}},
{ "type": "Feature", "properties": {"Name":"Chickasha city","State":"Oklahoma","State_Abbrev":"OK"},
"geometry":{ "type": "Point", "coordinates": [-97.947173,35.040543]}},
{ "type": "Feature", "properties": {"Name":"Choctaw city","State":"Oklahoma","State_Abbrev":"OK"},
"geometry":{ "type": "Point", "coordinates": [-97.269942,35.484983]}},
{ "type": "Feature", "properties": {"Name":"Chouteau town","State":"Oklahoma","State_Abbrev":"OK"},
"geometry":{ "type": "Point", "coordinates": [-95.338902,36.189507]}},
{ "type": "Feature", "properties": {"Name":"Christie CDP","State":"Oklahoma","State_Abbrev":"OK"},
"geometry":{ "type": "Point", "coordinates": [-94.646948,35.97604]}},
{ "type": "Feature", "properties": {"Name":"Cimarron City town","State":"Oklahoma","State_Abbrev":"OK"},
"geometry":{ "type": "Point", "coordinates": [-97.603211,35.888778]}},
{ "type": "Feature", "properties": {"Name":"Claremore city","State":"Oklahoma","State_Abbrev":"OK"},
"geometry":{ "type": "Point", "coordinates": [-95.608319,36.314628]}},
{ "type": "Feature", "properties": {"Name":"Clarita CDP","State":"Oklahoma","State_Abbrev":"OK"},
"geometry":{ "type": "Point", "coordinates": [-96.444883,34.484118]}},
{ "type": "Feature", "properties": {"Name":"Clarksville CDP","State":"Oklahoma","State_Abbrev":"OK"},
"geometry":{ "type": "Point", "coordinates": [-95.514082,35.824076]}},
{ "type": "Feature", "properties": {"Name":"Clayton town","State":"Oklahoma","State_Abbrev":"OK"},
"geometry":{ "type": "Point", "coordinates": [-95.355746,34.586129]}},
{ "type": "Feature", "properties": {"Name":"Clearview town","State":"Oklahoma","State_Abbrev":"OK"},
"geometry":{ "type": "Point", "coordinates": [-96.18696,35.398249]}},
{ "type": "Feature", "properties": {"Name":"Cleora CDP","State":"Oklahoma","State_Abbrev":"OK"},
"geometry":{ "type": "Point", "coordinates": [-94.942887,36.595027]}},
{ "type": "Feature", "properties": {"Name":"Cleo Springs town","State":"Oklahoma","State_Abbrev":"OK"},
"geometry":{ "type": "Point", "coordinates": [-98.440027,36.404928]}},
{ "type": "Feature", "properties": {"Name":"Cleveland city","State":"Oklahoma","State_Abbrev":"OK"},
"geometry":{ "type": "Point", "coordinates": [-96.47218,36.310908]}},
{ "type": "Feature", "properties": {"Name":"Clinton city","State":"Oklahoma","State_Abbrev":"OK"},
"geometry":{ "type": "Point", "coordinates": [-98.970503,35.507101]}},
{ "type": "Feature", "properties": {"Name":"Cloud Creek CDP","State":"Oklahoma","State_Abbrev":"OK"},
"geometry":{ "type": "Point", "coordinates": [-94.754354,36.293782]}},
{ "type": "Feature", "properties": {"Name":"Coalgate city","State":"Oklahoma","State_Abbrev":"OK"},
"geometry":{ "type": "Point", "coordinates": [-96.221205,34.532271]}},
{ "type": "Feature", "properties": {"Name":"Colbert town","State":"Oklahoma","State_Abbrev":"OK"},
"geometry":{ "type": "Point", "coordinates": [-96.507632,33.858359]}},
{ "type": "Feature", "properties": {"Name":"Colcord town","State":"Oklahoma","State_Abbrev":"OK"},
"geometry":{ "type": "Point", "coordinates": [-94.692344,36.264707]}},
{ "type": "Feature", "properties": {"Name":"Cole town","State":"Oklahoma","State_Abbrev":"OK"},
"geometry":{ "type": "Point", "coordinates": [-97.562738,35.098548]}},
{ "type": "Feature", "properties": {"Name":"Coleman CDP","State":"Oklahoma","State_Abbrev":"OK"},
"geometry":{ "type": "Point", "coordinates": [-96.420626,34.264653]}},
{ "type": "Feature", "properties": {"Name":"Collinsville city","State":"Oklahoma","State_Abbrev":"OK"},
"geometry":{ "type": "Point", "coordinates": [-95.860222,36.373628]}},
{ "type": "Feature", "properties": {"Name":"Colony town","State":"Oklahoma","State_Abbrev":"OK"},
"geometry":{ "type": "Point", "coordinates": [-98.671458,35.348537]}},
{ "type": "Feature", "properties": {"Name":"Comanche city","State":"Oklahoma","State_Abbrev":"OK"},
"geometry":{ "type": "Point", "coordinates": [-97.979879,34.362503]}},
{ "type": "Feature", "properties": {"Name":"Commerce city","State":"Oklahoma","State_Abbrev":"OK"},
"geometry":{ "type": "Point", "coordinates": [-94.861462,36.934895]}},
{ "type": "Feature", "properties": {"Name":"Connerville CDP","State":"Oklahoma","State_Abbrev":"OK"},
"geometry":{ "type": "Point", "coordinates": [-96.629676,34.442069]}},
{ "type": "Feature", "properties": {"Name":"Cookson CDP","State":"Oklahoma","State_Abbrev":"OK"},
"geometry":{ "type": "Point", "coordinates": [-94.915492,35.721272]}},
{ "type": "Feature", "properties": {"Name":"Cooperton town","State":"Oklahoma","State_Abbrev":"OK"},
"geometry":{ "type": "Point", "coordinates": [-98.875869,34.86651]}},
{ "type": "Feature", "properties": {"Name":"Copan town","State":"Oklahoma","State_Abbrev":"OK"},
"geometry":{ "type": "Point", "coordinates": [-95.925291,36.900473]}},
{ "type": "Feature", "properties": {"Name":"Copeland CDP","State":"Oklahoma","State_Abbrev":"OK"},
"geometry":{ "type": "Point", "coordinates": [-94.827148,36.663775]}},
{ "type": "Feature", "properties": {"Name":"Corn town","State":"Oklahoma","State_Abbrev":"OK"},
"geometry":{ "type": "Point", "coordinates": [-98.781704,35.379052]}},
{ "type": "Feature", "properties": {"Name":"Cornish town","State":"Oklahoma","State_Abbrev":"OK"},
"geometry":{ "type": "Point", "coordinates": [-97.596391,34.163583]}},
{ "type": "Feature", "properties": {"Name":"Cottonwood CDP","State":"Oklahoma","State_Abbrev":"OK"},
"geometry":{ "type": "Point", "coordinates": [-96.203235,34.554699]}},
{ "type": "Feature", "properties": {"Name":"Council Hill town","State":"Oklahoma","State_Abbrev":"OK"},
"geometry":{ "type": "Point", "coordinates": [-95.65251,35.555812]}},
{ "type": "Feature", "properties": {"Name":"Covington town","State":"Oklahoma","State_Abbrev":"OK"},
"geometry":{ "type": "Point", "coordinates": [-97.586358,36.307474]}},
{ "type": "Feature", "properties": {"Name":"Coweta city","State":"Oklahoma","State_Abbrev":"OK"},
"geometry":{ "type": "Point", "coordinates": [-95.671012,35.971822]}},
{ "type": "Feature", "properties": {"Name":"Cowlington town","State":"Oklahoma","State_Abbrev":"OK"},
"geometry":{ "type": "Point", "coordinates": [-94.783967,35.309628]}},
{ "type": "Feature", "properties": {"Name":"Coyle town","State":"Oklahoma","State_Abbrev":"OK"},
"geometry":{ "type": "Point", "coordinates": [-97.235972,35.951809]}},
{ "type": "Feature", "properties": {"Name":"Crescent city","State":"Oklahoma","State_Abbrev":"OK"},
"geometry":{ "type": "Point", "coordinates": [-97.594897,35.951807]}},
{ "type": "Feature", "properties": {"Name":"Crescent Springs CDP","State":"Oklahoma","State_Abbrev":"OK"},
"geometry":{ "type": "Point", "coordinates": [-97.602795,35.89765]}},
{ "type": "Feature", "properties": {"Name":"Cromwell town","State":"Oklahoma","State_Abbrev":"OK"},
"geometry":{ "type": "Point", "coordinates": [-96.459568,35.340736]}},
{ "type": "Feature", "properties": {"Name":"Crowder town","State":"Oklahoma","State_Abbrev":"OK"},
"geometry":{ "type": "Point", "coordinates": [-95.677794,35.118247]}},
{ "type": "Feature", "properties": {"Name":"Cumberland CDP","State":"Oklahoma","State_Abbrev":"OK"},
"geometry":{ "type": "Point", "coordinates": [-96.592436,34.058719]}},
{ "type": "Feature", "properties": {"Name":"Cushing city","State":"Oklahoma","State_Abbrev":"OK"},
"geometry":{ "type": "Point", "coordinates": [-96.761753,35.979681]}},
{ "type": "Feature", "properties": {"Name":"Custer City town","State":"Oklahoma","State_Abbrev":"OK"},
"geometry":{ "type": "Point", "coordinates": [-98.886946,35.663829]}},
{ "type": "Feature", "properties": {"Name":"Cyril town","State":"Oklahoma","State_Abbrev":"OK"},
"geometry":{ "type": "Point", "coordinates": [-98.20293,34.898474]}},
{ "type": "Feature", "properties": {"Name":"Dacoma town","State":"Oklahoma","State_Abbrev":"OK"},
"geometry":{ "type": "Point", "coordinates": [-98.563474,36.659622]}},
{ "type": "Feature", "properties": {"Name":"Dale CDP","State":"Oklahoma","State_Abbrev":"OK"},
"geometry":{ "type": "Point", "coordinates": [-97.043419,35.384162]}},
{ "type": "Feature", "properties": {"Name":"Davenport town","State":"Oklahoma","State_Abbrev":"OK"},
"geometry":{ "type": "Point", "coordinates": [-96.764208,35.70938]}},
{ "type": "Feature", "properties": {"Name":"Davidson town","State":"Oklahoma","State_Abbrev":"OK"},
"geometry":{ "type": "Point", "coordinates": [-99.078113,34.242103]}},
{ "type": "Feature", "properties": {"Name":"Davis city","State":"Oklahoma","State_Abbrev":"OK"},
"geometry":{ "type": "Point", "coordinates": [-97.174438,34.429427]}},
{ "type": "Feature", "properties": {"Name":"Deer Creek town","State":"Oklahoma","State_Abbrev":"OK"},
"geometry":{ "type": "Point", "coordinates": [-97.519483,36.806682]}},
{ "type": "Feature", "properties": {"Name":"Deer Lick CDP","State":"Oklahoma","State_Abbrev":"OK"},
"geometry":{ "type": "Point", "coordinates": [-94.746813,36.459467]}},
{ "type": "Feature", "properties": {"Name":"Delaware town","State":"Oklahoma","State_Abbrev":"OK"},
"geometry":{ "type": "Point", "coordinates": [-95.642539,36.778958]}},
{ "type": "Feature", "properties": {"Name":"Del City city","State":"Oklahoma","State_Abbrev":"OK"},
"geometry":{ "type": "Point", "coordinates": [-97.440785,35.448278]}},
{ "type": "Feature", "properties": {"Name":"Dennis CDP","State":"Oklahoma","State_Abbrev":"OK"},
"geometry":{ "type": "Point", "coordinates": [-94.87692,36.547328]}},
{ "type": "Feature", "properties": {"Name":"Depew town","State":"Oklahoma","State_Abbrev":"OK"},
"geometry":{ "type": "Point", "coordinates": [-96.511066,35.801443]}},
{ "type": "Feature", "properties": {"Name":"Devol town","State":"Oklahoma","State_Abbrev":"OK"},
"geometry":{ "type": "Point", "coordinates": [-98.588195,34.1954]}},
{ "type": "Feature", "properties": {"Name":"Dewar town","State":"Oklahoma","State_Abbrev":"OK"},
"geometry":{ "type": "Point", "coordinates": [-95.949132,35.457918]}},
{ "type": "Feature", "properties": {"Name":"Dewey city","State":"Oklahoma","State_Abbrev":"OK"},
"geometry":{ "type": "Point", "coordinates": [-95.933712,36.790402]}},
{ "type": "Feature", "properties": {"Name":"Dibble town","State":"Oklahoma","State_Abbrev":"OK"},
"geometry":{ "type": "Point", "coordinates": [-97.627086,35.019655]}},
{ "type": "Feature", "properties": {"Name":"Dickson town","State":"Oklahoma","State_Abbrev":"OK"},
"geometry":{ "type": "Point", "coordinates": [-96.99875,34.190224]}},
{ "type": "Feature", "properties": {"Name":"Dill City town","State":"Oklahoma","State_Abbrev":"OK"},
"geometry":{ "type": "Point", "coordinates": [-99.133647,35.281822]}},
{ "type": "Feature", "properties": {"Name":"Disney town","State":"Oklahoma","State_Abbrev":"OK"},
"geometry":{ "type": "Point", "coordinates": [-95.017845,36.474142]}},
{ "type": "Feature", "properties": {"Name":"Dixon CDP","State":"Oklahoma","State_Abbrev":"OK"},
"geometry":{ "type": "Point", "coordinates": [-96.518441,35.161003]}},
{ "type": "Feature", "properties": {"Name":"Dodge CDP","State":"Oklahoma","State_Abbrev":"OK"},
"geometry":{ "type": "Point", "coordinates": [-94.638484,36.578926]}},
{ "type": "Feature", "properties": {"Name":"Dotyville CDP","State":"Oklahoma","State_Abbrev":"OK"},
"geometry":{ "type": "Point", "coordinates": [-94.909763,36.8514]}},
{ "type": "Feature", "properties": {"Name":"Dougherty town","State":"Oklahoma","State_Abbrev":"OK"},
"geometry":{ "type": "Point", "coordinates": [-97.05148,34.399808]}},
{ "type": "Feature", "properties": {"Name":"Douglas town","State":"Oklahoma","State_Abbrev":"OK"},
"geometry":{ "type": "Point", "coordinates": [-97.6666,36.260463]}},
{ "type": "Feature", "properties": {"Name":"Dover town","State":"Oklahoma","State_Abbrev":"OK"},
"geometry":{ "type": "Point", "coordinates": [-97.910823,35.981347]}},
{ "type": "Feature", "properties": {"Name":"Dripping Springs CDP","State":"Oklahoma","State_Abbrev":"OK"},
"geometry":{ "type": "Point", "coordinates": [-94.685173,36.171009]}},
{ "type": "Feature", "properties": {"Name":"Drowning Creek CDP","State":"Oklahoma","State_Abbrev":"OK"},
"geometry":{ "type": "Point", "coordinates": [-94.894247,36.4778]}},
{ "type": "Feature", "properties": {"Name":"Drummond town","State":"Oklahoma","State_Abbrev":"OK"},
"geometry":{ "type": "Point", "coordinates": [-98.03578,36.301724]}},
{ "type": "Feature", "properties": {"Name":"Drumright city","State":"Oklahoma","State_Abbrev":"OK"},
"geometry":{ "type": "Point", "coordinates": [-96.597424,35.989923]}},
{ "type": "Feature", "properties": {"Name":"Dry Creek CDP","State":"Oklahoma","State_Abbrev":"OK"},
"geometry":{ "type": "Point", "coordinates": [-94.873333,35.738788]}},
{ "type": "Feature", "properties": {"Name":"Duchess Landing CDP","State":"Oklahoma","State_Abbrev":"OK"},
"geometry":{ "type": "Point", "coordinates": [-95.41658,35.398468]}},
{ "type": "Feature", "properties": {"Name":"Duncan city","State":"Oklahoma","State_Abbrev":"OK"},
"geometry":{ "type": "Point", "coordinates": [-97.960537,34.481607]}},
{ "type": "Feature", "properties": {"Name":"Durant city","State":"Oklahoma","State_Abbrev":"OK"},
"geometry":{ "type": "Point", "coordinates": [-96.39254,33.995153]}},
{ "type": "Feature", "properties": {"Name":"Durham CDP","State":"Oklahoma","State_Abbrev":"OK"},
"geometry":{ "type": "Point", "coordinates": [-99.926126,35.84389]}},
{ "type": "Feature", "properties": {"Name":"Dustin town","State":"Oklahoma","State_Abbrev":"OK"},
"geometry":{ "type": "Point", "coordinates": [-96.027826,35.271245]}},
{ "type": "Feature", "properties": {"Name":"Dwight Mission CDP","State":"Oklahoma","State_Abbrev":"OK"},
"geometry":{ "type": "Point", "coordinates": [-94.850529,35.557966]}},
{ "type": "Feature", "properties": {"Name":"Eagle City CDP","State":"Oklahoma","State_Abbrev":"OK"},
"geometry":{ "type": "Point", "coordinates": [-98.589967,35.93383]}},
{ "type": "Feature", "properties": {"Name":"Eagletown CDP","State":"Oklahoma","State_Abbrev":"OK"},
"geometry":{ "type": "Point", "coordinates": [-94.570239,34.041866]}},
{ "type": "Feature", "properties": {"Name":"Eakly town","State":"Oklahoma","State_Abbrev":"OK"},
"geometry":{ "type": "Point", "coordinates": [-98.55619,35.305361]}},
{ "type": "Feature", "properties": {"Name":"Earl CDP","State":"Oklahoma","State_Abbrev":"OK"},
"geometry":{ "type": "Point", "coordinates": [-96.892088,34.203356]}},
{ "type": "Feature", "properties": {"Name":"Earlsboro town","State":"Oklahoma","State_Abbrev":"OK"},
"geometry":{ "type": "Point", "coordinates": [-96.802928,35.3292]}},
{ "type": "Feature", "properties": {"Name":"East Duke town","State":"Oklahoma","State_Abbrev":"OK"},
"geometry":{ "type": "Point", "coordinates": [-99.569629,34.662829]}},
{ "type": "Feature", "properties": {"Name":"Edgewater Park CDP","State":"Oklahoma","State_Abbrev":"OK"},
"geometry":{ "type": "Point", "coordinates": [-98.375198,34.824734]}},
{ "type": "Feature", "properties": {"Name":"Edmond city","State":"Oklahoma","State_Abbrev":"OK"},
"geometry":{ "type": "Point", "coordinates": [-97.413076,35.673807]}},
{ "type": "Feature", "properties": {"Name":"Eldon CDP","State":"Oklahoma","State_Abbrev":"OK"},
"geometry":{ "type": "Point", "coordinates": [-94.809192,35.940128]}},
{ "type": "Feature", "properties": {"Name":"Eldorado town","State":"Oklahoma","State_Abbrev":"OK"},
"geometry":{ "type": "Point", "coordinates": [-99.649617,34.472945]}},
{ "type": "Feature", "properties": {"Name":"Elgin city","State":"Oklahoma","State_Abbrev":"OK"},
"geometry":{ "type": "Point", "coordinates": [-98.296627,34.785937]}},
{ "type": "Feature", "properties": {"Name":"Elk City city","State":"Oklahoma","State_Abbrev":"OK"},
"geometry":{ "type": "Point", "coordinates": [-99.428749,35.389612]}},
{ "type": "Feature", "properties": {"Name":"Elmer town","State":"Oklahoma","State_Abbrev":"OK"},
"geometry":{ "type": "Point", "coordinates": [-99.352104,34.480801]}},
{ "type": "Feature", "properties": {"Name":"Elm Grove CDP","State":"Oklahoma","State_Abbrev":"OK"},
"geometry":{ "type": "Point", "coordinates": [-94.568114,35.795962]}},
{ "type": "Feature", "properties": {"Name":"Elmore City town","State":"Oklahoma","State_Abbrev":"OK"},
"geometry":{ "type": "Point", "coordinates": [-97.393953,34.629322]}},
{ "type": "Feature", "properties": {"Name":"Elohim City CDP","State":"Oklahoma","State_Abbrev":"OK"},
"geometry":{ "type": "Point", "coordinates": [-94.510467,35.641465]}},
{ "type": "Feature", "properties": {"Name":"El Reno city","State":"Oklahoma","State_Abbrev":"OK"},
"geometry":{ "type": "Point", "coordinates": [-97.961268,35.541833]}},
{ "type": "Feature", "properties": {"Name":"Emet CDP","State":"Oklahoma","State_Abbrev":"OK"},
"geometry":{ "type": "Point", "coordinates": [-96.53929,34.205997]}},
{ "type": "Feature", "properties": {"Name":"Empire City town","State":"Oklahoma","State_Abbrev":"OK"},
"geometry":{ "type": "Point", "coordinates": [-98.059445,34.477613]}},
{ "type": "Feature", "properties": {"Name":"Enid city","State":"Oklahoma","State_Abbrev":"OK"},
"geometry":{ "type": "Point", "coordinates": [-97.869861,36.406702]}},
{ "type": "Feature", "properties": {"Name":"Enterprise CDP","State":"Oklahoma","State_Abbrev":"OK"},
"geometry":{ "type": "Point", "coordinates": [-95.376876,35.22483]}},
{ "type": "Feature", "properties": {"Name":"Erick city","State":"Oklahoma","State_Abbrev":"OK"},
"geometry":{ "type": "Point", "coordinates": [-99.868683,35.215604]}},
{ "type": "Feature", "properties": {"Name":"Erin Springs town","State":"Oklahoma","State_Abbrev":"OK"},
"geometry":{ "type": "Point", "coordinates": [-97.605272,34.810665]}},
{ "type": "Feature", "properties": {"Name":"Etowah town","State":"Oklahoma","State_Abbrev":"OK"},
"geometry":{ "type": "Point", "coordinates": [-97.1704,35.125933]}},
{ "type": "Feature", "properties": {"Name":"Etta CDP","State":"Oklahoma","State_Abbrev":"OK"},
"geometry":{ "type": "Point", "coordinates": [-94.903013,35.836225]}},
{ "type": "Feature", "properties": {"Name":"Eufaula city","State":"Oklahoma","State_Abbrev":"OK"},
"geometry":{ "type": "Point", "coordinates": [-95.586425,35.292114]}},
{ "type": "Feature", "properties": {"Name":"Evening Shade CDP","State":"Oklahoma","State_Abbrev":"OK"},
"geometry":{ "type": "Point", "coordinates": [-94.905374,35.620973]}},
{ "type": "Feature", "properties": {"Name":"Fairfax town","State":"Oklahoma","State_Abbrev":"OK"},
"geometry":{ "type": "Point", "coordinates": [-96.707885,36.570081]}},
{ "type": "Feature", "properties": {"Name":"Fairfield CDP","State":"Oklahoma","State_Abbrev":"OK"},
"geometry":{ "type": "Point", "coordinates": [-94.6082,35.837508]}},
{ "type": "Feature", "properties": {"Name":"Fairland town","State":"Oklahoma","State_Abbrev":"OK"},
"geometry":{ "type": "Point", "coordinates": [-94.847266,36.751393]}},
{ "type": "Feature", "properties": {"Name":"Fairmont town","State":"Oklahoma","State_Abbrev":"OK"},
"geometry":{ "type": "Point", "coordinates": [-97.705455,36.356015]}},
{ "type": "Feature", "properties": {"Name":"Fair Oaks town","State":"Oklahoma","State_Abbrev":"OK"},
"geometry":{ "type": "Point", "coordinates": [-95.690685,36.158993]}},
{ "type": "Feature", "properties": {"Name":"Fairview city","State":"Oklahoma","State_Abbrev":"OK"},
"geometry":{ "type": "Point", "coordinates": [-98.477017,36.27061]}},
{ "type": "Feature", "properties": {"Name":"Fallis town","State":"Oklahoma","State_Abbrev":"OK"},
"geometry":{ "type": "Point", "coordinates": [-97.118222,35.749299]}},
{ "type": "Feature", "properties": {"Name":"Fanshawe town","State":"Oklahoma","State_Abbrev":"OK"},
"geometry":{ "type": "Point", "coordinates": [-94.911181,34.961951]}},
{ "type": "Feature", "properties": {"Name":"Fargo town","State":"Oklahoma","State_Abbrev":"OK"},
"geometry":{ "type": "Point", "coordinates": [-99.622165,36.374206]}},
{ "type": "Feature", "properties": {"Name":"Faxon town","State":"Oklahoma","State_Abbrev":"OK"},
"geometry":{ "type": "Point", "coordinates": [-98.579374,34.460258]}},
{ "type": "Feature", "properties": {"Name":"Fay CDP","State":"Oklahoma","State_Abbrev":"OK"},
"geometry":{ "type": "Point", "coordinates": [-98.658661,35.81609]}},
{ "type": "Feature", "properties": {"Name":"Felt CDP","State":"Oklahoma","State_Abbrev":"OK"},
"geometry":{ "type": "Point", "coordinates": [-102.79479,36.563366]}},
{ "type": "Feature", "properties": {"Name":"Finley CDP","State":"Oklahoma","State_Abbrev":"OK"},
"geometry":{ "type": "Point", "coordinates": [-95.497668,34.327347]}},
{ "type": "Feature", "properties": {"Name":"Fittstown CDP","State":"Oklahoma","State_Abbrev":"OK"},
"geometry":{ "type": "Point", "coordinates": [-96.640542,34.609033]}},
{ "type": "Feature", "properties": {"Name":"Fitzhugh town","State":"Oklahoma","State_Abbrev":"OK"},
"geometry":{ "type": "Point", "coordinates": [-96.76654,34.658165]}},
{ "type": "Feature", "properties": {"Name":"Fletcher town","State":"Oklahoma","State_Abbrev":"OK"},
"geometry":{ "type": "Point", "coordinates": [-98.231446,34.823702]}},
{ "type": "Feature", "properties": {"Name":"Flint Creek CDP","State":"Oklahoma","State_Abbrev":"OK"},
"geometry":{ "type": "Point", "coordinates": [-94.746713,36.176928]}},
{ "type": "Feature", "properties": {"Name":"Flute Springs CDP","State":"Oklahoma","State_Abbrev":"OK"},
"geometry":{ "type": "Point", "coordinates": [-94.799979,35.626728]}},
{ "type": "Feature", "properties": {"Name":"Foraker town","State":"Oklahoma","State_Abbrev":"OK"},
"geometry":{ "type": "Point", "coordinates": [-96.569211,36.87283]}},
{ "type": "Feature", "properties": {"Name":"Forest Park town","State":"Oklahoma","State_Abbrev":"OK"},
"geometry":{ "type": "Point", "coordinates": [-97.446904,35.509594]}},
{ "type": "Feature", "properties": {"Name":"Forgan town","State":"Oklahoma","State_Abbrev":"OK"},
"geometry":{ "type": "Point", "coordinates": [-100.537979,36.906979]}},
{ "type": "Feature", "properties": {"Name":"Fort Cobb town","State":"Oklahoma","State_Abbrev":"OK"},
"geometry":{ "type": "Point", "coordinates": [-98.445334,35.115273]}},
{ "type": "Feature", "properties": {"Name":"Fort Coffee town","State":"Oklahoma","State_Abbrev":"OK"},
"geometry":{ "type": "Point", "coordinates": [-94.571353,35.294209]}},
{ "type": "Feature", "properties": {"Name":"Fort Gibson town","State":"Oklahoma","State_Abbrev":"OK"},
"geometry":{ "type": "Point", "coordinates": [-95.260139,35.782175]}},
{ "type": "Feature", "properties": {"Name":"Fort Supply town","State":"Oklahoma","State_Abbrev":"OK"},
"geometry":{ "type": "Point", "coordinates": [-99.57352,36.572092]}},
{ "type": "Feature", "properties": {"Name":"Fort Towson town","State":"Oklahoma","State_Abbrev":"OK"},
"geometry":{ "type": "Point", "coordinates": [-95.277635,34.031395]}},
{ "type": "Feature", "properties": {"Name":"Foss town","State":"Oklahoma","State_Abbrev":"OK"},
"geometry":{ "type": "Point", "coordinates": [-99.170738,35.450005]}},
{ "type": "Feature", "properties": {"Name":"Foster town","State":"Oklahoma","State_Abbrev":"OK"},
"geometry":{ "type": "Point", "coordinates": [-97.489859,34.605963]}},
{ "type": "Feature", "properties": {"Name":"Fox CDP","State":"Oklahoma","State_Abbrev":"OK"},
"geometry":{ "type": "Point", "coordinates": [-97.495,34.357864]}},
{ "type": "Feature", "properties": {"Name":"Foyil town","State":"Oklahoma","State_Abbrev":"OK"},
"geometry":{ "type": "Point", "coordinates": [-95.520461,36.430325]}},
{ "type": "Feature", "properties": {"Name":"Francis town","State":"Oklahoma","State_Abbrev":"OK"},
"geometry":{ "type": "Point", "coordinates": [-96.592597,34.874466]}},
{ "type": "Feature", "properties": {"Name":"Frederick city","State":"Oklahoma","State_Abbrev":"OK"},
"geometry":{ "type": "Point", "coordinates": [-98.987997,34.349965]}},
{ "type": "Feature", "properties": {"Name":"Freedom town","State":"Oklahoma","State_Abbrev":"OK"},
"geometry":{ "type": "Point", "coordinates": [-99.112273,36.767478]}},
{ "type": "Feature", "properties": {"Name":"Friendship town","State":"Oklahoma","State_Abbrev":"OK"},
"geometry":{ "type": "Point", "coordinates": [-99.228694,34.697835]}},
{ "type": "Feature", "properties": {"Name":"Gage town","State":"Oklahoma","State_Abbrev":"OK"},
"geometry":{ "type": "Point", "coordinates": [-99.757603,36.318128]}},
{ "type": "Feature", "properties": {"Name":"Gans town","State":"Oklahoma","State_Abbrev":"OK"},
"geometry":{ "type": "Point", "coordinates": [-94.694587,35.387395]}},
{ "type": "Feature", "properties": {"Name":"Garber city","State":"Oklahoma","State_Abbrev":"OK"},
"geometry":{ "type": "Point", "coordinates": [-97.581012,36.436669]}},
{ "type": "Feature", "properties": {"Name":"Garvin town","State":"Oklahoma","State_Abbrev":"OK"},
"geometry":{ "type": "Point", "coordinates": [-94.930997,33.957181]}},
{ "type": "Feature", "properties": {"Name":"Gate town","State":"Oklahoma","State_Abbrev":"OK"},
"geometry":{ "type": "Point", "coordinates": [-100.055208,36.851706]}},
{ "type": "Feature", "properties": {"Name":"Geary city","State":"Oklahoma","State_Abbrev":"OK"},
"geometry":{ "type": "Point", "coordinates": [-98.316976,35.637076]}},
{ "type": "Feature", "properties": {"Name":"Gene Autry town","State":"Oklahoma","State_Abbrev":"OK"},
"geometry":{ "type": "Point", "coordinates": [-97.042171,34.314442]}},
{ "type": "Feature", "properties": {"Name":"Geronimo town","State":"Oklahoma","State_Abbrev":"OK"},
"geometry":{ "type": "Point", "coordinates": [-98.387653,34.483127]}},
{ "type": "Feature", "properties": {"Name":"Gerty town","State":"Oklahoma","State_Abbrev":"OK"},
"geometry":{ "type": "Point", "coordinates": [-96.288876,34.835734]}},
{ "type": "Feature", "properties": {"Name":"Gideon CDP","State":"Oklahoma","State_Abbrev":"OK"},
"geometry":{ "type": "Point", "coordinates": [-95.027925,35.997151]}},
{ "type": "Feature", "properties": {"Name":"Glencoe town","State":"Oklahoma","State_Abbrev":"OK"},
"geometry":{ "type": "Point", "coordinates": [-96.932853,36.234081]}},
{ "type": "Feature", "properties": {"Name":"Glenpool city","State":"Oklahoma","State_Abbrev":"OK"},
"geometry":{ "type": "Point", "coordinates": [-96.006754,35.94949]}},
{ "type": "Feature", "properties": {"Name":"Golden CDP","State":"Oklahoma","State_Abbrev":"OK"},
"geometry":{ "type": "Point", "coordinates": [-94.902967,34.030741]}},
{ "type": "Feature", "properties": {"Name":"Goldsby town","State":"Oklahoma","State_Abbrev":"OK"},
"geometry":{ "type": "Point", "coordinates": [-97.486624,35.123907]}},
{ "type": "Feature", "properties": {"Name":"Goltry town","State":"Oklahoma","State_Abbrev":"OK"},
"geometry":{ "type": "Point", "coordinates": [-98.15096,36.531887]}},
{ "type": "Feature", "properties": {"Name":"Goodwell town","State":"Oklahoma","State_Abbrev":"OK"},
"geometry":{ "type": "Point", "coordinates": [-101.621981,36.59479]}},
{ "type": "Feature", "properties": {"Name":"Gore town","State":"Oklahoma","State_Abbrev":"OK"},
"geometry":{ "type": "Point", "coordinates": [-95.112779,35.542935]}},
{ "type": "Feature", "properties": {"Name":"Gotebo town","State":"Oklahoma","State_Abbrev":"OK"},
"geometry":{ "type": "Point", "coordinates": [-98.874261,35.07123]}},
{ "type": "Feature", "properties": {"Name":"Gould town","State":"Oklahoma","State_Abbrev":"OK"},
"geometry":{ "type": "Point", "coordinates": [-99.773646,34.669144]}},
{ "type": "Feature", "properties": {"Name":"Gowen CDP","State":"Oklahoma","State_Abbrev":"OK"},
"geometry":{ "type": "Point", "coordinates": [-95.47238,34.883282]}},
{ "type": "Feature", "properties": {"Name":"Gracemont town","State":"Oklahoma","State_Abbrev":"OK"},
"geometry":{ "type": "Point", "coordinates": [-98.259114,35.187856]}},
{ "type": "Feature", "properties": {"Name":"Grainola town","State":"Oklahoma","State_Abbrev":"OK"},
"geometry":{ "type": "Point", "coordinates": [-96.648771,36.937929]}},
{ "type": "Feature", "properties": {"Name":"Grandfield city","State":"Oklahoma","State_Abbrev":"OK"},
"geometry":{ "type": "Point", "coordinates": [-98.687311,34.230749]}},
{ "type": "Feature", "properties": {"Name":"Grand Lake Towne town","State":"Oklahoma","State_Abbrev":"OK"},
"geometry":{ "type": "Point", "coordinates": [-95.027836,36.505588]}},
{ "type": "Feature", "properties": {"Name":"Grandview CDP","State":"Oklahoma","State_Abbrev":"OK"},
"geometry":{ "type": "Point", "coordinates": [-94.99866,35.96476]}},
{ "type": "Feature", "properties": {"Name":"Granite town","State":"Oklahoma","State_Abbrev":"OK"},
"geometry":{ "type": "Point", "coordinates": [-99.368379,34.951154]}},
{ "type": "Feature", "properties": {"Name":"Grant CDP","State":"Oklahoma","State_Abbrev":"OK"},
"geometry":{ "type": "Point", "coordinates": [-95.517868,33.936486]}},
{ "type": "Feature", "properties": {"Name":"Grayson town","State":"Oklahoma","State_Abbrev":"OK"},
"geometry":{ "type": "Point", "coordinates": [-95.871617,35.505391]}},
{ "type": "Feature", "properties": {"Name":"Greasy CDP","State":"Oklahoma","State_Abbrev":"OK"},
"geometry":{ "type": "Point", "coordinates": [-94.702453,35.681874]}},
{ "type": "Feature", "properties": {"Name":"Greenfield town","State":"Oklahoma","State_Abbrev":"OK"},
"geometry":{ "type": "Point", "coordinates": [-98.377483,35.729052]}},
{ "type": "Feature", "properties": {"Name":"Greenville CDP","State":"Oklahoma","State_Abbrev":"OK"},
"geometry":{ "type": "Point", "coordinates": [-97.121286,34.0044]}},
{ "type": "Feature", "properties": {"Name":"Gregory CDP","State":"Oklahoma","State_Abbrev":"OK"},
"geometry":{ "type": "Point", "coordinates": [-95.574088,36.169725]}},
{ "type": "Feature", "properties": {"Name":"Grove city","State":"Oklahoma","State_Abbrev":"OK"},
"geometry":{ "type": "Point", "coordinates": [-94.787247,36.585034]}},
{ "type": "Feature", "properties": {"Name":"Guthrie city","State":"Oklahoma","State_Abbrev":"OK"},
"geometry":{ "type": "Point", "coordinates": [-97.408657,35.876512]}},
{ "type": "Feature", "properties": {"Name":"Guymon city","State":"Oklahoma","State_Abbrev":"OK"},
"geometry":{ "type": "Point", "coordinates": [-101.477046,36.690101]}},
{ "type": "Feature", "properties": {"Name":"Haileyville city","State":"Oklahoma","State_Abbrev":"OK"},
"geometry":{ "type": "Point", "coordinates": [-95.578632,34.854152]}},
{ "type": "Feature", "properties": {"Name":"Hallett town","State":"Oklahoma","State_Abbrev":"OK"},
"geometry":{ "type": "Point", "coordinates": [-96.56786,36.231852]}},
{ "type": "Feature", "properties": {"Name":"Hammon town","State":"Oklahoma","State_Abbrev":"OK"},
"geometry":{ "type": "Point", "coordinates": [-99.38322,35.63232]}},
{ "type": "Feature", "properties": {"Name":"Hanna town","State":"Oklahoma","State_Abbrev":"OK"},
"geometry":{ "type": "Point", "coordinates": [-95.889242,35.202089]}},
{ "type": "Feature", "properties": {"Name":"Hanson CDP","State":"Oklahoma","State_Abbrev":"OK"},
"geometry":{ "type": "Point", "coordinates": [-94.698351,35.438009]}},
{ "type": "Feature", "properties": {"Name":"Hardesty town","State":"Oklahoma","State_Abbrev":"OK"},
"geometry":{ "type": "Point", "coordinates": [-101.193662,36.614785]}},
{ "type": "Feature", "properties": {"Name":"Harrah city","State":"Oklahoma","State_Abbrev":"OK"},
"geometry":{ "type": "Point", "coordinates": [-97.184221,35.485591]}},
{ "type": "Feature", "properties": {"Name":"Hartshorne city","State":"Oklahoma","State_Abbrev":"OK"},
"geometry":{ "type": "Point", "coordinates": [-95.561923,34.838795]}},
{ "type": "Feature", "properties": {"Name":"Haskell town","State":"Oklahoma","State_Abbrev":"OK"},
"geometry":{ "type": "Point", "coordinates": [-95.680398,35.818966]}},
{ "type": "Feature", "properties": {"Name":"Hastings town","State":"Oklahoma","State_Abbrev":"OK"},
"geometry":{ "type": "Point", "coordinates": [-98.108748,34.22432]}},
{ "type": "Feature", "properties": {"Name":"Haworth town","State":"Oklahoma","State_Abbrev":"OK"},
"geometry":{ "type": "Point", "coordinates": [-94.657009,33.840923]}},
{ "type": "Feature", "properties": {"Name":"Haywood CDP","State":"Oklahoma","State_Abbrev":"OK"},
"geometry":{ "type": "Point", "coordinates": [-95.951981,34.891946]}},
{ "type": "Feature", "properties": {"Name":"Headrick town","State":"Oklahoma","State_Abbrev":"OK"},
"geometry":{ "type": "Point", "coordinates": [-99.137336,34.626894]}},
{ "type": "Feature", "properties": {"Name":"Healdton city","State":"Oklahoma","State_Abbrev":"OK"},
"geometry":{ "type": "Point", "coordinates": [-97.486873,34.233739]}},
{ "type": "Feature", "properties": {"Name":"Heavener city","State":"Oklahoma","State_Abbrev":"OK"},
"geometry":{ "type": "Point", "coordinates": [-94.60779,34.891965]}},
{ "type": "Feature", "properties": {"Name":"Helena town","State":"Oklahoma","State_Abbrev":"OK"},
"geometry":{ "type": "Point", "coordinates": [-98.27187,36.546477]}},
{ "type": "Feature", "properties": {"Name":"Hendrix town","State":"Oklahoma","State_Abbrev":"OK"},
"geometry":{ "type": "Point", "coordinates": [-96.407082,33.775265]}},
{ "type": "Feature", "properties": {"Name":"Hennepin CDP","State":"Oklahoma","State_Abbrev":"OK"},
"geometry":{ "type": "Point", "coordinates": [-97.345376,34.517219]}},
{ "type": "Feature", "properties": {"Name":"Hennessey town","State":"Oklahoma","State_Abbrev":"OK"},
"geometry":{ "type": "Point", "coordinates": [-97.898615,36.105811]}},
{ "type": "Feature", "properties": {"Name":"Henryetta city","State":"Oklahoma","State_Abbrev":"OK"},
"geometry":{ "type": "Point", "coordinates": [-95.986416,35.441655]}},
{ "type": "Feature", "properties": {"Name":"Hickory town","State":"Oklahoma","State_Abbrev":"OK"},
"geometry":{ "type": "Point", "coordinates": [-96.85342,34.556478]}},
{ "type": "Feature", "properties": {"Name":"Hillsdale town","State":"Oklahoma","State_Abbrev":"OK"},
"geometry":{ "type": "Point", "coordinates": [-97.992664,36.56325]}},
{ "type": "Feature", "properties": {"Name":"Hinton town","State":"Oklahoma","State_Abbrev":"OK"},
"geometry":{ "type": "Point", "coordinates": [-98.354723,35.493227]}},
{ "type": "Feature", "properties": {"Name":"Hitchcock town","State":"Oklahoma","State_Abbrev":"OK"},
"geometry":{ "type": "Point", "coordinates": [-98.349696,35.967658]}},
{ "type": "Feature", "properties": {"Name":"Hitchita town","State":"Oklahoma","State_Abbrev":"OK"},
"geometry":{ "type": "Point", "coordinates": [-95.751743,35.519825]}},
{ "type": "Feature", "properties": {"Name":"Hobart city","State":"Oklahoma","State_Abbrev":"OK"},
"geometry":{ "type": "Point", "coordinates": [-99.087565,35.024581]}},
{ "type": "Feature", "properties": {"Name":"Hochatown CDP","State":"Oklahoma","State_Abbrev":"OK"},
"geometry":{ "type": "Point", "coordinates": [-94.742494,34.150744]}},
{ "type": "Feature", "properties": {"Name":"Hodgen CDP","State":"Oklahoma","State_Abbrev":"OK"},
"geometry":{ "type": "Point", "coordinates": [-94.633889,34.840444]}},
{ "type": "Feature", "properties": {"Name":"Hoffman town","State":"Oklahoma","State_Abbrev":"OK"},
"geometry":{ "type": "Point", "coordinates": [-95.844692,35.488837]}},
{ "type": "Feature", "properties": {"Name":"Holdenville city","State":"Oklahoma","State_Abbrev":"OK"},
"geometry":{ "type": "Point", "coordinates": [-96.401353,35.083481]}},
{ "type": "Feature", "properties": {"Name":"Hollis city","State":"Oklahoma","State_Abbrev":"OK"},
"geometry":{ "type": "Point", "coordinates": [-99.915294,34.689672]}},
{ "type": "Feature", "properties": {"Name":"Hollister town","State":"Oklahoma","State_Abbrev":"OK"},
"geometry":{ "type": "Point", "coordinates": [-98.871131,34.340936]}},
{ "type": "Feature", "properties": {"Name":"Homestead CDP","State":"Oklahoma","State_Abbrev":"OK"},
"geometry":{ "type": "Point", "coordinates": [-98.397004,36.14997]}},
{ "type": "Feature", "properties": {"Name":"Hominy city","State":"Oklahoma","State_Abbrev":"OK"},
"geometry":{ "type": "Point", "coordinates": [-96.393031,36.421925]}},
{ "type": "Feature", "properties": {"Name":"Honey Hill CDP","State":"Oklahoma","State_Abbrev":"OK"},
"geometry":{ "type": "Point", "coordinates": [-94.574949,35.764728]}},
{ "type": "Feature", "properties": {"Name":"Hooker city","State":"Oklahoma","State_Abbrev":"OK"},
"geometry":{ "type": "Point", "coordinates": [-101.21621,36.861328]}},
{ "type": "Feature", "properties": {"Name":"Hoot Owl town","State":"Oklahoma","State_Abbrev":"OK"},
"geometry":{ "type": "Point", "coordinates": [-95.121414,36.359983]}},
{ "type": "Feature", "properties": {"Name":"Hopeton CDP","State":"Oklahoma","State_Abbrev":"OK"},
"geometry":{ "type": "Point", "coordinates": [-98.662014,36.68818]}},
{ "type": "Feature", "properties": {"Name":"Horntown town","State":"Oklahoma","State_Abbrev":"OK"},
"geometry":{ "type": "Point", "coordinates": [-96.23759,35.083603]}},
{ "type": "Feature", "properties": {"Name":"Hough CDP","State":"Oklahoma","State_Abbrev":"OK"},
"geometry":{ "type": "Point", "coordinates": [-101.57474,36.871959]}},
{ "type": "Feature", "properties": {"Name":"Howe town","State":"Oklahoma","State_Abbrev":"OK"},
"geometry":{ "type": "Point", "coordinates": [-94.640305,34.949572]}},
{ "type": "Feature", "properties": {"Name":"Hoyt CDP","State":"Oklahoma","State_Abbrev":"OK"},
"geometry":{ "type": "Point", "coordinates": [-95.301151,35.264849]}},
{ "type": "Feature", "properties": {"Name":"Hugo city","State":"Oklahoma","State_Abbrev":"OK"},
"geometry":{ "type": "Point", "coordinates": [-95.512179,34.011584]}},
{ "type": "Feature", "properties": {"Name":"Hulbert town","State":"Oklahoma","State_Abbrev":"OK"},
"geometry":{ "type": "Point", "coordinates": [-95.145527,35.931653]}},
{ "type": "Feature", "properties": {"Name":"Hunter town","State":"Oklahoma","State_Abbrev":"OK"},
"geometry":{ "type": "Point", "coordinates": [-97.662508,36.564017]}},
{ "type": "Feature", "properties": {"Name":"Hydro town","State":"Oklahoma","State_Abbrev":"OK"},
"geometry":{ "type": "Point", "coordinates": [-98.580106,35.54813]}},
{ "type": "Feature", "properties": {"Name":"Idabel city","State":"Oklahoma","State_Abbrev":"OK"},
"geometry":{ "type": "Point", "coordinates": [-94.822174,33.907406]}},
{ "type": "Feature", "properties": {"Name":"Indiahoma town","State":"Oklahoma","State_Abbrev":"OK"},
"geometry":{ "type": "Point", "coordinates": [-98.75205,34.619895]}},
{ "type": "Feature", "properties": {"Name":"Indianola CDP","State":"Oklahoma","State_Abbrev":"OK"},
"geometry":{ "type": "Point", "coordinates": [-94.674667,36.444505]}},
{ "type": "Feature", "properties": {"Name":"Indianola town","State":"Oklahoma","State_Abbrev":"OK"},
"geometry":{ "type": "Point", "coordinates": [-95.775934,35.163372]}},
{ "type": "Feature", "properties": {"Name":"Ingalls CDP","State":"Oklahoma","State_Abbrev":"OK"},
"geometry":{ "type": "Point", "coordinates": [-96.87077,36.104744]}},
{ "type": "Feature", "properties": {"Name":"Inola town","State":"Oklahoma","State_Abbrev":"OK"},
"geometry":{ "type": "Point", "coordinates": [-95.551556,36.113154]}},
{ "type": "Feature", "properties": {"Name":"Iron Post CDP","State":"Oklahoma","State_Abbrev":"OK"},
"geometry":{ "type": "Point", "coordinates": [-95.135248,36.155822]}},
{ "type": "Feature", "properties": {"Name":"Isabella CDP","State":"Oklahoma","State_Abbrev":"OK"},
"geometry":{ "type": "Point", "coordinates": [-98.326401,36.238987]}},
{ "type": "Feature", "properties": {"Name":"IXL town","State":"Oklahoma","State_Abbrev":"OK"},
"geometry":{ "type": "Point", "coordinates": [-96.385394,35.528769]}},
{ "type": "Feature", "properties": {"Name":"Jay city","State":"Oklahoma","State_Abbrev":"OK"},
"geometry":{ "type": "Point", "coordinates": [-94.795571,36.427112]}},
{ "type": "Feature", "properties": {"Name":"Jefferson town","State":"Oklahoma","State_Abbrev":"OK"},
"geometry":{ "type": "Point", "coordinates": [-97.790901,36.720343]}},
{ "type": "Feature", "properties": {"Name":"Jenks city","State":"Oklahoma","State_Abbrev":"OK"},
"geometry":{ "type": "Point", "coordinates": [-95.973404,35.998219]}},
{ "type": "Feature", "properties": {"Name":"Jennings town","State":"Oklahoma","State_Abbrev":"OK"},
"geometry":{ "type": "Point", "coordinates": [-96.569162,36.182278]}},
{ "type": "Feature", "properties": {"Name":"Jet town","State":"Oklahoma","State_Abbrev":"OK"},
"geometry":{ "type": "Point", "coordinates": [-98.181648,36.666527]}},
{ "type": "Feature", "properties": {"Name":"Johnson town","State":"Oklahoma","State_Abbrev":"OK"},
"geometry":{ "type": "Point", "coordinates": [-96.849312,35.413769]}},
{ "type": "Feature", "properties": {"Name":"Johnson Prairie CDP","State":"Oklahoma","State_Abbrev":"OK"},
"geometry":{ "type": "Point", "coordinates": [-94.975868,36.079103]}},
{ "type": "Feature", "properties": {"Name":"Jones town","State":"Oklahoma","State_Abbrev":"OK"},
"geometry":{ "type": "Point", "coordinates": [-97.288914,35.56673]}},
{ "type": "Feature", "properties": {"Name":"Justice CDP","State":"Oklahoma","State_Abbrev":"OK"},
"geometry":{ "type": "Point", "coordinates": [-95.563561,36.290802]}},
{ "type": "Feature", "properties": {"Name":"Kansas town","State":"Oklahoma","State_Abbrev":"OK"},
"geometry":{ "type": "Point", "coordinates": [-94.788945,36.205359]}},
{ "type": "Feature", "properties": {"Name":"Katie town","State":"Oklahoma","State_Abbrev":"OK"},
"geometry":{ "type": "Point", "coordinates": [-97.32562,34.590712]}},
{ "type": "Feature", "properties": {"Name":"Kaw City city","State":"Oklahoma","State_Abbrev":"OK"},
"geometry":{ "type": "Point", "coordinates": [-96.861777,36.766748]}},
{ "type": "Feature", "properties": {"Name":"Keefton CDP","State":"Oklahoma","State_Abbrev":"OK"},
"geometry":{ "type": "Point", "coordinates": [-95.306315,35.578506]}},
{ "type": "Feature", "properties": {"Name":"Kellyville town","State":"Oklahoma","State_Abbrev":"OK"},
"geometry":{ "type": "Point", "coordinates": [-96.193923,35.968997]}},
{ "type": "Feature", "properties": {"Name":"Kemp town","State":"Oklahoma","State_Abbrev":"OK"},
"geometry":{ "type": "Point", "coordinates": [-96.354436,33.769572]}},
{ "type": "Feature", "properties": {"Name":"Kendrick town","State":"Oklahoma","State_Abbrev":"OK"},
"geometry":{ "type": "Point", "coordinates": [-96.775512,35.785303]}},
{ "type": "Feature", "properties": {"Name":"Kenefic town","State":"Oklahoma","State_Abbrev":"OK"},
"geometry":{ "type": "Point", "coordinates": [-96.36441,34.149955]}},
{ "type": "Feature", "properties": {"Name":"Kenton CDP","State":"Oklahoma","State_Abbrev":"OK"},
"geometry":{ "type": "Point", "coordinates": [-102.965209,36.906359]}},
{ "type": "Feature", "properties": {"Name":"Kenwood CDP","State":"Oklahoma","State_Abbrev":"OK"},
"geometry":{ "type": "Point", "coordinates": [-94.997873,36.301244]}},
{ "type": "Feature", "properties": {"Name":"Keota town","State":"Oklahoma","State_Abbrev":"OK"},
"geometry":{ "type": "Point", "coordinates": [-94.922314,35.257388]}},
{ "type": "Feature", "properties": {"Name":"Ketchum town","State":"Oklahoma","State_Abbrev":"OK"},
"geometry":{ "type": "Point", "coordinates": [-95.037332,36.517568]}},
{ "type": "Feature", "properties": {"Name":"Keyes town","State":"Oklahoma","State_Abbrev":"OK"},
"geometry":{ "type": "Point", "coordinates": [-102.251735,36.807634]}},
{ "type": "Feature", "properties": {"Name":"Keys CDP","State":"Oklahoma","State_Abbrev":"OK"},
"geometry":{ "type": "Point", "coordinates": [-94.941358,35.802786]}},
{ "type": "Feature", "properties": {"Name":"Kiefer town","State":"Oklahoma","State_Abbrev":"OK"},
"geometry":{ "type": "Point", "coordinates": [-96.05314,35.943753]}},
{ "type": "Feature", "properties": {"Name":"Kildare town","State":"Oklahoma","State_Abbrev":"OK"},
"geometry":{ "type": "Point", "coordinates": [-97.049982,36.80836]}},
{ "type": "Feature", "properties": {"Name":"Kingfisher city","State":"Oklahoma","State_Abbrev":"OK"},
"geometry":{ "type": "Point", "coordinates": [-97.939308,35.844726]}},
{ "type": "Feature", "properties": {"Name":"Kingston town","State":"Oklahoma","State_Abbrev":"OK"},
"geometry":{ "type": "Point", "coordinates": [-96.706504,34.000377]}},
{ "type": "Feature", "properties": {"Name":"Kinta town","State":"Oklahoma","State_Abbrev":"OK"},
"geometry":{ "type": "Point", "coordinates": [-95.238238,35.119759]}},
{ "type": "Feature", "properties": {"Name":"Kiowa town","State":"Oklahoma","State_Abbrev":"OK"},
"geometry":{ "type": "Point", "coordinates": [-95.902895,34.723294]}},
{ "type": "Feature", "properties": {"Name":"Knowles town","State":"Oklahoma","State_Abbrev":"OK"},
"geometry":{ "type": "Point", "coordinates": [-100.192416,36.872893]}},
{ "type": "Feature", "properties": {"Name":"Konawa city","State":"Oklahoma","State_Abbrev":"OK"},
"geometry":{ "type": "Point", "coordinates": [-96.753806,34.957894]}},
{ "type": "Feature", "properties": {"Name":"Krebs city","State":"Oklahoma","State_Abbrev":"OK"},
"geometry":{ "type": "Point", "coordinates": [-95.718636,34.929783]}},
{ "type": "Feature", "properties": {"Name":"Kremlin town","State":"Oklahoma","State_Abbrev":"OK"},
"geometry":{ "type": "Point", "coordinates": [-97.83233,36.546573]}},
{ "type": "Feature", "properties": {"Name":"Lahoma town","State":"Oklahoma","State_Abbrev":"OK"},
"geometry":{ "type": "Point", "coordinates": [-98.090322,36.387988]}},
{ "type": "Feature", "properties": {"Name":"Lake Aluma town","State":"Oklahoma","State_Abbrev":"OK"},
"geometry":{ "type": "Point", "coordinates": [-97.447417,35.53147]}},
{ "type": "Feature", "properties": {"Name":"Lake Ellsworth Addition CDP","State":"Oklahoma","State_Abbrev":"OK"},
"geometry":{ "type": "Point", "coordinates": [-98.321326,34.836829]}},
{ "type": "Feature", "properties": {"Name":"Lakeside Village CDP","State":"Oklahoma","State_Abbrev":"OK"},
"geometry":{ "type": "Point", "coordinates": [-98.381096,34.798885]}},
{ "type": "Feature", "properties": {"Name":"Lamar town","State":"Oklahoma","State_Abbrev":"OK"},
"geometry":{ "type": "Point", "coordinates": [-96.124823,35.094209]}},
{ "type": "Feature", "properties": {"Name":"Lambert town","State":"Oklahoma","State_Abbrev":"OK"},
"geometry":{ "type": "Point", "coordinates": [-98.423656,36.683241]}},
{ "type": "Feature", "properties": {"Name":"Lamont town","State":"Oklahoma","State_Abbrev":"OK"},
"geometry":{ "type": "Point", "coordinates": [-97.558274,36.691319]}},
{ "type": "Feature", "properties": {"Name":"Lane CDP","State":"Oklahoma","State_Abbrev":"OK"},
"geometry":{ "type": "Point", "coordinates": [-95.989631,34.29988]}},
{ "type": "Feature", "properties": {"Name":"Langley town","State":"Oklahoma","State_Abbrev":"OK"},
"geometry":{ "type": "Point", "coordinates": [-95.053609,36.480261]}},
{ "type": "Feature", "properties": {"Name":"Langston town","State":"Oklahoma","State_Abbrev":"OK"},
"geometry":{ "type": "Point", "coordinates": [-97.279406,35.931276]}},
{ "type": "Feature", "properties": {"Name":"Latta CDP","State":"Oklahoma","State_Abbrev":"OK"},
"geometry":{ "type": "Point", "coordinates": [-96.708797,34.753149]}},
{ "type": "Feature", "properties": {"Name":"Laverne town","State":"Oklahoma","State_Abbrev":"OK"},
"geometry":{ "type": "Point", "coordinates": [-99.896794,36.705351]}},
{ "type": "Feature", "properties": {"Name":"Lawrence Creek town","State":"Oklahoma","State_Abbrev":"OK"},
"geometry":{ "type": "Point", "coordinates": [-96.426756,36.083804]}},
{ "type": "Feature", "properties": {"Name":"Lawton city","State":"Oklahoma","State_Abbrev":"OK"},
"geometry":{ "type": "Point", "coordinates": [-98.421106,34.619218]}},
{ "type": "Feature", "properties": {"Name":"Lawtonka Acres CDP","State":"Oklahoma","State_Abbrev":"OK"},
"geometry":{ "type": "Point", "coordinates": [-98.529603,34.780499]}},
{ "type": "Feature", "properties": {"Name":"Leach CDP","State":"Oklahoma","State_Abbrev":"OK"},
"geometry":{ "type": "Point", "coordinates": [-94.909861,36.197849]}},
{ "type": "Feature", "properties": {"Name":"Lebanon CDP","State":"Oklahoma","State_Abbrev":"OK"},
"geometry":{ "type": "Point", "coordinates": [-96.92384,33.971745]}},
{ "type": "Feature", "properties": {"Name":"Leedey town","State":"Oklahoma","State_Abbrev":"OK"},
"geometry":{ "type": "Point", "coordinates": [-99.344924,35.868423]}},
{ "type": "Feature", "properties": {"Name":"Le Flore town","State":"Oklahoma","State_Abbrev":"OK"},
"geometry":{ "type": "Point", "coordinates": [-94.978025,34.894594]}},
{ "type": "Feature", "properties": {"Name":"Lehigh city","State":"Oklahoma","State_Abbrev":"OK"},
"geometry":{ "type": "Point", "coordinates": [-96.221689,34.474729]}},
{ "type": "Feature", "properties": {"Name":"Lenapah town","State":"Oklahoma","State_Abbrev":"OK"},
"geometry":{ "type": "Point", "coordinates": [-95.635696,36.851347]}},
{ "type": "Feature", "properties": {"Name":"Leon town","State":"Oklahoma","State_Abbrev":"OK"},
"geometry":{ "type": "Point", "coordinates": [-97.429083,33.877336]}},
{ "type": "Feature", "properties": {"Name":"Leonard CDP","State":"Oklahoma","State_Abbrev":"OK"},
"geometry":{ "type": "Point", "coordinates": [-95.801007,35.922786]}},
{ "type": "Feature", "properties": {"Name":"Lequire CDP","State":"Oklahoma","State_Abbrev":"OK"},
"geometry":{ "type": "Point", "coordinates": [-95.111859,35.111147]}},
{ "type": "Feature", "properties": {"Name":"Lexington city","State":"Oklahoma","State_Abbrev":"OK"},
"geometry":{ "type": "Point", "coordinates": [-97.335018,35.017605]}},
{ "type": "Feature", "properties": {"Name":"Liberty CDP","State":"Oklahoma","State_Abbrev":"OK"},
"geometry":{ "type": "Point", "coordinates": [-94.545749,35.460861]}},
{ "type": "Feature", "properties": {"Name":"Liberty town","State":"Oklahoma","State_Abbrev":"OK"},
"geometry":{ "type": "Point", "coordinates": [-95.986245,35.853024]}},
{ "type": "Feature", "properties": {"Name":"Lima town","State":"Oklahoma","State_Abbrev":"OK"},
"geometry":{ "type": "Point", "coordinates": [-96.598114,35.173708]}},
{ "type": "Feature", "properties": {"Name":"Limestone CDP","State":"Oklahoma","State_Abbrev":"OK"},
"geometry":{ "type": "Point", "coordinates": [-95.747728,36.314343]}},
{ "type": "Feature", "properties": {"Name":"Lindsay city","State":"Oklahoma","State_Abbrev":"OK"},
"geometry":{ "type": "Point", "coordinates": [-97.609851,34.840485]}},
{ "type": "Feature", "properties": {"Name":"Little City CDP","State":"Oklahoma","State_Abbrev":"OK"},
"geometry":{ "type": "Point", "coordinates": [-96.616047,34.083955]}},
{ "type": "Feature", "properties": {"Name":"Little Ponderosa CDP","State":"Oklahoma","State_Abbrev":"OK"},
"geometry":{ "type": "Point", "coordinates": [-100.878139,36.961186]}},
{ "type": "Feature", "properties": {"Name":"Little Rock CDP","State":"Oklahoma","State_Abbrev":"OK"},
"geometry":{ "type": "Point", "coordinates": [-95.091226,36.214953]}},
{ "type": "Feature", "properties": {"Name":"Loco town","State":"Oklahoma","State_Abbrev":"OK"},
"geometry":{ "type": "Point", "coordinates": [-97.680638,34.329506]}},
{ "type": "Feature", "properties": {"Name":"Locust Grove town","State":"Oklahoma","State_Abbrev":"OK"},
"geometry":{ "type": "Point", "coordinates": [-95.168874,36.198162]}},
{ "type": "Feature", "properties": {"Name":"Lone Chimney town","State":"Oklahoma","State_Abbrev":"OK"},
"geometry":{ "type": "Point", "coordinates": [-96.792914,36.23265]}},
{ "type": "Feature", "properties": {"Name":"Lone Grove city","State":"Oklahoma","State_Abbrev":"OK"},
"geometry":{ "type": "Point", "coordinates": [-97.253313,34.180972]}},
{ "type": "Feature", "properties": {"Name":"Lone Wolf town","State":"Oklahoma","State_Abbrev":"OK"},
"geometry":{ "type": "Point", "coordinates": [-99.245602,34.990427]}},
{ "type": "Feature", "properties": {"Name":"Long CDP","State":"Oklahoma","State_Abbrev":"OK"},
"geometry":{ "type": "Point", "coordinates": [-94.538858,35.497823]}},
{ "type": "Feature", "properties": {"Name":"Longdale town","State":"Oklahoma","State_Abbrev":"OK"},
"geometry":{ "type": "Point", "coordinates": [-98.551179,36.133794]}},
{ "type": "Feature", "properties": {"Name":"Longtown CDP","State":"Oklahoma","State_Abbrev":"OK"},
"geometry":{ "type": "Point", "coordinates": [-95.518593,35.242373]}},
{ "type": "Feature", "properties": {"Name":"Lookeba town","State":"Oklahoma","State_Abbrev":"OK"},
"geometry":{ "type": "Point", "coordinates": [-98.36384,35.363]}},
{ "type": "Feature", "properties": {"Name":"Lost City CDP","State":"Oklahoma","State_Abbrev":"OK"},
"geometry":{ "type": "Point", "coordinates": [-95.122306,36.000647]}},
{ "type": "Feature", "properties": {"Name":"Lotsee town","State":"Oklahoma","State_Abbrev":"OK"},
"geometry":{ "type": "Point", "coordinates": [-96.209085,36.133432]}},
{ "type": "Feature", "properties": {"Name":"Loveland town","State":"Oklahoma","State_Abbrev":"OK"},
"geometry":{ "type": "Point", "coordinates": [-98.771271,34.304985]}},
{ "type": "Feature", "properties": {"Name":"Lovell CDP","State":"Oklahoma","State_Abbrev":"OK"},
"geometry":{ "type": "Point", "coordinates": [-97.636473,36.056034]}},
{ "type": "Feature", "properties": {"Name":"Lowrey CDP","State":"Oklahoma","State_Abbrev":"OK"},
"geometry":{ "type": "Point", "coordinates": [-94.930908,36.099952]}},
{ "type": "Feature", "properties": {"Name":"Loyal town","State":"Oklahoma","State_Abbrev":"OK"},
"geometry":{ "type": "Point", "coordinates": [-98.118154,35.972771]}},
{ "type": "Feature", "properties": {"Name":"Lucien CDP","State":"Oklahoma","State_Abbrev":"OK"},
"geometry":{ "type": "Point", "coordinates": [-97.455029,36.274764]}},
{ "type": "Feature", "properties": {"Name":"Luther town","State":"Oklahoma","State_Abbrev":"OK"},
"geometry":{ "type": "Point", "coordinates": [-97.190547,35.668218]}},
{ "type": "Feature", "properties": {"Name":"Lyons Switch CDP","State":"Oklahoma","State_Abbrev":"OK"},
"geometry":{ "type": "Point", "coordinates": [-94.685329,35.788983]}},
{ "type": "Feature", "properties": {"Name":"McAlester city","State":"Oklahoma","State_Abbrev":"OK"},
"geometry":{ "type": "Point", "coordinates": [-95.773619,34.926128]}},
{ "type": "Feature", "properties": {"Name":"McBride CDP","State":"Oklahoma","State_Abbrev":"OK"},
"geometry":{ "type": "Point", "coordinates": [-96.636363,33.934502]}},
{ "type": "Feature", "properties": {"Name":"McCord CDP","State":"Oklahoma","State_Abbrev":"OK"},
"geometry":{ "type": "Point", "coordinates": [-97.035919,36.673115]}},
{ "type": "Feature", "properties": {"Name":"McCurtain town","State":"Oklahoma","State_Abbrev":"OK"},
"geometry":{ "type": "Point", "coordinates": [-94.967178,35.150561]}},
{ "type": "Feature", "properties": {"Name":"McLoud city","State":"Oklahoma","State_Abbrev":"OK"},
"geometry":{ "type": "Point", "coordinates": [-97.106622,35.412153]}},
{ "type": "Feature", "properties": {"Name":"Macomb town","State":"Oklahoma","State_Abbrev":"OK"},
"geometry":{ "type": "Point", "coordinates": [-97.00865,35.147902]}},
{ "type": "Feature", "properties": {"Name":"Madill city","State":"Oklahoma","State_Abbrev":"OK"},
"geometry":{ "type": "Point", "coordinates": [-96.774665,34.08708]}},
{ "type": "Feature", "properties": {"Name":"Mallard Bay CDP","State":"Oklahoma","State_Abbrev":"OK"},
"geometry":{ "type": "Point", "coordinates": [-95.263845,35.862248]}},
{ "type": "Feature", "properties": {"Name":"Manchester town","State":"Oklahoma","State_Abbrev":"OK"},
"geometry":{ "type": "Point", "coordinates": [-98.0351,36.994494]}},
{ "type": "Feature", "properties": {"Name":"Mangum city","State":"Oklahoma","State_Abbrev":"OK"},
"geometry":{ "type": "Point", "coordinates": [-99.503894,34.878574]}},
{ "type": "Feature", "properties": {"Name":"Manitou town","State":"Oklahoma","State_Abbrev":"OK"},
"geometry":{ "type": "Point", "coordinates": [-98.981011,34.507244]}},
{ "type": "Feature", "properties": {"Name":"Mannford town","State":"Oklahoma","State_Abbrev":"OK"},
"geometry":{ "type": "Point", "coordinates": [-96.330428,36.132862]}},
{ "type": "Feature", "properties": {"Name":"Mannsville town","State":"Oklahoma","State_Abbrev":"OK"},
"geometry":{ "type": "Point", "coordinates": [-96.888853,34.183123]}},
{ "type": "Feature", "properties": {"Name":"Maramec town","State":"Oklahoma","State_Abbrev":"OK"},
"geometry":{ "type": "Point", "coordinates": [-96.680512,36.24189]}},
{ "type": "Feature", "properties": {"Name":"Marble City town","State":"Oklahoma","State_Abbrev":"OK"},
"geometry":{ "type": "Point", "coordinates": [-94.817396,35.583882]}},
{ "type": "Feature", "properties": {"Name":"Marietta CDP","State":"Oklahoma","State_Abbrev":"OK"},
"geometry":{ "type": "Point", "coordinates": [-94.653261,35.848331]}},
{ "type": "Feature", "properties": {"Name":"Marietta city","State":"Oklahoma","State_Abbrev":"OK"},
"geometry":{ "type": "Point", "coordinates": [-97.124716,33.936172]}},
{ "type": "Feature", "properties": {"Name":"Marland town","State":"Oklahoma","State_Abbrev":"OK"},
"geometry":{ "type": "Point", "coordinates": [-97.152772,36.560995]}},
{ "type": "Feature", "properties": {"Name":"Marlow city","State":"Oklahoma","State_Abbrev":"OK"},
"geometry":{ "type": "Point", "coordinates": [-97.956659,34.631114]}},
{ "type": "Feature", "properties": {"Name":"Marshall town","State":"Oklahoma","State_Abbrev":"OK"},
"geometry":{ "type": "Point", "coordinates": [-97.623244,36.149683]}},
{ "type": "Feature", "properties": {"Name":"Martha town","State":"Oklahoma","State_Abbrev":"OK"},
"geometry":{ "type": "Point", "coordinates": [-99.386657,34.725983]}},
{ "type": "Feature", "properties": {"Name":"Maud city","State":"Oklahoma","State_Abbrev":"OK"},
"geometry":{ "type": "Point", "coordinates": [-96.777971,35.133451]}},
{ "type": "Feature", "properties": {"Name":"May town","State":"Oklahoma","State_Abbrev":"OK"},
"geometry":{ "type": "Point", "coordinates": [-99.748636,36.616708]}},
{ "type": "Feature", "properties": {"Name":"Maysville town","State":"Oklahoma","State_Abbrev":"OK"},
"geometry":{ "type": "Point", "coordinates": [-97.373593,34.864713]}},
{ "type": "Feature", "properties": {"Name":"Mazie CDP","State":"Oklahoma","State_Abbrev":"OK"},
"geometry":{ "type": "Point", "coordinates": [-95.330214,36.142561]}},
{ "type": "Feature", "properties": {"Name":"Mead town","State":"Oklahoma","State_Abbrev":"OK"},
"geometry":{ "type": "Point", "coordinates": [-96.518641,33.997991]}},
{ "type": "Feature", "properties": {"Name":"Medford city","State":"Oklahoma","State_Abbrev":"OK"},
"geometry":{ "type": "Point", "coordinates": [-97.737836,36.803396]}},
{ "type": "Feature", "properties": {"Name":"Medicine Park town","State":"Oklahoma","State_Abbrev":"OK"},
"geometry":{ "type": "Point", "coordinates": [-98.48897,34.73199]}},
{ "type": "Feature", "properties": {"Name":"Meeker town","State":"Oklahoma","State_Abbrev":"OK"},
"geometry":{ "type": "Point", "coordinates": [-96.897646,35.489312]}},
{ "type": "Feature", "properties": {"Name":"Mehan CDP","State":"Oklahoma","State_Abbrev":"OK"},
"geometry":{ "type": "Point", "coordinates": [-96.940133,36.04583]}},
{ "type": "Feature", "properties": {"Name":"Meno town","State":"Oklahoma","State_Abbrev":"OK"},
"geometry":{ "type": "Point", "coordinates": [-98.177925,36.388195]}},
{ "type": "Feature", "properties": {"Name":"Meridian town","State":"Oklahoma","State_Abbrev":"OK"},
"geometry":{ "type": "Point", "coordinates": [-97.245563,35.844226]}},
{ "type": "Feature", "properties": {"Name":"Miami city","State":"Oklahoma","State_Abbrev":"OK"},
"geometry":{ "type": "Point", "coordinates": [-94.870913,36.887738]}},
{ "type": "Feature", "properties": {"Name":"Middleberg CDP","State":"Oklahoma","State_Abbrev":"OK"},
"geometry":{ "type": "Point", "coordinates": [-97.73416,35.10661]}},
{ "type": "Feature", "properties": {"Name":"Midwest City city","State":"Oklahoma","State_Abbrev":"OK"},
"geometry":{ "type": "Point", "coordinates": [-97.37457,35.458752]}},
{ "type": "Feature", "properties": {"Name":"Milburn town","State":"Oklahoma","State_Abbrev":"OK"},
"geometry":{ "type": "Point", "coordinates": [-96.552394,34.238658]}},
{ "type": "Feature", "properties": {"Name":"Milfay CDP","State":"Oklahoma","State_Abbrev":"OK"},
"geometry":{ "type": "Point", "coordinates": [-96.559172,35.75095]}},
{ "type": "Feature", "properties": {"Name":"Mill Creek town","State":"Oklahoma","State_Abbrev":"OK"},
"geometry":{ "type": "Point", "coordinates": [-96.825196,34.402551]}},
{ "type": "Feature", "properties": {"Name":"Millerton town","State":"Oklahoma","State_Abbrev":"OK"},
"geometry":{ "type": "Point", "coordinates": [-95.023033,33.984902]}},
{ "type": "Feature", "properties": {"Name":"Minco city","State":"Oklahoma","State_Abbrev":"OK"},
"geometry":{ "type": "Point", "coordinates": [-97.951407,35.315621]}},
{ "type": "Feature", "properties": {"Name":"Moffett town","State":"Oklahoma","State_Abbrev":"OK"},
"geometry":{ "type": "Point", "coordinates": [-94.455721,35.404671]}},
{ "type": "Feature", "properties": {"Name":"Monroe CDP","State":"Oklahoma","State_Abbrev":"OK"},
"geometry":{ "type": "Point", "coordinates": [-94.515539,34.993724]}},
{ "type": "Feature", "properties": {"Name":"Moodys CDP","State":"Oklahoma","State_Abbrev":"OK"},
"geometry":{ "type": "Point", "coordinates": [-94.956412,36.034069]}},
{ "type": "Feature", "properties": {"Name":"Moore city","State":"Oklahoma","State_Abbrev":"OK"},
"geometry":{ "type": "Point", "coordinates": [-97.474763,35.328503]}},
{ "type": "Feature", "properties": {"Name":"Mooreland town","State":"Oklahoma","State_Abbrev":"OK"},
"geometry":{ "type": "Point", "coordinates": [-99.204847,36.437701]}},
{ "type": "Feature", "properties": {"Name":"Morris city","State":"Oklahoma","State_Abbrev":"OK"},
"geometry":{ "type": "Point", "coordinates": [-95.860823,35.605211]}},
{ "type": "Feature", "properties": {"Name":"Morrison town","State":"Oklahoma","State_Abbrev":"OK"},
"geometry":{ "type": "Point", "coordinates": [-97.0348,36.29173]}},
{ "type": "Feature", "properties": {"Name":"Mounds town","State":"Oklahoma","State_Abbrev":"OK"},
"geometry":{ "type": "Point", "coordinates": [-96.066128,35.875913]}},
{ "type": "Feature", "properties": {"Name":"Mountain Park town","State":"Oklahoma","State_Abbrev":"OK"},
"geometry":{ "type": "Point", "coordinates": [-98.952348,34.698829]}},
{ "type": "Feature", "properties": {"Name":"Mountain View town","State":"Oklahoma","State_Abbrev":"OK"},
"geometry":{ "type": "Point", "coordinates": [-98.749749,35.099516]}},
{ "type": "Feature", "properties": {"Name":"Moyers CDP","State":"Oklahoma","State_Abbrev":"OK"},
"geometry":{ "type": "Point", "coordinates": [-95.651087,34.325002]}},
{ "type": "Feature", "properties": {"Name":"Mulberry CDP","State":"Oklahoma","State_Abbrev":"OK"},
"geometry":{ "type": "Point", "coordinates": [-94.69945,35.868687]}},
{ "type": "Feature", "properties": {"Name":"Muldrow town","State":"Oklahoma","State_Abbrev":"OK"},
"geometry":{ "type": "Point", "coordinates": [-94.597523,35.40342]}},
{ "type": "Feature", "properties": {"Name":"Mule Barn town","State":"Oklahoma","State_Abbrev":"OK"},
"geometry":{ "type": "Point", "coordinates": [-96.312301,36.217903]}},
{ "type": "Feature", "properties": {"Name":"Mulhall town","State":"Oklahoma","State_Abbrev":"OK"},
"geometry":{ "type": "Point", "coordinates": [-97.342802,36.112098]}},
{ "type": "Feature", "properties": {"Name":"Murphy CDP","State":"Oklahoma","State_Abbrev":"OK"},
"geometry":{ "type": "Point", "coordinates": [-95.24137,36.134102]}},
{ "type": "Feature", "properties": {"Name":"Muskogee city","State":"Oklahoma","State_Abbrev":"OK"},
"geometry":{ "type": "Point", "coordinates": [-95.356405,35.743797]}},
{ "type": "Feature", "properties": {"Name":"Mustang city","State":"Oklahoma","State_Abbrev":"OK"},
"geometry":{ "type": "Point", "coordinates": [-97.72514,35.391847]}},
{ "type": "Feature", "properties": {"Name":"Mutual town","State":"Oklahoma","State_Abbrev":"OK"},
"geometry":{ "type": "Point", "coordinates": [-99.167975,36.230462]}},
{ "type": "Feature", "properties": {"Name":"Narcissa CDP","State":"Oklahoma","State_Abbrev":"OK"},
"geometry":{ "type": "Point", "coordinates": [-94.927866,36.801033]}},
{ "type": "Feature", "properties": {"Name":"Nardin CDP","State":"Oklahoma","State_Abbrev":"OK"},
"geometry":{ "type": "Point", "coordinates": [-97.449868,36.804091]}},
{ "type": "Feature", "properties": {"Name":"Nash town","State":"Oklahoma","State_Abbrev":"OK"},
"geometry":{ "type": "Point", "coordinates": [-98.051966,36.665048]}},
{ "type": "Feature", "properties": {"Name":"Nashoba CDP","State":"Oklahoma","State_Abbrev":"OK"},
"geometry":{ "type": "Point", "coordinates": [-95.210298,34.480729]}},
{ "type": "Feature", "properties": {"Name":"Nelagoney CDP","State":"Oklahoma","State_Abbrev":"OK"},
"geometry":{ "type": "Point", "coordinates": [-96.2441,36.626037]}},
{ "type": "Feature", "properties": {"Name":"Nescatunga CDP","State":"Oklahoma","State_Abbrev":"OK"},
"geometry":{ "type": "Point", "coordinates": [-98.156052,36.754293]}},
{ "type": "Feature", "properties": {"Name":"New Alluwe town","State":"Oklahoma","State_Abbrev":"OK"},
"geometry":{ "type": "Point", "coordinates": [-95.488565,36.610102]}},
{ "type": "Feature", "properties": {"Name":"Newcastle city","State":"Oklahoma","State_Abbrev":"OK"},
"geometry":{ "type": "Point", "coordinates": [-97.595336,35.242395]}},
{ "type": "Feature", "properties": {"Name":"New Cordell city","State":"Oklahoma","State_Abbrev":"OK"},
"geometry":{ "type": "Point", "coordinates": [-98.983769,35.296862]}},
{ "type": "Feature", "properties": {"Name":"New Eucha CDP","State":"Oklahoma","State_Abbrev":"OK"},
"geometry":{ "type": "Point", "coordinates": [-94.852242,36.39116]}},
{ "type": "Feature", "properties": {"Name":"Newkirk city","State":"Oklahoma","State_Abbrev":"OK"},
"geometry":{ "type": "Point", "coordinates": [-97.055292,36.881797]}},
{ "type": "Feature", "properties": {"Name":"New Woodville town","State":"Oklahoma","State_Abbrev":"OK"},
"geometry":{ "type": "Point", "coordinates": [-96.654842,33.968845]}},
{ "type": "Feature", "properties": {"Name":"Nichols Hills city","State":"Oklahoma","State_Abbrev":"OK"},
"geometry":{ "type": "Point", "coordinates": [-97.54327,35.546389]}},
{ "type": "Feature", "properties": {"Name":"Nicoma Park city","State":"Oklahoma","State_Abbrev":"OK"},
"geometry":{ "type": "Point", "coordinates": [-97.324313,35.49178]}},
{ "type": "Feature", "properties": {"Name":"Nicut CDP","State":"Oklahoma","State_Abbrev":"OK"},
"geometry":{ "type": "Point", "coordinates": [-94.562909,35.602384]}},
{ "type": "Feature", "properties": {"Name":"Ninnekah town","State":"Oklahoma","State_Abbrev":"OK"},
"geometry":{ "type": "Point", "coordinates": [-97.944707,34.964011]}},
{ "type": "Feature", "properties": {"Name":"Noble city","State":"Oklahoma","State_Abbrev":"OK"},
"geometry":{ "type": "Point", "coordinates": [-97.371089,35.134919]}},
{ "type": "Feature", "properties": {"Name":"Norge town","State":"Oklahoma","State_Abbrev":"OK"},
"geometry":{ "type": "Point", "coordinates": [-97.994049,34.98878]}},
{ "type": "Feature", "properties": {"Name":"Norman city","State":"Oklahoma","State_Abbrev":"OK"},
"geometry":{ "type": "Point", "coordinates": [-97.345299,35.240569]}},
{ "type": "Feature", "properties": {"Name":"North Enid town","State":"Oklahoma","State_Abbrev":"OK"},
"geometry":{ "type": "Point", "coordinates": [-97.863389,36.445832]}},
{ "type": "Feature", "properties": {"Name":"North Miami town","State":"Oklahoma","State_Abbrev":"OK"},
"geometry":{ "type": "Point", "coordinates": [-94.879654,36.920131]}},
{ "type": "Feature", "properties": {"Name":"Norwood CDP","State":"Oklahoma","State_Abbrev":"OK"},
"geometry":{ "type": "Point", "coordinates": [-95.151226,35.844683]}},
{ "type": "Feature", "properties": {"Name":"Notchietown CDP","State":"Oklahoma","State_Abbrev":"OK"},
"geometry":{ "type": "Point", "coordinates": [-95.089467,35.585427]}},
{ "type": "Feature", "properties": {"Name":"Nowata city","State":"Oklahoma","State_Abbrev":"OK"},
"geometry":{ "type": "Point", "coordinates": [-95.637465,36.699265]}},
{ "type": "Feature", "properties": {"Name":"Oak Grove town","State":"Oklahoma","State_Abbrev":"OK"},
"geometry":{ "type": "Point", "coordinates": [-96.338423,36.205613]}},
{ "type": "Feature", "properties": {"Name":"Oak Hill-Piney CDP","State":"Oklahoma","State_Abbrev":"OK"},
"geometry":{ "type": "Point", "coordinates": [-94.726565,36.378688]}},
{ "type": "Feature", "properties": {"Name":"Oakhurst CDP","State":"Oklahoma","State_Abbrev":"OK"},
"geometry":{ "type": "Point", "coordinates": [-96.062364,36.08061]}},
{ "type": "Feature", "properties": {"Name":"Oakland town","State":"Oklahoma","State_Abbrev":"OK"},
"geometry":{ "type": "Point", "coordinates": [-96.802424,34.093175]}},
{ "type": "Feature", "properties": {"Name":"Oaks town","State":"Oklahoma","State_Abbrev":"OK"},
"geometry":{ "type": "Point", "coordinates": [-94.852931,36.169798]}},
{ "type": "Feature", "properties": {"Name":"Oakwood town","State":"Oklahoma","State_Abbrev":"OK"},
"geometry":{ "type": "Point", "coordinates": [-98.703088,35.931616]}},
{ "type": "Feature", "properties": {"Name":"Ochelata town","State":"Oklahoma","State_Abbrev":"OK"},
"geometry":{ "type": "Point", "coordinates": [-95.975056,36.602685]}},
{ "type": "Feature", "properties": {"Name":"Oilton city","State":"Oklahoma","State_Abbrev":"OK"},
"geometry":{ "type": "Point", "coordinates": [-96.581442,36.082655]}},
{ "type": "Feature", "properties": {"Name":"Okarche town","State":"Oklahoma","State_Abbrev":"OK"},
"geometry":{ "type": "Point", "coordinates": [-97.975675,35.724871]}},
{ "type": "Feature", "properties": {"Name":"Okay town","State":"Oklahoma","State_Abbrev":"OK"},
"geometry":{ "type": "Point", "coordinates": [-95.307735,35.865019]}},
{ "type": "Feature", "properties": {"Name":"Okeene town","State":"Oklahoma","State_Abbrev":"OK"},
"geometry":{ "type": "Point", "coordinates": [-98.316734,36.117076]}},
{ "type": "Feature", "properties": {"Name":"Okemah city","State":"Oklahoma","State_Abbrev":"OK"},
"geometry":{ "type": "Point", "coordinates": [-96.300309,35.429269]}},
{ "type": "Feature", "properties": {"Name":"Oklahoma City city","State":"Oklahoma","State_Abbrev":"OK"},
"geometry":{ "type": "Point", "coordinates": [-97.513657,35.467079]}},
{ "type": "Feature", "properties": {"Name":"Okmulgee city","State":"Oklahoma","State_Abbrev":"OK"},
"geometry":{ "type": "Point", "coordinates": [-95.954032,35.625162]}},
{ "type": "Feature", "properties": {"Name":"Oktaha town","State":"Oklahoma","State_Abbrev":"OK"},
"geometry":{ "type": "Point", "coordinates": [-95.477892,35.577489]}},
{ "type": "Feature", "properties": {"Name":"Old Eucha CDP","State":"Oklahoma","State_Abbrev":"OK"},
"geometry":{ "type": "Point", "coordinates": [-94.937907,36.355135]}},
{ "type": "Feature", "properties": {"Name":"Old Green CDP","State":"Oklahoma","State_Abbrev":"OK"},
"geometry":{ "type": "Point", "coordinates": [-94.608227,35.98533]}},
{ "type": "Feature", "properties": {"Name":"Olive CDP","State":"Oklahoma","State_Abbrev":"OK"},
"geometry":{ "type": "Point", "coordinates": [-96.481544,36.02382]}},
{ "type": "Feature", "properties": {"Name":"Olustee town","State":"Oklahoma","State_Abbrev":"OK"},
"geometry":{ "type": "Point", "coordinates": [-99.424066,34.547754]}},
{ "type": "Feature", "properties": {"Name":"Oologah town","State":"Oklahoma","State_Abbrev":"OK"},
"geometry":{ "type": "Point", "coordinates": [-95.708911,36.443778]}},
{ "type": "Feature", "properties": {"Name":"Optima town","State":"Oklahoma","State_Abbrev":"OK"},
"geometry":{ "type": "Point", "coordinates": [-101.349203,36.761275]}},
{ "type": "Feature", "properties": {"Name":"Orlando town","State":"Oklahoma","State_Abbrev":"OK"},
"geometry":{ "type": "Point", "coordinates": [-97.374844,36.148356]}},
{ "type": "Feature", "properties": {"Name":"Osage town","State":"Oklahoma","State_Abbrev":"OK"},
"geometry":{ "type": "Point", "coordinates": [-96.417211,36.295702]}},
{ "type": "Feature", "properties": {"Name":"Owasso city","State":"Oklahoma","State_Abbrev":"OK"},
"geometry":{ "type": "Point", "coordinates": [-95.835365,36.287217]}},
{ "type": "Feature", "properties": {"Name":"Paden town","State":"Oklahoma","State_Abbrev":"OK"},
"geometry":{ "type": "Point", "coordinates": [-96.567089,35.508363]}},
{ "type": "Feature", "properties": {"Name":"Panama town","State":"Oklahoma","State_Abbrev":"OK"},
"geometry":{ "type": "Point", "coordinates": [-94.668428,35.171182]}},
{ "type": "Feature", "properties": {"Name":"Panola CDP","State":"Oklahoma","State_Abbrev":"OK"},
"geometry":{ "type": "Point", "coordinates": [-95.208671,34.922121]}},
{ "type": "Feature", "properties": {"Name":"Paoli town","State":"Oklahoma","State_Abbrev":"OK"},
"geometry":{ "type": "Point", "coordinates": [-97.262269,34.827046]}},
{ "type": "Feature", "properties": {"Name":"Paradise Hill town","State":"Oklahoma","State_Abbrev":"OK"},
"geometry":{ "type": "Point", "coordinates": [-95.07309,35.607345]}},
{ "type": "Feature", "properties": {"Name":"Park Hill CDP","State":"Oklahoma","State_Abbrev":"OK"},
"geometry":{ "type": "Point", "coordinates": [-94.972077,35.834444]}},
{ "type": "Feature", "properties": {"Name":"Pauls Valley city","State":"Oklahoma","State_Abbrev":"OK"},
"geometry":{ "type": "Point", "coordinates": [-97.224027,34.710206]}},
{ "type": "Feature", "properties": {"Name":"Pawhuska city","State":"Oklahoma","State_Abbrev":"OK"},
"geometry":{ "type": "Point", "coordinates": [-96.331216,36.669064]}},
{ "type": "Feature", "properties": {"Name":"Pawnee city","State":"Oklahoma","State_Abbrev":"OK"},
"geometry":{ "type": "Point", "coordinates": [-96.800504,36.35148]}},
{ "type": "Feature", "properties": {"Name":"Peavine CDP","State":"Oklahoma","State_Abbrev":"OK"},
"geometry":{ "type": "Point", "coordinates": [-94.606632,35.900317]}},
{ "type": "Feature", "properties": {"Name":"Peckham CDP","State":"Oklahoma","State_Abbrev":"OK"},
"geometry":{ "type": "Point", "coordinates": [-97.178056,36.886652]}},
{ "type": "Feature", "properties": {"Name":"Peggs CDP","State":"Oklahoma","State_Abbrev":"OK"},
"geometry":{ "type": "Point", "coordinates": [-95.071798,36.067284]}},
{ "type": "Feature", "properties": {"Name":"Pensacola town","State":"Oklahoma","State_Abbrev":"OK"},
"geometry":{ "type": "Point", "coordinates": [-95.127764,36.459227]}},
{ "type": "Feature", "properties": {"Name":"Peoria town","State":"Oklahoma","State_Abbrev":"OK"},
"geometry":{ "type": "Point", "coordinates": [-94.669552,36.915563]}},
{ "type": "Feature", "properties": {"Name":"Perkins city","State":"Oklahoma","State_Abbrev":"OK"},
"geometry":{ "type": "Point", "coordinates": [-97.03129,35.979763]}},
{ "type": "Feature", "properties": {"Name":"Perry city","State":"Oklahoma","State_Abbrev":"OK"},
"geometry":{ "type": "Point", "coordinates": [-97.30819,36.280149]}},
{ "type": "Feature", "properties": {"Name":"Pershing CDP","State":"Oklahoma","State_Abbrev":"OK"},
"geometry":{ "type": "Point", "coordinates": [-96.273126,36.590124]}},
{ "type": "Feature", "properties": {"Name":"Pettit CDP","State":"Oklahoma","State_Abbrev":"OK"},
"geometry":{ "type": "Point", "coordinates": [-94.976758,35.773684]}},
{ "type": "Feature", "properties": {"Name":"Phillips town","State":"Oklahoma","State_Abbrev":"OK"},
"geometry":{ "type": "Point", "coordinates": [-96.222227,34.504221]}},
{ "type": "Feature", "properties": {"Name":"Pickett CDP","State":"Oklahoma","State_Abbrev":"OK"},
"geometry":{ "type": "Point", "coordinates": [-96.775519,34.779506]}},
{ "type": "Feature", "properties": {"Name":"Piedmont city","State":"Oklahoma","State_Abbrev":"OK"},
"geometry":{ "type": "Point", "coordinates": [-97.753508,35.674845]}},
{ "type": "Feature", "properties": {"Name":"Piney CDP","State":"Oklahoma","State_Abbrev":"OK"},
"geometry":{ "type": "Point", "coordinates": [-94.555943,35.890519]}},
{ "type": "Feature", "properties": {"Name":"Pinhook Corner CDP","State":"Oklahoma","State_Abbrev":"OK"},
"geometry":{ "type": "Point", "coordinates": [-94.891677,35.533147]}},
{ "type": "Feature", "properties": {"Name":"Pink town","State":"Oklahoma","State_Abbrev":"OK"},
"geometry":{ "type": "Point", "coordinates": [-97.100032,35.232691]}},
{ "type": "Feature", "properties": {"Name":"Pin Oak Acres CDP","State":"Oklahoma","State_Abbrev":"OK"},
"geometry":{ "type": "Point", "coordinates": [-95.288859,36.122561]}},
{ "type": "Feature", "properties": {"Name":"Pittsburg town","State":"Oklahoma","State_Abbrev":"OK"},
"geometry":{ "type": "Point", "coordinates": [-95.850183,34.711636]}},
{ "type": "Feature", "properties": {"Name":"Platter CDP","State":"Oklahoma","State_Abbrev":"OK"},
"geometry":{ "type": "Point", "coordinates": [-96.533959,33.907851]}},
{ "type": "Feature", "properties": {"Name":"Pocasset town","State":"Oklahoma","State_Abbrev":"OK"},
"geometry":{ "type": "Point", "coordinates": [-97.959187,35.177995]}},
{ "type": "Feature", "properties": {"Name":"Pocola town","State":"Oklahoma","State_Abbrev":"OK"},
"geometry":{ "type": "Point", "coordinates": [-94.467919,35.251531]}},
{ "type": "Feature", "properties": {"Name":"Ponca City city","State":"Oklahoma","State_Abbrev":"OK"},
"geometry":{ "type": "Point", "coordinates": [-97.068444,36.721042]}},
{ "type": "Feature", "properties": {"Name":"Pond Creek city","State":"Oklahoma","State_Abbrev":"OK"},
"geometry":{ "type": "Point", "coordinates": [-97.80239,36.667836]}},
{ "type": "Feature", "properties": {"Name":"Pontotoc CDP","State":"Oklahoma","State_Abbrev":"OK"},
"geometry":{ "type": "Point", "coordinates": [-96.629019,34.488836]}},
{ "type": "Feature", "properties": {"Name":"Porter town","State":"Oklahoma","State_Abbrev":"OK"},
"geometry":{ "type": "Point", "coordinates": [-95.515954,35.868409]}},
{ "type": "Feature", "properties": {"Name":"Porum town","State":"Oklahoma","State_Abbrev":"OK"},
"geometry":{ "type": "Point", "coordinates": [-95.26339,35.357128]}},
{ "type": "Feature", "properties": {"Name":"Poteau city","State":"Oklahoma","State_Abbrev":"OK"},
"geometry":{ "type": "Point", "coordinates": [-94.610269,35.06665]}},
{ "type": "Feature", "properties": {"Name":"Prague city","State":"Oklahoma","State_Abbrev":"OK"},
"geometry":{ "type": "Point", "coordinates": [-96.695235,35.495332]}},
{ "type": "Feature", "properties": {"Name":"Preston CDP","State":"Oklahoma","State_Abbrev":"OK"},
"geometry":{ "type": "Point", "coordinates": [-95.988891,35.711372]}},
{ "type": "Feature", "properties": {"Name":"Proctor CDP","State":"Oklahoma","State_Abbrev":"OK"},
"geometry":{ "type": "Point", "coordinates": [-94.736268,35.980356]}},
{ "type": "Feature", "properties": {"Name":"Prue town","State":"Oklahoma","State_Abbrev":"OK"},
"geometry":{ "type": "Point", "coordinates": [-96.266523,36.249422]}},
{ "type": "Feature", "properties": {"Name":"Pryor Creek city","State":"Oklahoma","State_Abbrev":"OK"},
"geometry":{ "type": "Point", "coordinates": [-95.311286,36.299675]}},
{ "type": "Feature", "properties": {"Name":"Pump Back CDP","State":"Oklahoma","State_Abbrev":"OK"},
"geometry":{ "type": "Point", "coordinates": [-95.121073,36.260656]}},
{ "type": "Feature", "properties": {"Name":"Pumpkin Hollow CDP","State":"Oklahoma","State_Abbrev":"OK"},
"geometry":{ "type": "Point", "coordinates": [-94.841439,36.005973]}},
{ "type": "Feature", "properties": {"Name":"Purcell city","State":"Oklahoma","State_Abbrev":"OK"},
"geometry":{ "type": "Point", "coordinates": [-97.373675,35.02366]}},
{ "type": "Feature", "properties": {"Name":"Putnam town","State":"Oklahoma","State_Abbrev":"OK"},
"geometry":{ "type": "Point", "coordinates": [-98.968223,35.855908]}},
{ "type": "Feature", "properties": {"Name":"Quapaw town","State":"Oklahoma","State_Abbrev":"OK"},
"geometry":{ "type": "Point", "coordinates": [-94.771374,36.943633]}},
{ "type": "Feature", "properties": {"Name":"Quay CDP","State":"Oklahoma","State_Abbrev":"OK"},
"geometry":{ "type": "Point", "coordinates": [-96.70827,36.160699]}},
{ "type": "Feature", "properties": {"Name":"Quinlan CDP","State":"Oklahoma","State_Abbrev":"OK"},
"geometry":{ "type": "Point", "coordinates": [-99.045728,36.456222]}},
{ "type": "Feature", "properties": {"Name":"Quinton town","State":"Oklahoma","State_Abbrev":"OK"},
"geometry":{ "type": "Point", "coordinates": [-95.366479,35.12606]}},
{ "type": "Feature", "properties": {"Name":"Ralston town","State":"Oklahoma","State_Abbrev":"OK"},
"geometry":{ "type": "Point", "coordinates": [-96.73738,36.503475]}},
{ "type": "Feature", "properties": {"Name":"Ramona town","State":"Oklahoma","State_Abbrev":"OK"},
"geometry":{ "type": "Point", "coordinates": [-95.926319,36.537579]}},
{ "type": "Feature", "properties": {"Name":"Randlett town","State":"Oklahoma","State_Abbrev":"OK"},
"geometry":{ "type": "Point", "coordinates": [-98.463921,34.177347]}},
{ "type": "Feature", "properties": {"Name":"Ratliff City town","State":"Oklahoma","State_Abbrev":"OK"},
"geometry":{ "type": "Point", "coordinates": [-97.517354,34.452445]}},
{ "type": "Feature", "properties": {"Name":"Rattan town","State":"Oklahoma","State_Abbrev":"OK"},
"geometry":{ "type": "Point", "coordinates": [-95.404544,34.19604]}},
{ "type": "Feature", "properties": {"Name":"Ravia town","State":"Oklahoma","State_Abbrev":"OK"},
"geometry":{ "type": "Point", "coordinates": [-96.756825,34.241226]}},
{ "type": "Feature", "properties": {"Name":"Reagan CDP","State":"Oklahoma","State_Abbrev":"OK"},
"geometry":{ "type": "Point", "coordinates": [-96.713367,34.344063]}},
{ "type": "Feature", "properties": {"Name":"Redbird town","State":"Oklahoma","State_Abbrev":"OK"},
"geometry":{ "type": "Point", "coordinates": [-95.587254,35.887132]}},
{ "type": "Feature", "properties": {"Name":"Redbird Smith CDP","State":"Oklahoma","State_Abbrev":"OK"},
"geometry":{ "type": "Point", "coordinates": [-95.024055,35.563929]}},
{ "type": "Feature", "properties": {"Name":"Red Oak town","State":"Oklahoma","State_Abbrev":"OK"},
"geometry":{ "type": "Point", "coordinates": [-95.079441,34.951328]}},
{ "type": "Feature", "properties": {"Name":"Red Rock town","State":"Oklahoma","State_Abbrev":"OK"},
"geometry":{ "type": "Point", "coordinates": [-97.179608,36.460071]}},
{ "type": "Feature", "properties": {"Name":"Remy CDP","State":"Oklahoma","State_Abbrev":"OK"},
"geometry":{ "type": "Point", "coordinates": [-94.499574,35.46144]}},
{ "type": "Feature", "properties": {"Name":"Renfrow town","State":"Oklahoma","State_Abbrev":"OK"},
"geometry":{ "type": "Point", "coordinates": [-97.657048,36.92484]}},
{ "type": "Feature", "properties": {"Name":"Rentiesville town","State":"Oklahoma","State_Abbrev":"OK"},
"geometry":{ "type": "Point", "coordinates": [-95.484796,35.533543]}},
{ "type": "Feature", "properties": {"Name":"Reydon town","State":"Oklahoma","State_Abbrev":"OK"},
"geometry":{ "type": "Point", "coordinates": [-99.92361,35.649812]}},
{ "type": "Feature", "properties": {"Name":"Ringling town","State":"Oklahoma","State_Abbrev":"OK"},
"geometry":{ "type": "Point", "coordinates": [-97.591474,34.177257]}},
{ "type": "Feature", "properties": {"Name":"Ringwood town","State":"Oklahoma","State_Abbrev":"OK"},
"geometry":{ "type": "Point", "coordinates": [-98.239965,36.383583]}},
{ "type": "Feature", "properties": {"Name":"Ripley town","State":"Oklahoma","State_Abbrev":"OK"},
"geometry":{ "type": "Point", "coordinates": [-96.903844,36.01584]}},
{ "type": "Feature", "properties": {"Name":"River Bottom CDP","State":"Oklahoma","State_Abbrev":"OK"},
"geometry":{ "type": "Point", "coordinates": [-95.237836,35.635741]}},
{ "type": "Feature", "properties": {"Name":"Rock Island town","State":"Oklahoma","State_Abbrev":"OK"},
"geometry":{ "type": "Point", "coordinates": [-94.482614,35.184921]}},
{ "type": "Feature", "properties": {"Name":"Rocky town","State":"Oklahoma","State_Abbrev":"OK"},
"geometry":{ "type": "Point", "coordinates": [-99.059646,35.156408]}},
{ "type": "Feature", "properties": {"Name":"Rocky Ford CDP","State":"Oklahoma","State_Abbrev":"OK"},
"geometry":{ "type": "Point", "coordinates": [-94.911016,36.155773]}},
{ "type": "Feature", "properties": {"Name":"Rocky Mountain CDP","State":"Oklahoma","State_Abbrev":"OK"},
"geometry":{ "type": "Point", "coordinates": [-94.771297,35.790288]}},
{ "type": "Feature", "properties": {"Name":"Rocky Point CDP","State":"Oklahoma","State_Abbrev":"OK"},
"geometry":{ "type": "Point", "coordinates": [-95.322084,36.025606]}},
{ "type": "Feature", "properties": {"Name":"Roff town","State":"Oklahoma","State_Abbrev":"OK"},
"geometry":{ "type": "Point", "coordinates": [-96.841467,34.628935]}},
{ "type": "Feature", "properties": {"Name":"Roland town","State":"Oklahoma","State_Abbrev":"OK"},
"geometry":{ "type": "Point", "coordinates": [-94.514853,35.414074]}},
{ "type": "Feature", "properties": {"Name":"Roosevelt town","State":"Oklahoma","State_Abbrev":"OK"},
"geometry":{ "type": "Point", "coordinates": [-99.022335,34.848278]}},
{ "type": "Feature", "properties": {"Name":"Rose CDP","State":"Oklahoma","State_Abbrev":"OK"},
"geometry":{ "type": "Point", "coordinates": [-95.038139,36.212358]}},
{ "type": "Feature", "properties": {"Name":"Rosedale town","State":"Oklahoma","State_Abbrev":"OK"},
"geometry":{ "type": "Point", "coordinates": [-97.185071,34.918875]}},
{ "type": "Feature", "properties": {"Name":"Rosston town","State":"Oklahoma","State_Abbrev":"OK"},
"geometry":{ "type": "Point", "coordinates": [-99.932746,36.812897]}},
{ "type": "Feature", "properties": {"Name":"Rush Springs town","State":"Oklahoma","State_Abbrev":"OK"},
"geometry":{ "type": "Point", "coordinates": [-97.95731,34.778857]}},
{ "type": "Feature", "properties": {"Name":"Ryan town","State":"Oklahoma","State_Abbrev":"OK"},
"geometry":{ "type": "Point", "coordinates": [-97.954152,34.021415]}},
{ "type": "Feature", "properties": {"Name":"St. Louis town","State":"Oklahoma","State_Abbrev":"OK"},
"geometry":{ "type": "Point", "coordinates": [-96.859791,35.081259]}},
{ "type": "Feature", "properties": {"Name":"Salina town","State":"Oklahoma","State_Abbrev":"OK"},
"geometry":{ "type": "Point", "coordinates": [-95.155423,36.291629]}},
{ "type": "Feature", "properties": {"Name":"Sallisaw city","State":"Oklahoma","State_Abbrev":"OK"},
"geometry":{ "type": "Point", "coordinates": [-94.806617,35.46036]}},
{ "type": "Feature", "properties": {"Name":"Sams Corner CDP","State":"Oklahoma","State_Abbrev":"OK"},
"geometry":{ "type": "Point", "coordinates": [-95.216708,36.198319]}},
{ "type": "Feature", "properties": {"Name":"Sand Hill CDP","State":"Oklahoma","State_Abbrev":"OK"},
"geometry":{ "type": "Point", "coordinates": [-95.2012,35.634262]}},
{ "type": "Feature", "properties": {"Name":"Sand Point CDP","State":"Oklahoma","State_Abbrev":"OK"},
"geometry":{ "type": "Point", "coordinates": [-96.571054,33.960153]}},
{ "type": "Feature", "properties": {"Name":"Sand Springs city","State":"Oklahoma","State_Abbrev":"OK"},
"geometry":{ "type": "Point", "coordinates": [-96.13197,36.136482]}},
{ "type": "Feature", "properties": {"Name":"Sapulpa city","State":"Oklahoma","State_Abbrev":"OK"},
"geometry":{ "type": "Point", "coordinates": [-96.123275,36.004206]}},
{ "type": "Feature", "properties": {"Name":"Sasakwa town","State":"Oklahoma","State_Abbrev":"OK"},
"geometry":{ "type": "Point", "coordinates": [-96.52533,34.946762]}},
{ "type": "Feature", "properties": {"Name":"Savanna town","State":"Oklahoma","State_Abbrev":"OK"},
"geometry":{ "type": "Point", "coordinates": [-95.833557,34.837078]}},
{ "type": "Feature", "properties": {"Name":"Sawyer town","State":"Oklahoma","State_Abbrev":"OK"},
"geometry":{ "type": "Point", "coordinates": [-95.378474,34.018708]}},
{ "type": "Feature", "properties": {"Name":"Sayre city","State":"Oklahoma","State_Abbrev":"OK"},
"geometry":{ "type": "Point", "coordinates": [-99.628239,35.295653]}},
{ "type": "Feature", "properties": {"Name":"Schulter town","State":"Oklahoma","State_Abbrev":"OK"},
"geometry":{ "type": "Point", "coordinates": [-95.95654,35.511268]}},
{ "type": "Feature", "properties": {"Name":"Scipio CDP","State":"Oklahoma","State_Abbrev":"OK"},
"geometry":{ "type": "Point", "coordinates": [-95.955577,35.051296]}},
{ "type": "Feature", "properties": {"Name":"Seiling city","State":"Oklahoma","State_Abbrev":"OK"},
"geometry":{ "type": "Point", "coordinates": [-98.925437,36.144651]}},
{ "type": "Feature", "properties": {"Name":"Selman CDP","State":"Oklahoma","State_Abbrev":"OK"},
"geometry":{ "type": "Point", "coordinates": [-99.489322,36.801413]}},
{ "type": "Feature", "properties": {"Name":"Seminole city","State":"Oklahoma","State_Abbrev":"OK"},
"geometry":{ "type": "Point", "coordinates": [-96.649329,35.234772]}},
{ "type": "Feature", "properties": {"Name":"Sentinel town","State":"Oklahoma","State_Abbrev":"OK"},
"geometry":{ "type": "Point", "coordinates": [-99.173463,35.156979]}},
{ "type": "Feature", "properties": {"Name":"Sequoyah CDP","State":"Oklahoma","State_Abbrev":"OK"},
"geometry":{ "type": "Point", "coordinates": [-95.596839,36.379744]}},
{ "type": "Feature", "properties": {"Name":"Seward CDP","State":"Oklahoma","State_Abbrev":"OK"},
"geometry":{ "type": "Point", "coordinates": [-97.486973,35.796668]}},
{ "type": "Feature", "properties": {"Name":"Shady Grove CDP","State":"Oklahoma","State_Abbrev":"OK"},
"geometry":{ "type": "Point", "coordinates": [-95.095242,35.948542]}},
{ "type": "Feature", "properties": {"Name":"Shady Grove CDP","State":"Oklahoma","State_Abbrev":"OK"},
"geometry":{ "type": "Point", "coordinates": [-95.411458,35.468503]}},
{ "type": "Feature", "properties": {"Name":"Shady Point town","State":"Oklahoma","State_Abbrev":"OK"},
"geometry":{ "type": "Point", "coordinates": [-94.668555,35.127606]}},
{ "type": "Feature", "properties": {"Name":"Shamrock town","State":"Oklahoma","State_Abbrev":"OK"},
"geometry":{ "type": "Point", "coordinates": [-96.577693,35.910664]}},
{ "type": "Feature", "properties": {"Name":"Sharon town","State":"Oklahoma","State_Abbrev":"OK"},
"geometry":{ "type": "Point", "coordinates": [-99.338134,36.275492]}},
{ "type": "Feature", "properties": {"Name":"Shattuck town","State":"Oklahoma","State_Abbrev":"OK"},
"geometry":{ "type": "Point", "coordinates": [-99.877431,36.26497]}},
{ "type": "Feature", "properties": {"Name":"Shawnee city","State":"Oklahoma","State_Abbrev":"OK"},
"geometry":{ "type": "Point", "coordinates": [-96.956408,35.369413]}},
{ "type": "Feature", "properties": {"Name":"Shidler city","State":"Oklahoma","State_Abbrev":"OK"},
"geometry":{ "type": "Point", "coordinates": [-96.659952,36.780521]}},
{ "type": "Feature", "properties": {"Name":"Short CDP","State":"Oklahoma","State_Abbrev":"OK"},
"geometry":{ "type": "Point", "coordinates": [-94.495373,35.568198]}},
{ "type": "Feature", "properties": {"Name":"Silo town","State":"Oklahoma","State_Abbrev":"OK"},
"geometry":{ "type": "Point", "coordinates": [-96.474467,34.035744]}},
{ "type": "Feature", "properties": {"Name":"Simms CDP","State":"Oklahoma","State_Abbrev":"OK"},
"geometry":{ "type": "Point", "coordinates": [-95.164706,35.39871]}},
{ "type": "Feature", "properties": {"Name":"Skedee town","State":"Oklahoma","State_Abbrev":"OK"},
"geometry":{ "type": "Point", "coordinates": [-96.703923,36.380474]}},
{ "type": "Feature", "properties": {"Name":"Skiatook city","State":"Oklahoma","State_Abbrev":"OK"},
"geometry":{ "type": "Point", "coordinates": [-95.94536,36.34654]}},
{ "type": "Feature", "properties": {"Name":"Slaughterville town","State":"Oklahoma","State_Abbrev":"OK"},
"geometry":{ "type": "Point", "coordinates": [-97.282809,35.094631]}},
{ "type": "Feature", "properties": {"Name":"Slick town","State":"Oklahoma","State_Abbrev":"OK"},
"geometry":{ "type": "Point", "coordinates": [-96.264795,35.778762]}},
{ "type": "Feature", "properties": {"Name":"Smith Village town","State":"Oklahoma","State_Abbrev":"OK"},
"geometry":{ "type": "Point", "coordinates": [-97.457006,35.45079]}},
{ "type": "Feature", "properties": {"Name":"Smithville town","State":"Oklahoma","State_Abbrev":"OK"},
"geometry":{ "type": "Point", "coordinates": [-94.646471,34.47276]}},
{ "type": "Feature", "properties": {"Name":"Snake Creek CDP","State":"Oklahoma","State_Abbrev":"OK"},
"geometry":{ "type": "Point", "coordinates": [-95.093714,36.178558]}},
{ "type": "Feature", "properties": {"Name":"Snyder city","State":"Oklahoma","State_Abbrev":"OK"},
"geometry":{ "type": "Point", "coordinates": [-98.953394,34.65541]}},
{ "type": "Feature", "properties": {"Name":"Soper town","State":"Oklahoma","State_Abbrev":"OK"},
"geometry":{ "type": "Point", "coordinates": [-95.696601,34.032075]}},
{ "type": "Feature", "properties": {"Name":"Sour John CDP","State":"Oklahoma","State_Abbrev":"OK"},
"geometry":{ "type": "Point", "coordinates": [-95.143283,35.620585]}},
{ "type": "Feature", "properties": {"Name":"South Coffeyville town","State":"Oklahoma","State_Abbrev":"OK"},
"geometry":{ "type": "Point", "coordinates": [-95.621838,36.992089]}},
{ "type": "Feature", "properties": {"Name":"Sparks town","State":"Oklahoma","State_Abbrev":"OK"},
"geometry":{ "type": "Point", "coordinates": [-96.818516,35.610915]}},
{ "type": "Feature", "properties": {"Name":"Sparrowhawk CDP","State":"Oklahoma","State_Abbrev":"OK"},
"geometry":{ "type": "Point", "coordinates": [-94.892782,35.970552]}},
{ "type": "Feature", "properties": {"Name":"Spaulding town","State":"Oklahoma","State_Abbrev":"OK"},
"geometry":{ "type": "Point", "coordinates": [-96.440443,35.013077]}},
{ "type": "Feature", "properties": {"Name":"Spavinaw town","State":"Oklahoma","State_Abbrev":"OK"},
"geometry":{ "type": "Point", "coordinates": [-95.050185,36.393932]}},
{ "type": "Feature", "properties": {"Name":"Spencer city","State":"Oklahoma","State_Abbrev":"OK"},
"geometry":{ "type": "Point", "coordinates": [-97.371553,35.510758]}},
{ "type": "Feature", "properties": {"Name":"Sperry town","State":"Oklahoma","State_Abbrev":"OK"},
"geometry":{ "type": "Point", "coordinates": [-95.995653,36.297697]}},
{ "type": "Feature", "properties": {"Name":"Spiro town","State":"Oklahoma","State_Abbrev":"OK"},
"geometry":{ "type": "Point", "coordinates": [-94.624258,35.240531]}},
{ "type": "Feature", "properties": {"Name":"Sportmans Shores CDP","State":"Oklahoma","State_Abbrev":"OK"},
"geometry":{ "type": "Point", "coordinates": [-95.0829,36.464013]}},
{ "type": "Feature", "properties": {"Name":"Sportsmen Acres town","State":"Oklahoma","State_Abbrev":"OK"},
"geometry":{ "type": "Point", "coordinates": [-95.251695,36.245577]}},
{ "type": "Feature", "properties": {"Name":"Springer town","State":"Oklahoma","State_Abbrev":"OK"},
"geometry":{ "type": "Point", "coordinates": [-97.11745,34.29562]}},
{ "type": "Feature", "properties": {"Name":"Steely Hollow CDP","State":"Oklahoma","State_Abbrev":"OK"},
"geometry":{ "type": "Point", "coordinates": [-94.935948,35.99169]}},
{ "type": "Feature", "properties": {"Name":"Sterling town","State":"Oklahoma","State_Abbrev":"OK"},
"geometry":{ "type": "Point", "coordinates": [-98.172507,34.749393]}},
{ "type": "Feature", "properties": {"Name":"Stidham town","State":"Oklahoma","State_Abbrev":"OK"},
"geometry":{ "type": "Point", "coordinates": [-95.700754,35.368643]}},
{ "type": "Feature", "properties": {"Name":"Stigler city","State":"Oklahoma","State_Abbrev":"OK"},
"geometry":{ "type": "Point", "coordinates": [-95.11685,35.258881]}},
{ "type": "Feature", "properties": {"Name":"Stillwater city","State":"Oklahoma","State_Abbrev":"OK"},
"geometry":{ "type": "Point", "coordinates": [-97.074464,36.131496]}},
{ "type": "Feature", "properties": {"Name":"Stilwell city","State":"Oklahoma","State_Abbrev":"OK"},
"geometry":{ "type": "Point", "coordinates": [-94.631697,35.814207]}},
{ "type": "Feature", "properties": {"Name":"Stonewall town","State":"Oklahoma","State_Abbrev":"OK"},
"geometry":{ "type": "Point", "coordinates": [-96.526832,34.649823]}},
{ "type": "Feature", "properties": {"Name":"Stoney Point CDP","State":"Oklahoma","State_Abbrev":"OK"},
"geometry":{ "type": "Point", "coordinates": [-94.676222,35.564708]}},
{ "type": "Feature", "properties": {"Name":"Strang town","State":"Oklahoma","State_Abbrev":"OK"},
"geometry":{ "type": "Point", "coordinates": [-95.134738,36.412259]}},
{ "type": "Feature", "properties": {"Name":"Stratford town","State":"Oklahoma","State_Abbrev":"OK"},
"geometry":{ "type": "Point", "coordinates": [-96.960497,34.795314]}},
{ "type": "Feature", "properties": {"Name":"Stringtown town","State":"Oklahoma","State_Abbrev":"OK"},
"geometry":{ "type": "Point", "coordinates": [-96.055521,34.4696]}},
{ "type": "Feature", "properties": {"Name":"Strong City town","State":"Oklahoma","State_Abbrev":"OK"},
"geometry":{ "type": "Point", "coordinates": [-99.600448,35.66984]}},
{ "type": "Feature", "properties": {"Name":"Stroud city","State":"Oklahoma","State_Abbrev":"OK"},
"geometry":{ "type": "Point", "coordinates": [-96.65007,35.768875]}},
{ "type": "Feature", "properties": {"Name":"Stuart town","State":"Oklahoma","State_Abbrev":"OK"},
"geometry":{ "type": "Point", "coordinates": [-96.099426,34.901062]}},
{ "type": "Feature", "properties": {"Name":"Sugden town","State":"Oklahoma","State_Abbrev":"OK"},
"geometry":{ "type": "Point", "coordinates": [-97.978839,34.08253]}},
{ "type": "Feature", "properties": {"Name":"Sulphur city","State":"Oklahoma","State_Abbrev":"OK"},
"geometry":{ "type": "Point", "coordinates": [-96.969671,34.513928]}},
{ "type": "Feature", "properties": {"Name":"Summit town","State":"Oklahoma","State_Abbrev":"OK"},
"geometry":{ "type": "Point", "coordinates": [-95.420655,35.669581]}},
{ "type": "Feature", "properties": {"Name":"Sumner CDP","State":"Oklahoma","State_Abbrev":"OK"},
"geometry":{ "type": "Point", "coordinates": [-97.117931,36.318302]}},
{ "type": "Feature", "properties": {"Name":"Sunray CDP","State":"Oklahoma","State_Abbrev":"OK"},
"geometry":{ "type": "Point", "coordinates": [-97.954223,34.409303]}},
{ "type": "Feature", "properties": {"Name":"Sweetwater town","State":"Oklahoma","State_Abbrev":"OK"},
"geometry":{ "type": "Point", "coordinates": [-99.920299,35.415025]}},
{ "type": "Feature", "properties": {"Name":"Swink CDP","State":"Oklahoma","State_Abbrev":"OK"},
"geometry":{ "type": "Point", "coordinates": [-95.20179,34.017272]}},
{ "type": "Feature", "properties": {"Name":"Sycamore CDP","State":"Oklahoma","State_Abbrev":"OK"},
"geometry":{ "type": "Point", "coordinates": [-94.714954,36.399006]}},
{ "type": "Feature", "properties": {"Name":"Taft town","State":"Oklahoma","State_Abbrev":"OK"},
"geometry":{ "type": "Point", "coordinates": [-95.545985,35.760334]}},
{ "type": "Feature", "properties": {"Name":"Tagg Flats CDP","State":"Oklahoma","State_Abbrev":"OK"},
"geometry":{ "type": "Point", "coordinates": [-94.903645,36.338723]}},
{ "type": "Feature", "properties": {"Name":"Tahlequah city","State":"Oklahoma","State_Abbrev":"OK"},
"geometry":{ "type": "Point", "coordinates": [-94.97772,35.910503]}},
{ "type": "Feature", "properties": {"Name":"Talala town","State":"Oklahoma","State_Abbrev":"OK"},
"geometry":{ "type": "Point", "coordinates": [-95.701067,36.529498]}},
{ "type": "Feature", "properties": {"Name":"Talihina town","State":"Oklahoma","State_Abbrev":"OK"},
"geometry":{ "type": "Point", "coordinates": [-95.043566,34.75284]}},
{ "type": "Feature", "properties": {"Name":"Taloga town","State":"Oklahoma","State_Abbrev":"OK"},
"geometry":{ "type": "Point", "coordinates": [-98.964039,36.040236]}},
{ "type": "Feature", "properties": {"Name":"Tamaha town","State":"Oklahoma","State_Abbrev":"OK"},
"geometry":{ "type": "Point", "coordinates": [-95.014189,35.398188]}},
{ "type": "Feature", "properties": {"Name":"Tatums town","State":"Oklahoma","State_Abbrev":"OK"},
"geometry":{ "type": "Point", "coordinates": [-97.464584,34.477557]}},
{ "type": "Feature", "properties": {"Name":"Taylor Ferry CDP","State":"Oklahoma","State_Abbrev":"OK"},
"geometry":{ "type": "Point", "coordinates": [-95.305379,35.934485]}},
{ "type": "Feature", "properties": {"Name":"Tecumseh city","State":"Oklahoma","State_Abbrev":"OK"},
"geometry":{ "type": "Point", "coordinates": [-96.933445,35.264267]}},
{ "type": "Feature", "properties": {"Name":"Temple town","State":"Oklahoma","State_Abbrev":"OK"},
"geometry":{ "type": "Point", "coordinates": [-98.234568,34.272116]}},
{ "type": "Feature", "properties": {"Name":"Tenkiller CDP","State":"Oklahoma","State_Abbrev":"OK"},
"geometry":{ "type": "Point", "coordinates": [-94.852314,35.802534]}},
{ "type": "Feature", "properties": {"Name":"Teresita CDP","State":"Oklahoma","State_Abbrev":"OK"},
"geometry":{ "type": "Point", "coordinates": [-94.980356,36.123037]}},
{ "type": "Feature", "properties": {"Name":"Terlton town","State":"Oklahoma","State_Abbrev":"OK"},
"geometry":{ "type": "Point", "coordinates": [-96.491817,36.187621]}},
{ "type": "Feature", "properties": {"Name":"Terral town","State":"Oklahoma","State_Abbrev":"OK"},
"geometry":{ "type": "Point", "coordinates": [-97.938228,33.896632]}},
{ "type": "Feature", "properties": {"Name":"Texanna CDP","State":"Oklahoma","State_Abbrev":"OK"},
"geometry":{ "type": "Point", "coordinates": [-95.511754,35.357918]}},
{ "type": "Feature", "properties": {"Name":"Texhoma town","State":"Oklahoma","State_Abbrev":"OK"},
"geometry":{ "type": "Point", "coordinates": [-101.787387,36.505405]}},
{ "type": "Feature", "properties": {"Name":"Texola town","State":"Oklahoma","State_Abbrev":"OK"},
"geometry":{ "type": "Point", "coordinates": [-99.992959,35.222462]}},
{ "type": "Feature", "properties": {"Name":"Thackerville town","State":"Oklahoma","State_Abbrev":"OK"},
"geometry":{ "type": "Point", "coordinates": [-97.13918,33.787525]}},
{ "type": "Feature", "properties": {"Name":"The Village city","State":"Oklahoma","State_Abbrev":"OK"},
"geometry":{ "type": "Point", "coordinates": [-97.557499,35.570276]}},
{ "type": "Feature", "properties": {"Name":"Thomas city","State":"Oklahoma","State_Abbrev":"OK"},
"geometry":{ "type": "Point", "coordinates": [-98.745116,35.745192]}},
{ "type": "Feature", "properties": {"Name":"Tiawah CDP","State":"Oklahoma","State_Abbrev":"OK"},
"geometry":{ "type": "Point", "coordinates": [-95.53619,36.248285]}},
{ "type": "Feature", "properties": {"Name":"Tipton town","State":"Oklahoma","State_Abbrev":"OK"},
"geometry":{ "type": "Point", "coordinates": [-99.136278,34.499357]}},
{ "type": "Feature", "properties": {"Name":"Tishomingo city","State":"Oklahoma","State_Abbrev":"OK"},
"geometry":{ "type": "Point", "coordinates": [-96.68242,34.239048]}},
{ "type": "Feature", "properties": {"Name":"Titanic CDP","State":"Oklahoma","State_Abbrev":"OK"},
"geometry":{ "type": "Point", "coordinates": [-94.740643,35.890698]}},
{ "type": "Feature", "properties": {"Name":"Tonkawa city","State":"Oklahoma","State_Abbrev":"OK"},
"geometry":{ "type": "Point", "coordinates": [-97.315028,36.670589]}},
{ "type": "Feature", "properties": {"Name":"Tonkawa Tribal Housing CDP","State":"Oklahoma","State_Abbrev":"OK"},
"geometry":{ "type": "Point", "coordinates": [-97.266254,36.669741]}},
{ "type": "Feature", "properties": {"Name":"Toppers CDP","State":"Oklahoma","State_Abbrev":"OK"},
"geometry":{ "type": "Point", "coordinates": [-95.319681,35.966203]}},
{ "type": "Feature", "properties": {"Name":"Tribbey town","State":"Oklahoma","State_Abbrev":"OK"},
"geometry":{ "type": "Point", "coordinates": [-97.105602,35.103791]}},
{ "type": "Feature", "properties": {"Name":"Tryon town","State":"Oklahoma","State_Abbrev":"OK"},
"geometry":{ "type": "Point", "coordinates": [-96.96959,35.877055]}},
{ "type": "Feature", "properties": {"Name":"Tullahassee town","State":"Oklahoma","State_Abbrev":"OK"},
"geometry":{ "type": "Point", "coordinates": [-95.446942,35.834812]}},
{ "type": "Feature", "properties": {"Name":"Tulsa city","State":"Oklahoma","State_Abbrev":"OK"},
"geometry":{ "type": "Point", "coordinates": [-95.902316,36.127949]}},
{ "type": "Feature", "properties": {"Name":"Tupelo city","State":"Oklahoma","State_Abbrev":"OK"},
"geometry":{ "type": "Point", "coordinates": [-96.420791,34.602685]}},
{ "type": "Feature", "properties": {"Name":"Turley CDP","State":"Oklahoma","State_Abbrev":"OK"},
"geometry":{ "type": "Point", "coordinates": [-95.966211,36.246853]}},
{ "type": "Feature", "properties": {"Name":"Turpin CDP","State":"Oklahoma","State_Abbrev":"OK"},
"geometry":{ "type": "Point", "coordinates": [-100.882502,36.870458]}},
{ "type": "Feature", "properties": {"Name":"Tushka town","State":"Oklahoma","State_Abbrev":"OK"},
"geometry":{ "type": "Point", "coordinates": [-96.167332,34.318649]}},
{ "type": "Feature", "properties": {"Name":"Tuskahoma CDP","State":"Oklahoma","State_Abbrev":"OK"},
"geometry":{ "type": "Point", "coordinates": [-95.282605,34.629729]}},
{ "type": "Feature", "properties": {"Name":"Tuttle city","State":"Oklahoma","State_Abbrev":"OK"},
"geometry":{ "type": "Point", "coordinates": [-97.753612,35.313876]}},
{ "type": "Feature", "properties": {"Name":"Twin Lakes CDP","State":"Oklahoma","State_Abbrev":"OK"},
"geometry":{ "type": "Point", "coordinates": [-97.665038,35.868492]}},
{ "type": "Feature", "properties": {"Name":"Twin Oaks CDP","State":"Oklahoma","State_Abbrev":"OK"},
"geometry":{ "type": "Point", "coordinates": [-94.837848,36.197428]}},
{ "type": "Feature", "properties": {"Name":"Tyrone town","State":"Oklahoma","State_Abbrev":"OK"},
"geometry":{ "type": "Point", "coordinates": [-101.067992,36.955669]}},
{ "type": "Feature", "properties": {"Name":"Union City town","State":"Oklahoma","State_Abbrev":"OK"},
"geometry":{ "type": "Point", "coordinates": [-97.906705,35.399523]}},
{ "type": "Feature", "properties": {"Name":"Utica CDP","State":"Oklahoma","State_Abbrev":"OK"},
"geometry":{ "type": "Point", "coordinates": [-96.221735,33.906613]}},
{ "type": "Feature", "properties": {"Name":"Valley Brook town","State":"Oklahoma","State_Abbrev":"OK"},
"geometry":{ "type": "Point", "coordinates": [-97.481423,35.40267]}},
{ "type": "Feature", "properties": {"Name":"Valley Park town","State":"Oklahoma","State_Abbrev":"OK"},
"geometry":{ "type": "Point", "coordinates": [-95.735742,36.278805]}},
{ "type": "Feature", "properties": {"Name":"Valliant town","State":"Oklahoma","State_Abbrev":"OK"},
"geometry":{ "type": "Point", "coordinates": [-95.084904,34.007542]}},
{ "type": "Feature", "properties": {"Name":"Vanoss CDP","State":"Oklahoma","State_Abbrev":"OK"},
"geometry":{ "type": "Point", "coordinates": [-96.871209,34.757816]}},
{ "type": "Feature", "properties": {"Name":"Velma town","State":"Oklahoma","State_Abbrev":"OK"},
"geometry":{ "type": "Point", "coordinates": [-97.663845,34.456418]}},
{ "type": "Feature", "properties": {"Name":"Vera town","State":"Oklahoma","State_Abbrev":"OK"},
"geometry":{ "type": "Point", "coordinates": [-95.892914,36.452641]}},
{ "type": "Feature", "properties": {"Name":"Verden town","State":"Oklahoma","State_Abbrev":"OK"},
"geometry":{ "type": "Point", "coordinates": [-98.086122,35.083316]}},
{ "type": "Feature", "properties": {"Name":"Verdigris town","State":"Oklahoma","State_Abbrev":"OK"},
"geometry":{ "type": "Point", "coordinates": [-95.660442,36.253523]}},
{ "type": "Feature", "properties": {"Name":"Vian town","State":"Oklahoma","State_Abbrev":"OK"},
"geometry":{ "type": "Point", "coordinates": [-94.969826,35.50425]}},
{ "type": "Feature", "properties": {"Name":"Vici town","State":"Oklahoma","State_Abbrev":"OK"},
"geometry":{ "type": "Point", "coordinates": [-99.299433,36.14881]}},
{ "type": "Feature", "properties": {"Name":"Vinita city","State":"Oklahoma","State_Abbrev":"OK"},
"geometry":{ "type": "Point", "coordinates": [-95.161001,36.648772]}},
{ "type": "Feature", "properties": {"Name":"Wagoner city","State":"Oklahoma","State_Abbrev":"OK"},
"geometry":{ "type": "Point", "coordinates": [-95.377715,35.965686]}},
{ "type": "Feature", "properties": {"Name":"Wainwright town","State":"Oklahoma","State_Abbrev":"OK"},
"geometry":{ "type": "Point", "coordinates": [-95.565562,35.613519]}},
{ "type": "Feature", "properties": {"Name":"Wakita town","State":"Oklahoma","State_Abbrev":"OK"},
"geometry":{ "type": "Point", "coordinates": [-97.923948,36.88186]}},
{ "type": "Feature", "properties": {"Name":"Walters city","State":"Oklahoma","State_Abbrev":"OK"},
"geometry":{ "type": "Point", "coordinates": [-98.356883,34.358433]}},
{ "type": "Feature", "properties": {"Name":"Wanette town","State":"Oklahoma","State_Abbrev":"OK"},
"geometry":{ "type": "Point", "coordinates": [-97.031708,34.962613]}},
{ "type": "Feature", "properties": {"Name":"Wann town","State":"Oklahoma","State_Abbrev":"OK"},
"geometry":{ "type": "Point", "coordinates": [-95.804716,36.914701]}},
{ "type": "Feature", "properties": {"Name":"Wapanucka town","State":"Oklahoma","State_Abbrev":"OK"},
"geometry":{ "type": "Point", "coordinates": [-96.425128,34.373472]}},
{ "type": "Feature", "properties": {"Name":"Wardville CDP","State":"Oklahoma","State_Abbrev":"OK"},
"geometry":{ "type": "Point", "coordinates": [-96.030893,34.654646]}},
{ "type": "Feature", "properties": {"Name":"Warner town","State":"Oklahoma","State_Abbrev":"OK"},
"geometry":{ "type": "Point", "coordinates": [-95.308945,35.491693]}},
{ "type": "Feature", "properties": {"Name":"Warr Acres city","State":"Oklahoma","State_Abbrev":"OK"},
"geometry":{ "type": "Point", "coordinates": [-97.618106,35.526104]}},
{ "type": "Feature", "properties": {"Name":"Warwick town","State":"Oklahoma","State_Abbrev":"OK"},
"geometry":{ "type": "Point", "coordinates": [-97.005027,35.690338]}},
{ "type": "Feature", "properties": {"Name":"Washington town","State":"Oklahoma","State_Abbrev":"OK"},
"geometry":{ "type": "Point", "coordinates": [-97.490731,35.054686]}},
{ "type": "Feature", "properties": {"Name":"Washita CDP","State":"Oklahoma","State_Abbrev":"OK"},
"geometry":{ "type": "Point", "coordinates": [-98.341338,35.104407]}},
{ "type": "Feature", "properties": {"Name":"Watonga city","State":"Oklahoma","State_Abbrev":"OK"},
"geometry":{ "type": "Point", "coordinates": [-98.402734,35.847503]}},
{ "type": "Feature", "properties": {"Name":"Watova CDP","State":"Oklahoma","State_Abbrev":"OK"},
"geometry":{ "type": "Point", "coordinates": [-95.660449,36.61972]}},
{ "type": "Feature", "properties": {"Name":"Watts town","State":"Oklahoma","State_Abbrev":"OK"},
"geometry":{ "type": "Point", "coordinates": [-94.573885,36.106512]}},
{ "type": "Feature", "properties": {"Name":"Wauhillau CDP","State":"Oklahoma","State_Abbrev":"OK"},
"geometry":{ "type": "Point", "coordinates": [-94.75947,35.861012]}},
{ "type": "Feature", "properties": {"Name":"Waukomis town","State":"Oklahoma","State_Abbrev":"OK"},
"geometry":{ "type": "Point", "coordinates": [-97.902729,36.286102]}},
{ "type": "Feature", "properties": {"Name":"Waurika city","State":"Oklahoma","State_Abbrev":"OK"},
"geometry":{ "type": "Point", "coordinates": [-98.026293,34.183747]}},
{ "type": "Feature", "properties": {"Name":"Wayne town","State":"Oklahoma","State_Abbrev":"OK"},
"geometry":{ "type": "Point", "coordinates": [-97.316523,34.91691]}},
{ "type": "Feature", "properties": {"Name":"Waynoka city","State":"Oklahoma","State_Abbrev":"OK"},
"geometry":{ "type": "Point", "coordinates": [-98.87763,36.584687]}},
{ "type": "Feature", "properties": {"Name":"Weatherford city","State":"Oklahoma","State_Abbrev":"OK"},
"geometry":{ "type": "Point", "coordinates": [-98.684994,35.539026]}},
{ "type": "Feature", "properties": {"Name":"Webb City town","State":"Oklahoma","State_Abbrev":"OK"},
"geometry":{ "type": "Point", "coordinates": [-96.71331,36.808308]}},
{ "type": "Feature", "properties": {"Name":"Webbers Falls town","State":"Oklahoma","State_Abbrev":"OK"},
"geometry":{ "type": "Point", "coordinates": [-95.164221,35.517003]}},
{ "type": "Feature", "properties": {"Name":"Welch town","State":"Oklahoma","State_Abbrev":"OK"},
"geometry":{ "type": "Point", "coordinates": [-95.094399,36.874408]}},
{ "type": "Feature", "properties": {"Name":"Weleetka town","State":"Oklahoma","State_Abbrev":"OK"},
"geometry":{ "type": "Point", "coordinates": [-96.135974,35.34029]}},
{ "type": "Feature", "properties": {"Name":"Welling CDP","State":"Oklahoma","State_Abbrev":"OK"},
"geometry":{ "type": "Point", "coordinates": [-94.87032,35.881053]}},
{ "type": "Feature", "properties": {"Name":"Wellston town","State":"Oklahoma","State_Abbrev":"OK"},
"geometry":{ "type": "Point", "coordinates": [-97.063415,35.683851]}},
{ "type": "Feature", "properties": {"Name":"Welty CDP","State":"Oklahoma","State_Abbrev":"OK"},
"geometry":{ "type": "Point", "coordinates": [-96.417151,35.62716]}},
{ "type": "Feature", "properties": {"Name":"West Peavine CDP","State":"Oklahoma","State_Abbrev":"OK"},
"geometry":{ "type": "Point", "coordinates": [-94.652781,35.911493]}},
{ "type": "Feature", "properties": {"Name":"Westport town","State":"Oklahoma","State_Abbrev":"OK"},
"geometry":{ "type": "Point", "coordinates": [-96.337138,36.193432]}},
{ "type": "Feature", "properties": {"Name":"West Siloam Springs town","State":"Oklahoma","State_Abbrev":"OK"},
"geometry":{ "type": "Point", "coordinates": [-94.597068,36.17595]}},
{ "type": "Feature", "properties": {"Name":"Westville town","State":"Oklahoma","State_Abbrev":"OK"},
"geometry":{ "type": "Point", "coordinates": [-94.575727,35.992006]}},
{ "type": "Feature", "properties": {"Name":"Wetumka city","State":"Oklahoma","State_Abbrev":"OK"},
"geometry":{ "type": "Point", "coordinates": [-96.236791,35.241875]}},
{ "type": "Feature", "properties": {"Name":"Wewoka city","State":"Oklahoma","State_Abbrev":"OK"},
"geometry":{ "type": "Point", "coordinates": [-96.496775,35.144068]}},
{ "type": "Feature", "properties": {"Name":"Whippoorwill CDP","State":"Oklahoma","State_Abbrev":"OK"},
"geometry":{ "type": "Point", "coordinates": [-96.127692,36.912011]}},
{ "type": "Feature", "properties": {"Name":"White Eagle CDP","State":"Oklahoma","State_Abbrev":"OK"},
"geometry":{ "type": "Point", "coordinates": [-97.081228,36.626662]}},
{ "type": "Feature", "properties": {"Name":"Whitefield town","State":"Oklahoma","State_Abbrev":"OK"},
"geometry":{ "type": "Point", "coordinates": [-95.244834,35.254288]}},
{ "type": "Feature", "properties": {"Name":"Whitehorn Cove CDP","State":"Oklahoma","State_Abbrev":"OK"},
"geometry":{ "type": "Point", "coordinates": [-95.287289,35.994857]}},
{ "type": "Feature", "properties": {"Name":"White Oak CDP","State":"Oklahoma","State_Abbrev":"OK"},
"geometry":{ "type": "Point", "coordinates": [-95.275453,36.609145]}},
{ "type": "Feature", "properties": {"Name":"Whitesboro CDP","State":"Oklahoma","State_Abbrev":"OK"},
"geometry":{ "type": "Point", "coordinates": [-94.873497,34.7047]}},
{ "type": "Feature", "properties": {"Name":"White Water CDP","State":"Oklahoma","State_Abbrev":"OK"},
"geometry":{ "type": "Point", "coordinates": [-94.728885,36.50169]}},
{ "type": "Feature", "properties": {"Name":"Wickliffe CDP","State":"Oklahoma","State_Abbrev":"OK"},
"geometry":{ "type": "Point", "coordinates": [-95.10738,36.312098]}},
{ "type": "Feature", "properties": {"Name":"Wilburton city","State":"Oklahoma","State_Abbrev":"OK"},
"geometry":{ "type": "Point", "coordinates": [-95.304015,34.91845]}},
{ "type": "Feature", "properties": {"Name":"Willow town","State":"Oklahoma","State_Abbrev":"OK"},
"geometry":{ "type": "Point", "coordinates": [-99.509898,35.051531]}},
{ "type": "Feature", "properties": {"Name":"Wilson city","State":"Oklahoma","State_Abbrev":"OK"},
"geometry":{ "type": "Point", "coordinates": [-97.425407,34.168664]}},
{ "type": "Feature", "properties": {"Name":"Winchester town","State":"Oklahoma","State_Abbrev":"OK"},
"geometry":{ "type": "Point", "coordinates": [-95.998131,35.790569]}},
{ "type": "Feature", "properties": {"Name":"Wister town","State":"Oklahoma","State_Abbrev":"OK"},
"geometry":{ "type": "Point", "coordinates": [-94.720638,34.969743]}},
{ "type": "Feature", "properties": {"Name":"Woodall CDP","State":"Oklahoma","State_Abbrev":"OK"},
"geometry":{ "type": "Point", "coordinates": [-95.082349,35.824573]}},
{ "type": "Feature", "properties": {"Name":"Woodlawn Park town","State":"Oklahoma","State_Abbrev":"OK"},
"geometry":{ "type": "Point", "coordinates": [-97.649868,35.509629]}},
{ "type": "Feature", "properties": {"Name":"Woodward city","State":"Oklahoma","State_Abbrev":"OK"},
"geometry":{ "type": "Point", "coordinates": [-99.404726,36.424832]}},
{ "type": "Feature", "properties": {"Name":"Wright City town","State":"Oklahoma","State_Abbrev":"OK"},
"geometry":{ "type": "Point", "coordinates": [-95.00701,34.066286]}},
{ "type": "Feature", "properties": {"Name":"Wyandotte town","State":"Oklahoma","State_Abbrev":"OK"},
"geometry":{ "type": "Point", "coordinates": [-94.729305,36.807143]}},
{ "type": "Feature", "properties": {"Name":"Wynnewood city","State":"Oklahoma","State_Abbrev":"OK"},
"geometry":{ "type": "Point", "coordinates": [-97.162467,34.642789]}},
{ "type": "Feature", "properties": {"Name":"Wynona town","State":"Oklahoma","State_Abbrev":"OK"},
"geometry":{ "type": "Point", "coordinates": [-96.326351,36.545789]}},
{ "type": "Feature", "properties": {"Name":"Yale city","State":"Oklahoma","State_Abbrev":"OK"},
"geometry":{ "type": "Point", "coordinates": [-96.701059,36.115147]}},
{ "type": "Feature", "properties": {"Name":"Yeager town","State":"Oklahoma","State_Abbrev":"OK"},
"geometry":{ "type": "Point", "coordinates": [-96.339992,35.156806]}},
{ "type": "Feature", "properties": {"Name":"Yukon city","State":"Oklahoma","State_Abbrev":"OK"},
"geometry":{ "type": "Point", "coordinates": [-97.766172,35.518409]}},
{ "type": "Feature", "properties": {"Name":"Zeb CDP","State":"Oklahoma","State_Abbrev":"OK"},
"geometry":{ "type": "Point", "coordinates": [-95.055116,35.796588]}},
{ "type": "Feature", "properties": {"Name":"Zena CDP","State":"Oklahoma","State_Abbrev":"OK"},
"geometry":{ "type": "Point", "coordinates": [-94.84813,36.508375]}},
{ "type": "Feature", "properties": {"Name":"Zion CDP","State":"Oklahoma","State_Abbrev":"OK"},
"geometry":{ "type": "Point", "coordinates": [-94.642477,35.787806]}}]}
