{"type":"FeatureCollection","features":[
{ "type": "Feature", "properties": {"Name":"Adair Village city","State":"Oregon","State_Abbrev":"OR"},
"geometry":{ "type": "Point", "coordinates": [-123.21601,44.670721]}},
{ "type": "Feature", "properties": {"Name":"Adams city","State":"Oregon","State_Abbrev":"OR"},
"geometry":{ "type": "Point", "coordinates": [-118.564087,45.766351]}},
{ "type": "Feature", "properties": {"Name":"Adrian city","State":"Oregon","State_Abbrev":"OR"},
"geometry":{ "type": "Point", "coordinates": [-117.070882,43.740826]}},
{ "type": "Feature", "properties": {"Name":"Albany city","State":"Oregon","State_Abbrev":"OR"},
"geometry":{ "type": "Point", "coordinates": [-123.096741,44.626928]}},
{ "type": "Feature", "properties": {"Name":"Aloha CDP","State":"Oregon","State_Abbrev":"OR"},
"geometry":{ "type": "Point", "coordinates": [-122.872543,45.492047]}},
{ "type": "Feature", "properties": {"Name":"Alpine CDP","State":"Oregon","State_Abbrev":"OR"},
"geometry":{ "type": "Point", "coordinates": [-123.362845,44.330261]}},
{ "type": "Feature", "properties": {"Name":"Alsea CDP","State":"Oregon","State_Abbrev":"OR"},
"geometry":{ "type": "Point", "coordinates": [-123.595831,44.381815]}},
{ "type": "Feature", "properties": {"Name":"Altamont CDP","State":"Oregon","State_Abbrev":"OR"},
"geometry":{ "type": "Point", "coordinates": [-121.72484,42.19785]}},
{ "type": "Feature", "properties": {"Name":"Amity city","State":"Oregon","State_Abbrev":"OR"},
"geometry":{ "type": "Point", "coordinates": [-123.199672,45.116161]}},
{ "type": "Feature", "properties": {"Name":"Annex CDP","State":"Oregon","State_Abbrev":"OR"},
"geometry":{ "type": "Point", "coordinates": [-116.992408,44.234248]}},
{ "type": "Feature", "properties": {"Name":"Antelope city","State":"Oregon","State_Abbrev":"OR"},
"geometry":{ "type": "Point", "coordinates": [-120.723581,44.91126]}},
{ "type": "Feature", "properties": {"Name":"Arlington city","State":"Oregon","State_Abbrev":"OR"},
"geometry":{ "type": "Point", "coordinates": [-120.188954,45.725317]}},
{ "type": "Feature", "properties": {"Name":"Ashland city","State":"Oregon","State_Abbrev":"OR"},
"geometry":{ "type": "Point", "coordinates": [-122.69825,42.192216]}},
{ "type": "Feature", "properties": {"Name":"Astoria city","State":"Oregon","State_Abbrev":"OR"},
"geometry":{ "type": "Point", "coordinates": [-123.815073,46.187375]}},
{ "type": "Feature", "properties": {"Name":"Athena city","State":"Oregon","State_Abbrev":"OR"},
"geometry":{ "type": "Point", "coordinates": [-118.492603,45.813302]}},
{ "type": "Feature", "properties": {"Name":"Aumsville city","State":"Oregon","State_Abbrev":"OR"},
"geometry":{ "type": "Point", "coordinates": [-122.869871,44.846171]}},
{ "type": "Feature", "properties": {"Name":"Aurora city","State":"Oregon","State_Abbrev":"OR"},
"geometry":{ "type": "Point", "coordinates": [-122.757227,45.228317]}},
{ "type": "Feature", "properties": {"Name":"Baker City city","State":"Oregon","State_Abbrev":"OR"},
"geometry":{ "type": "Point", "coordinates": [-117.831986,44.774886]}},
{ "type": "Feature", "properties": {"Name":"Bandon city","State":"Oregon","State_Abbrev":"OR"},
"geometry":{ "type": "Point", "coordinates": [-124.41552,43.11469]}},
{ "type": "Feature", "properties": {"Name":"Banks city","State":"Oregon","State_Abbrev":"OR"},
"geometry":{ "type": "Point", "coordinates": [-123.107067,45.614938]}},
{ "type": "Feature", "properties": {"Name":"Barlow city","State":"Oregon","State_Abbrev":"OR"},
"geometry":{ "type": "Point", "coordinates": [-122.72231,45.252401]}},
{ "type": "Feature", "properties": {"Name":"Barnesdale CDP","State":"Oregon","State_Abbrev":"OR"},
"geometry":{ "type": "Point", "coordinates": [-123.854321,45.64869]}},
{ "type": "Feature", "properties": {"Name":"Barview CDP","State":"Oregon","State_Abbrev":"OR"},
"geometry":{ "type": "Point", "coordinates": [-124.306543,43.347917]}},
{ "type": "Feature", "properties": {"Name":"Bay City city","State":"Oregon","State_Abbrev":"OR"},
"geometry":{ "type": "Point", "coordinates": [-123.886126,45.521061]}},
{ "type": "Feature", "properties": {"Name":"Bayshore CDP","State":"Oregon","State_Abbrev":"OR"},
"geometry":{ "type": "Point", "coordinates": [-124.081012,44.440759]}},
{ "type": "Feature", "properties": {"Name":"Bayside Gardens CDP","State":"Oregon","State_Abbrev":"OR"},
"geometry":{ "type": "Point", "coordinates": [-123.916474,45.714329]}},
{ "type": "Feature", "properties": {"Name":"Beatty CDP","State":"Oregon","State_Abbrev":"OR"},
"geometry":{ "type": "Point", "coordinates": [-121.271602,42.44188]}},
{ "type": "Feature", "properties": {"Name":"Beaver CDP","State":"Oregon","State_Abbrev":"OR"},
"geometry":{ "type": "Point", "coordinates": [-123.824616,45.27901]}},
{ "type": "Feature", "properties": {"Name":"Beavercreek CDP","State":"Oregon","State_Abbrev":"OR"},
"geometry":{ "type": "Point", "coordinates": [-122.50849,45.281036]}},
{ "type": "Feature", "properties": {"Name":"Beaver Marsh CDP","State":"Oregon","State_Abbrev":"OR"},
"geometry":{ "type": "Point", "coordinates": [-121.804189,43.136384]}},
{ "type": "Feature", "properties": {"Name":"Beaverton city","State":"Oregon","State_Abbrev":"OR"},
"geometry":{ "type": "Point", "coordinates": [-122.81693,45.477785]}},
{ "type": "Feature", "properties": {"Name":"Bellfountain CDP","State":"Oregon","State_Abbrev":"OR"},
"geometry":{ "type": "Point", "coordinates": [-123.355855,44.365424]}},
{ "type": "Feature", "properties": {"Name":"Bend city","State":"Oregon","State_Abbrev":"OR"},
"geometry":{ "type": "Point", "coordinates": [-121.307991,44.056683]}},
{ "type": "Feature", "properties": {"Name":"Bethany CDP","State":"Oregon","State_Abbrev":"OR"},
"geometry":{ "type": "Point", "coordinates": [-122.836947,45.561341]}},
{ "type": "Feature", "properties": {"Name":"Biggs Junction CDP","State":"Oregon","State_Abbrev":"OR"},
"geometry":{ "type": "Point", "coordinates": [-120.839157,45.663971]}},
{ "type": "Feature", "properties": {"Name":"Black Butte Ranch CDP","State":"Oregon","State_Abbrev":"OR"},
"geometry":{ "type": "Point", "coordinates": [-121.668579,44.364176]}},
{ "type": "Feature", "properties": {"Name":"Blodgett CDP","State":"Oregon","State_Abbrev":"OR"},
"geometry":{ "type": "Point", "coordinates": [-123.521026,44.59698]}},
{ "type": "Feature", "properties": {"Name":"Bly CDP","State":"Oregon","State_Abbrev":"OR"},
"geometry":{ "type": "Point", "coordinates": [-121.043455,42.391666]}},
{ "type": "Feature", "properties": {"Name":"Boardman city","State":"Oregon","State_Abbrev":"OR"},
"geometry":{ "type": "Point", "coordinates": [-119.692793,45.836507]}},
{ "type": "Feature", "properties": {"Name":"Bonanza town","State":"Oregon","State_Abbrev":"OR"},
"geometry":{ "type": "Point", "coordinates": [-121.406675,42.200317]}},
{ "type": "Feature", "properties": {"Name":"Boring CDP","State":"Oregon","State_Abbrev":"OR"},
"geometry":{ "type": "Point", "coordinates": [-122.372496,45.431266]}},
{ "type": "Feature", "properties": {"Name":"Brogan CDP","State":"Oregon","State_Abbrev":"OR"},
"geometry":{ "type": "Point", "coordinates": [-117.518669,44.247544]}},
{ "type": "Feature", "properties": {"Name":"Brookings city","State":"Oregon","State_Abbrev":"OR"},
"geometry":{ "type": "Point", "coordinates": [-124.304909,42.072408]}},
{ "type": "Feature", "properties": {"Name":"Brooks CDP","State":"Oregon","State_Abbrev":"OR"},
"geometry":{ "type": "Point", "coordinates": [-122.957438,45.050852]}},
{ "type": "Feature", "properties": {"Name":"Brownsville city","State":"Oregon","State_Abbrev":"OR"},
"geometry":{ "type": "Point", "coordinates": [-122.983435,44.392236]}},
{ "type": "Feature", "properties": {"Name":"Bull Mountain CDP","State":"Oregon","State_Abbrev":"OR"},
"geometry":{ "type": "Point", "coordinates": [-122.831994,45.41259]}},
{ "type": "Feature", "properties": {"Name":"Bunker Hill CDP","State":"Oregon","State_Abbrev":"OR"},
"geometry":{ "type": "Point", "coordinates": [-124.212329,43.34737]}},
{ "type": "Feature", "properties": {"Name":"Burns city","State":"Oregon","State_Abbrev":"OR"},
"geometry":{ "type": "Point", "coordinates": [-119.06129,43.588281]}},
{ "type": "Feature", "properties": {"Name":"Butte Falls town","State":"Oregon","State_Abbrev":"OR"},
"geometry":{ "type": "Point", "coordinates": [-122.56908,42.54141]}},
{ "type": "Feature", "properties": {"Name":"Butteville CDP","State":"Oregon","State_Abbrev":"OR"},
"geometry":{ "type": "Point", "coordinates": [-122.834472,45.252414]}},
{ "type": "Feature", "properties": {"Name":"Camp Sherman CDP","State":"Oregon","State_Abbrev":"OR"},
"geometry":{ "type": "Point", "coordinates": [-121.649605,44.449305]}},
{ "type": "Feature", "properties": {"Name":"Canby city","State":"Oregon","State_Abbrev":"OR"},
"geometry":{ "type": "Point", "coordinates": [-122.688395,45.26509]}},
{ "type": "Feature", "properties": {"Name":"Cannon Beach city","State":"Oregon","State_Abbrev":"OR"},
"geometry":{ "type": "Point", "coordinates": [-123.960133,45.888]}},
{ "type": "Feature", "properties": {"Name":"Canyon City town","State":"Oregon","State_Abbrev":"OR"},
"geometry":{ "type": "Point", "coordinates": [-118.949485,44.39301]}},
{ "type": "Feature", "properties": {"Name":"Canyonville city","State":"Oregon","State_Abbrev":"OR"},
"geometry":{ "type": "Point", "coordinates": [-123.278915,42.927309]}},
{ "type": "Feature", "properties": {"Name":"Cape Meares CDP","State":"Oregon","State_Abbrev":"OR"},
"geometry":{ "type": "Point", "coordinates": [-123.951786,45.526653]}},
{ "type": "Feature", "properties": {"Name":"Carlton city","State":"Oregon","State_Abbrev":"OR"},
"geometry":{ "type": "Point", "coordinates": [-123.175373,45.294505]}},
{ "type": "Feature", "properties": {"Name":"Cascade Locks city","State":"Oregon","State_Abbrev":"OR"},
"geometry":{ "type": "Point", "coordinates": [-121.868706,45.676045]}},
{ "type": "Feature", "properties": {"Name":"Cascadia CDP","State":"Oregon","State_Abbrev":"OR"},
"geometry":{ "type": "Point", "coordinates": [-122.50264,44.393003]}},
{ "type": "Feature", "properties": {"Name":"Cave Junction city","State":"Oregon","State_Abbrev":"OR"},
"geometry":{ "type": "Point", "coordinates": [-123.648096,42.166664]}},
{ "type": "Feature", "properties": {"Name":"Cayuse CDP","State":"Oregon","State_Abbrev":"OR"},
"geometry":{ "type": "Point", "coordinates": [-118.5735,45.676497]}},
{ "type": "Feature", "properties": {"Name":"Cedar Hills CDP","State":"Oregon","State_Abbrev":"OR"},
"geometry":{ "type": "Point", "coordinates": [-122.80655,45.504435]}},
{ "type": "Feature", "properties": {"Name":"Cedar Mill CDP","State":"Oregon","State_Abbrev":"OR"},
"geometry":{ "type": "Point", "coordinates": [-122.80064,45.535475]}},
{ "type": "Feature", "properties": {"Name":"Central Point city","State":"Oregon","State_Abbrev":"OR"},
"geometry":{ "type": "Point", "coordinates": [-122.911037,42.376482]}},
{ "type": "Feature", "properties": {"Name":"Chemult CDP","State":"Oregon","State_Abbrev":"OR"},
"geometry":{ "type": "Point", "coordinates": [-121.785013,43.215056]}},
{ "type": "Feature", "properties": {"Name":"Chenoweth CDP","State":"Oregon","State_Abbrev":"OR"},
"geometry":{ "type": "Point", "coordinates": [-121.234279,45.616403]}},
{ "type": "Feature", "properties": {"Name":"Cherry Grove CDP","State":"Oregon","State_Abbrev":"OR"},
"geometry":{ "type": "Point", "coordinates": [-123.248126,45.450705]}},
{ "type": "Feature", "properties": {"Name":"Cheshire CDP","State":"Oregon","State_Abbrev":"OR"},
"geometry":{ "type": "Point", "coordinates": [-123.283391,44.190134]}},
{ "type": "Feature", "properties": {"Name":"Chiloquin city","State":"Oregon","State_Abbrev":"OR"},
"geometry":{ "type": "Point", "coordinates": [-121.867752,42.576417]}},
{ "type": "Feature", "properties": {"Name":"Clatskanie city","State":"Oregon","State_Abbrev":"OR"},
"geometry":{ "type": "Point", "coordinates": [-123.204468,46.104655]}},
{ "type": "Feature", "properties": {"Name":"Cloverdale CDP","State":"Oregon","State_Abbrev":"OR"},
"geometry":{ "type": "Point", "coordinates": [-123.884165,45.200608]}},
{ "type": "Feature", "properties": {"Name":"Coburg city","State":"Oregon","State_Abbrev":"OR"},
"geometry":{ "type": "Point", "coordinates": [-123.0589,44.139373]}},
{ "type": "Feature", "properties": {"Name":"Columbia City city","State":"Oregon","State_Abbrev":"OR"},
"geometry":{ "type": "Point", "coordinates": [-122.812402,45.897546]}},
{ "type": "Feature", "properties": {"Name":"Condon city","State":"Oregon","State_Abbrev":"OR"},
"geometry":{ "type": "Point", "coordinates": [-120.185926,45.236554]}},
{ "type": "Feature", "properties": {"Name":"Coos Bay city","State":"Oregon","State_Abbrev":"OR"},
"geometry":{ "type": "Point", "coordinates": [-124.232597,43.381126]}},
{ "type": "Feature", "properties": {"Name":"Coquille city","State":"Oregon","State_Abbrev":"OR"},
"geometry":{ "type": "Point", "coordinates": [-124.184163,43.180331]}},
{ "type": "Feature", "properties": {"Name":"Cornelius city","State":"Oregon","State_Abbrev":"OR"},
"geometry":{ "type": "Point", "coordinates": [-123.05097,45.518929]}},
{ "type": "Feature", "properties": {"Name":"Corvallis city","State":"Oregon","State_Abbrev":"OR"},
"geometry":{ "type": "Point", "coordinates": [-123.278285,44.569949]}},
{ "type": "Feature", "properties": {"Name":"Cottage Grove city","State":"Oregon","State_Abbrev":"OR"},
"geometry":{ "type": "Point", "coordinates": [-123.057228,43.795891]}},
{ "type": "Feature", "properties": {"Name":"Cove city","State":"Oregon","State_Abbrev":"OR"},
"geometry":{ "type": "Point", "coordinates": [-117.8102,45.296426]}},
{ "type": "Feature", "properties": {"Name":"Crabtree CDP","State":"Oregon","State_Abbrev":"OR"},
"geometry":{ "type": "Point", "coordinates": [-122.905948,44.637638]}},
{ "type": "Feature", "properties": {"Name":"Crane CDP","State":"Oregon","State_Abbrev":"OR"},
"geometry":{ "type": "Point", "coordinates": [-118.587477,43.417916]}},
{ "type": "Feature", "properties": {"Name":"Crawfordsville CDP","State":"Oregon","State_Abbrev":"OR"},
"geometry":{ "type": "Point", "coordinates": [-122.864927,44.356077]}},
{ "type": "Feature", "properties": {"Name":"Crescent CDP","State":"Oregon","State_Abbrev":"OR"},
"geometry":{ "type": "Point", "coordinates": [-121.699734,43.453446]}},
{ "type": "Feature", "properties": {"Name":"Crescent Lake CDP","State":"Oregon","State_Abbrev":"OR"},
"geometry":{ "type": "Point", "coordinates": [-121.935345,43.509612]}},
{ "type": "Feature", "properties": {"Name":"Creswell city","State":"Oregon","State_Abbrev":"OR"},
"geometry":{ "type": "Point", "coordinates": [-123.014001,43.922625]}},
{ "type": "Feature", "properties": {"Name":"Crooked River Ranch CDP","State":"Oregon","State_Abbrev":"OR"},
"geometry":{ "type": "Point", "coordinates": [-121.275717,44.424179]}},
{ "type": "Feature", "properties": {"Name":"Culver city","State":"Oregon","State_Abbrev":"OR"},
"geometry":{ "type": "Point", "coordinates": [-121.211017,44.523371]}},
{ "type": "Feature", "properties": {"Name":"Dallas city","State":"Oregon","State_Abbrev":"OR"},
"geometry":{ "type": "Point", "coordinates": [-123.313019,44.922134]}},
{ "type": "Feature", "properties": {"Name":"Damascus CDP","State":"Oregon","State_Abbrev":"OR"},
"geometry":{ "type": "Point", "coordinates": [-122.442992,45.426416]}},
{ "type": "Feature", "properties": {"Name":"Days Creek CDP","State":"Oregon","State_Abbrev":"OR"},
"geometry":{ "type": "Point", "coordinates": [-123.165742,42.970493]}},
{ "type": "Feature", "properties": {"Name":"Dayton city","State":"Oregon","State_Abbrev":"OR"},
"geometry":{ "type": "Point", "coordinates": [-123.078093,45.21985]}},
{ "type": "Feature", "properties": {"Name":"Dayville town","State":"Oregon","State_Abbrev":"OR"},
"geometry":{ "type": "Point", "coordinates": [-119.53222,44.466761]}},
{ "type": "Feature", "properties": {"Name":"Deer Island CDP","State":"Oregon","State_Abbrev":"OR"},
"geometry":{ "type": "Point", "coordinates": [-122.849762,45.932994]}},
{ "type": "Feature", "properties": {"Name":"Depoe Bay city","State":"Oregon","State_Abbrev":"OR"},
"geometry":{ "type": "Point", "coordinates": [-124.059688,44.809106]}},
{ "type": "Feature", "properties": {"Name":"Deschutes River Woods CDP","State":"Oregon","State_Abbrev":"OR"},
"geometry":{ "type": "Point", "coordinates": [-121.359101,43.987447]}},
{ "type": "Feature", "properties": {"Name":"Detroit city","State":"Oregon","State_Abbrev":"OR"},
"geometry":{ "type": "Point", "coordinates": [-122.151664,44.733778]}},
{ "type": "Feature", "properties": {"Name":"Dexter CDP","State":"Oregon","State_Abbrev":"OR"},
"geometry":{ "type": "Point", "coordinates": [-122.827663,43.922266]}},
{ "type": "Feature", "properties": {"Name":"Dillard CDP","State":"Oregon","State_Abbrev":"OR"},
"geometry":{ "type": "Point", "coordinates": [-123.426192,43.108239]}},
{ "type": "Feature", "properties": {"Name":"Dilley CDP","State":"Oregon","State_Abbrev":"OR"},
"geometry":{ "type": "Point", "coordinates": [-123.12227,45.491714]}},
{ "type": "Feature", "properties": {"Name":"Donald city","State":"Oregon","State_Abbrev":"OR"},
"geometry":{ "type": "Point", "coordinates": [-122.837818,45.221483]}},
{ "type": "Feature", "properties": {"Name":"Drain city","State":"Oregon","State_Abbrev":"OR"},
"geometry":{ "type": "Point", "coordinates": [-123.314309,43.662314]}},
{ "type": "Feature", "properties": {"Name":"Dufur city","State":"Oregon","State_Abbrev":"OR"},
"geometry":{ "type": "Point", "coordinates": [-121.12875,45.453077]}},
{ "type": "Feature", "properties": {"Name":"Dundee city","State":"Oregon","State_Abbrev":"OR"},
"geometry":{ "type": "Point", "coordinates": [-123.007417,45.275798]}},
{ "type": "Feature", "properties": {"Name":"Dunes City city","State":"Oregon","State_Abbrev":"OR"},
"geometry":{ "type": "Point", "coordinates": [-124.091082,43.910475]}},
{ "type": "Feature", "properties": {"Name":"Dunthorpe CDP","State":"Oregon","State_Abbrev":"OR"},
"geometry":{ "type": "Point", "coordinates": [-122.659058,45.440911]}},
{ "type": "Feature", "properties": {"Name":"Durham city","State":"Oregon","State_Abbrev":"OR"},
"geometry":{ "type": "Point", "coordinates": [-122.757985,45.394459]}},
{ "type": "Feature", "properties": {"Name":"Eagle Crest CDP","State":"Oregon","State_Abbrev":"OR"},
"geometry":{ "type": "Point", "coordinates": [-121.29955,44.26142]}},
{ "type": "Feature", "properties": {"Name":"Eagle Point city","State":"Oregon","State_Abbrev":"OR"},
"geometry":{ "type": "Point", "coordinates": [-122.801593,42.467688]}},
{ "type": "Feature", "properties": {"Name":"Echo city","State":"Oregon","State_Abbrev":"OR"},
"geometry":{ "type": "Point", "coordinates": [-119.191832,45.743096]}},
{ "type": "Feature", "properties": {"Name":"Elgin city","State":"Oregon","State_Abbrev":"OR"},
"geometry":{ "type": "Point", "coordinates": [-117.92127,45.564655]}},
{ "type": "Feature", "properties": {"Name":"Elkton city","State":"Oregon","State_Abbrev":"OR"},
"geometry":{ "type": "Point", "coordinates": [-123.569148,43.637429]}},
{ "type": "Feature", "properties": {"Name":"Elmira CDP","State":"Oregon","State_Abbrev":"OR"},
"geometry":{ "type": "Point", "coordinates": [-123.35706,44.07146]}},
{ "type": "Feature", "properties": {"Name":"Enterprise city","State":"Oregon","State_Abbrev":"OR"},
"geometry":{ "type": "Point", "coordinates": [-117.278809,45.425772]}},
{ "type": "Feature", "properties": {"Name":"Eola CDP","State":"Oregon","State_Abbrev":"OR"},
"geometry":{ "type": "Point", "coordinates": [-123.120718,44.931237]}},
{ "type": "Feature", "properties": {"Name":"Estacada city","State":"Oregon","State_Abbrev":"OR"},
"geometry":{ "type": "Point", "coordinates": [-122.332394,45.298199]}},
{ "type": "Feature", "properties": {"Name":"Eugene city","State":"Oregon","State_Abbrev":"OR"},
"geometry":{ "type": "Point", "coordinates": [-123.117431,44.055128]}},
{ "type": "Feature", "properties": {"Name":"Fair Oaks CDP","State":"Oregon","State_Abbrev":"OR"},
"geometry":{ "type": "Point", "coordinates": [-123.219492,43.410894]}},
{ "type": "Feature", "properties": {"Name":"Fairview city","State":"Oregon","State_Abbrev":"OR"},
"geometry":{ "type": "Point", "coordinates": [-122.436823,45.547585]}},
{ "type": "Feature", "properties": {"Name":"Fairview CDP","State":"Oregon","State_Abbrev":"OR"},
"geometry":{ "type": "Point", "coordinates": [-123.792589,45.458328]}},
{ "type": "Feature", "properties": {"Name":"Falcon Heights CDP","State":"Oregon","State_Abbrev":"OR"},
"geometry":{ "type": "Point", "coordinates": [-121.756612,42.131365]}},
{ "type": "Feature", "properties": {"Name":"Falls City city","State":"Oregon","State_Abbrev":"OR"},
"geometry":{ "type": "Point", "coordinates": [-123.4375,44.864803]}},
{ "type": "Feature", "properties": {"Name":"Florence city","State":"Oregon","State_Abbrev":"OR"},
"geometry":{ "type": "Point", "coordinates": [-124.106456,43.991632]}},
{ "type": "Feature", "properties": {"Name":"Foots Creek CDP","State":"Oregon","State_Abbrev":"OR"},
"geometry":{ "type": "Point", "coordinates": [-123.140951,42.388135]}},
{ "type": "Feature", "properties": {"Name":"Forest Grove city","State":"Oregon","State_Abbrev":"OR"},
"geometry":{ "type": "Point", "coordinates": [-123.10991,45.524781]}},
{ "type": "Feature", "properties": {"Name":"Fort Hill CDP","State":"Oregon","State_Abbrev":"OR"},
"geometry":{ "type": "Point", "coordinates": [-123.56051,45.067025]}},
{ "type": "Feature", "properties": {"Name":"Fort Klamath CDP","State":"Oregon","State_Abbrev":"OR"},
"geometry":{ "type": "Point", "coordinates": [-121.994258,42.704957]}},
{ "type": "Feature", "properties": {"Name":"Fossil city","State":"Oregon","State_Abbrev":"OR"},
"geometry":{ "type": "Point", "coordinates": [-120.214649,44.998081]}},
{ "type": "Feature", "properties": {"Name":"Four Corners CDP","State":"Oregon","State_Abbrev":"OR"},
"geometry":{ "type": "Point", "coordinates": [-122.973173,44.9291]}},
{ "type": "Feature", "properties": {"Name":"Garden Home-Whitford CDP","State":"Oregon","State_Abbrev":"OR"},
"geometry":{ "type": "Point", "coordinates": [-122.760775,45.46336]}},
{ "type": "Feature", "properties": {"Name":"Gardiner CDP","State":"Oregon","State_Abbrev":"OR"},
"geometry":{ "type": "Point", "coordinates": [-124.106808,43.732721]}},
{ "type": "Feature", "properties": {"Name":"Garibaldi city","State":"Oregon","State_Abbrev":"OR"},
"geometry":{ "type": "Point", "coordinates": [-123.91135,45.560783]}},
{ "type": "Feature", "properties": {"Name":"Gaston city","State":"Oregon","State_Abbrev":"OR"},
"geometry":{ "type": "Point", "coordinates": [-123.14506,45.43488]}},
{ "type": "Feature", "properties": {"Name":"Gates city","State":"Oregon","State_Abbrev":"OR"},
"geometry":{ "type": "Point", "coordinates": [-122.42013,44.756009]}},
{ "type": "Feature", "properties": {"Name":"Gearhart city","State":"Oregon","State_Abbrev":"OR"},
"geometry":{ "type": "Point", "coordinates": [-123.918479,46.031719]}},
{ "type": "Feature", "properties": {"Name":"Gervais city","State":"Oregon","State_Abbrev":"OR"},
"geometry":{ "type": "Point", "coordinates": [-122.896426,45.108038]}},
{ "type": "Feature", "properties": {"Name":"Gilchrist CDP","State":"Oregon","State_Abbrev":"OR"},
"geometry":{ "type": "Point", "coordinates": [-121.69387,43.478489]}},
{ "type": "Feature", "properties": {"Name":"Gladstone city","State":"Oregon","State_Abbrev":"OR"},
"geometry":{ "type": "Point", "coordinates": [-122.592827,45.38565]}},
{ "type": "Feature", "properties": {"Name":"Glasgow CDP","State":"Oregon","State_Abbrev":"OR"},
"geometry":{ "type": "Point", "coordinates": [-124.195126,43.437656]}},
{ "type": "Feature", "properties": {"Name":"Glendale city","State":"Oregon","State_Abbrev":"OR"},
"geometry":{ "type": "Point", "coordinates": [-123.429355,42.738052]}},
{ "type": "Feature", "properties": {"Name":"Glide CDP","State":"Oregon","State_Abbrev":"OR"},
"geometry":{ "type": "Point", "coordinates": [-123.073619,43.291881]}},
{ "type": "Feature", "properties": {"Name":"Gold Beach city","State":"Oregon","State_Abbrev":"OR"},
"geometry":{ "type": "Point", "coordinates": [-124.422162,42.413297]}},
{ "type": "Feature", "properties": {"Name":"Gold Hill city","State":"Oregon","State_Abbrev":"OR"},
"geometry":{ "type": "Point", "coordinates": [-123.05264,42.435789]}},
{ "type": "Feature", "properties": {"Name":"Gopher Flats CDP","State":"Oregon","State_Abbrev":"OR"},
"geometry":{ "type": "Point", "coordinates": [-118.722499,45.665942]}},
{ "type": "Feature", "properties": {"Name":"Government Camp CDP","State":"Oregon","State_Abbrev":"OR"},
"geometry":{ "type": "Point", "coordinates": [-121.752589,45.302233]}},
{ "type": "Feature", "properties": {"Name":"Grand Ronde CDP","State":"Oregon","State_Abbrev":"OR"},
"geometry":{ "type": "Point", "coordinates": [-123.621044,45.073843]}},
{ "type": "Feature", "properties": {"Name":"Granite city","State":"Oregon","State_Abbrev":"OR"},
"geometry":{ "type": "Point", "coordinates": [-118.419242,44.810265]}},
{ "type": "Feature", "properties": {"Name":"Grants Pass city","State":"Oregon","State_Abbrev":"OR"},
"geometry":{ "type": "Point", "coordinates": [-123.331772,42.432313]}},
{ "type": "Feature", "properties": {"Name":"Grass Valley city","State":"Oregon","State_Abbrev":"OR"},
"geometry":{ "type": "Point", "coordinates": [-120.784166,45.359058]}},
{ "type": "Feature", "properties": {"Name":"Green CDP","State":"Oregon","State_Abbrev":"OR"},
"geometry":{ "type": "Point", "coordinates": [-123.387402,43.151399]}},
{ "type": "Feature", "properties": {"Name":"Greenhorn city","State":"Oregon","State_Abbrev":"OR"},
"geometry":{ "type": "Point", "coordinates": [-118.496741,44.708716]}},
{ "type": "Feature", "properties": {"Name":"Green Meadows CDP","State":"Oregon","State_Abbrev":"OR"},
"geometry":{ "type": "Point", "coordinates": [-118.800007,45.613003]}},
{ "type": "Feature", "properties": {"Name":"Gresham city","State":"Oregon","State_Abbrev":"OR"},
"geometry":{ "type": "Point", "coordinates": [-122.441609,45.502319]}},
{ "type": "Feature", "properties": {"Name":"Haines city","State":"Oregon","State_Abbrev":"OR"},
"geometry":{ "type": "Point", "coordinates": [-117.939552,44.912272]}},
{ "type": "Feature", "properties": {"Name":"Halfway city","State":"Oregon","State_Abbrev":"OR"},
"geometry":{ "type": "Point", "coordinates": [-117.109699,44.878023]}},
{ "type": "Feature", "properties": {"Name":"Halsey city","State":"Oregon","State_Abbrev":"OR"},
"geometry":{ "type": "Point", "coordinates": [-123.109446,44.382891]}},
{ "type": "Feature", "properties": {"Name":"Happy Valley city","State":"Oregon","State_Abbrev":"OR"},
"geometry":{ "type": "Point", "coordinates": [-122.510132,45.436027]}},
{ "type": "Feature", "properties": {"Name":"Harbor CDP","State":"Oregon","State_Abbrev":"OR"},
"geometry":{ "type": "Point", "coordinates": [-124.252045,42.036734]}},
{ "type": "Feature", "properties": {"Name":"Harper CDP","State":"Oregon","State_Abbrev":"OR"},
"geometry":{ "type": "Point", "coordinates": [-117.626545,43.856971]}},
{ "type": "Feature", "properties": {"Name":"Harrisburg city","State":"Oregon","State_Abbrev":"OR"},
"geometry":{ "type": "Point", "coordinates": [-123.162583,44.270278]}},
{ "type": "Feature", "properties": {"Name":"Hayesville CDP","State":"Oregon","State_Abbrev":"OR"},
"geometry":{ "type": "Point", "coordinates": [-122.973812,44.979292]}},
{ "type": "Feature", "properties": {"Name":"Hebo CDP","State":"Oregon","State_Abbrev":"OR"},
"geometry":{ "type": "Point", "coordinates": [-123.858629,45.226003]}},
{ "type": "Feature", "properties": {"Name":"Heceta Beach CDP","State":"Oregon","State_Abbrev":"OR"},
"geometry":{ "type": "Point", "coordinates": [-124.117826,44.024236]}},
{ "type": "Feature", "properties": {"Name":"Helix city","State":"Oregon","State_Abbrev":"OR"},
"geometry":{ "type": "Point", "coordinates": [-118.65905,45.850648]}},
{ "type": "Feature", "properties": {"Name":"Heppner city","State":"Oregon","State_Abbrev":"OR"},
"geometry":{ "type": "Point", "coordinates": [-119.560569,45.352994]}},
{ "type": "Feature", "properties": {"Name":"Hermiston city","State":"Oregon","State_Abbrev":"OR"},
"geometry":{ "type": "Point", "coordinates": [-119.285204,45.832888]}},
{ "type": "Feature", "properties": {"Name":"Hillsboro city","State":"Oregon","State_Abbrev":"OR"},
"geometry":{ "type": "Point", "coordinates": [-122.935395,45.526798]}},
{ "type": "Feature", "properties": {"Name":"Hines city","State":"Oregon","State_Abbrev":"OR"},
"geometry":{ "type": "Point", "coordinates": [-119.081951,43.557358]}},
{ "type": "Feature", "properties": {"Name":"Holley CDP","State":"Oregon","State_Abbrev":"OR"},
"geometry":{ "type": "Point", "coordinates": [-122.785581,44.348986]}},
{ "type": "Feature", "properties": {"Name":"Hood River city","State":"Oregon","State_Abbrev":"OR"},
"geometry":{ "type": "Point", "coordinates": [-121.526019,45.709115]}},
{ "type": "Feature", "properties": {"Name":"Hubbard city","State":"Oregon","State_Abbrev":"OR"},
"geometry":{ "type": "Point", "coordinates": [-122.808324,45.181472]}},
{ "type": "Feature", "properties": {"Name":"Huntington city","State":"Oregon","State_Abbrev":"OR"},
"geometry":{ "type": "Point", "coordinates": [-117.266763,44.350086]}},
{ "type": "Feature", "properties": {"Name":"Idanha city","State":"Oregon","State_Abbrev":"OR"},
"geometry":{ "type": "Point", "coordinates": [-122.083188,44.70152]}},
{ "type": "Feature", "properties": {"Name":"Idaville CDP","State":"Oregon","State_Abbrev":"OR"},
"geometry":{ "type": "Point", "coordinates": [-123.863276,45.509725]}},
{ "type": "Feature", "properties": {"Name":"Imbler city","State":"Oregon","State_Abbrev":"OR"},
"geometry":{ "type": "Point", "coordinates": [-117.963193,45.462114]}},
{ "type": "Feature", "properties": {"Name":"Independence city","State":"Oregon","State_Abbrev":"OR"},
"geometry":{ "type": "Point", "coordinates": [-123.197722,44.857805]}},
{ "type": "Feature", "properties": {"Name":"Ione city","State":"Oregon","State_Abbrev":"OR"},
"geometry":{ "type": "Point", "coordinates": [-119.821972,45.50291]}},
{ "type": "Feature", "properties": {"Name":"Irrigon city","State":"Oregon","State_Abbrev":"OR"},
"geometry":{ "type": "Point", "coordinates": [-119.488734,45.895048]}},
{ "type": "Feature", "properties": {"Name":"Island City city","State":"Oregon","State_Abbrev":"OR"},
"geometry":{ "type": "Point", "coordinates": [-118.049176,45.335842]}},
{ "type": "Feature", "properties": {"Name":"Jacksonville city","State":"Oregon","State_Abbrev":"OR"},
"geometry":{ "type": "Point", "coordinates": [-122.969169,42.312632]}},
{ "type": "Feature", "properties": {"Name":"Jasper CDP","State":"Oregon","State_Abbrev":"OR"},
"geometry":{ "type": "Point", "coordinates": [-122.916348,43.98698]}},
{ "type": "Feature", "properties": {"Name":"Jeffers Gardens CDP","State":"Oregon","State_Abbrev":"OR"},
"geometry":{ "type": "Point", "coordinates": [-123.852082,46.151755]}},
{ "type": "Feature", "properties": {"Name":"Jefferson city","State":"Oregon","State_Abbrev":"OR"},
"geometry":{ "type": "Point", "coordinates": [-123.005969,44.716554]}},
{ "type": "Feature", "properties": {"Name":"Jennings Lodge CDP","State":"Oregon","State_Abbrev":"OR"},
"geometry":{ "type": "Point", "coordinates": [-122.615453,45.393518]}},
{ "type": "Feature", "properties": {"Name":"John Day city","State":"Oregon","State_Abbrev":"OR"},
"geometry":{ "type": "Point", "coordinates": [-118.956296,44.418121]}},
{ "type": "Feature", "properties": {"Name":"Johnson City city","State":"Oregon","State_Abbrev":"OR"},
"geometry":{ "type": "Point", "coordinates": [-122.578222,45.404217]}},
{ "type": "Feature", "properties": {"Name":"Jordan Valley city","State":"Oregon","State_Abbrev":"OR"},
"geometry":{ "type": "Point", "coordinates": [-117.057442,42.979333]}},
{ "type": "Feature", "properties": {"Name":"Joseph city","State":"Oregon","State_Abbrev":"OR"},
"geometry":{ "type": "Point", "coordinates": [-117.230358,45.352531]}},
{ "type": "Feature", "properties": {"Name":"Junction City city","State":"Oregon","State_Abbrev":"OR"},
"geometry":{ "type": "Point", "coordinates": [-123.200151,44.21191]}},
{ "type": "Feature", "properties": {"Name":"Juniper Canyon CDP","State":"Oregon","State_Abbrev":"OR"},
"geometry":{ "type": "Point", "coordinates": [-120.746693,44.199775]}},
{ "type": "Feature", "properties": {"Name":"Juntura CDP","State":"Oregon","State_Abbrev":"OR"},
"geometry":{ "type": "Point", "coordinates": [-118.078841,43.748684]}},
{ "type": "Feature", "properties": {"Name":"Keizer city","State":"Oregon","State_Abbrev":"OR"},
"geometry":{ "type": "Point", "coordinates": [-123.024491,45.002971]}},
{ "type": "Feature", "properties": {"Name":"Keno CDP","State":"Oregon","State_Abbrev":"OR"},
"geometry":{ "type": "Point", "coordinates": [-121.928289,42.131126]}},
{ "type": "Feature", "properties": {"Name":"Kerby CDP","State":"Oregon","State_Abbrev":"OR"},
"geometry":{ "type": "Point", "coordinates": [-123.645659,42.199844]}},
{ "type": "Feature", "properties": {"Name":"King City city","State":"Oregon","State_Abbrev":"OR"},
"geometry":{ "type": "Point", "coordinates": [-122.806943,45.401189]}},
{ "type": "Feature", "properties": {"Name":"Kings Valley CDP","State":"Oregon","State_Abbrev":"OR"},
"geometry":{ "type": "Point", "coordinates": [-123.426859,44.698503]}},
{ "type": "Feature", "properties": {"Name":"Kirkpatrick CDP","State":"Oregon","State_Abbrev":"OR"},
"geometry":{ "type": "Point", "coordinates": [-118.649878,45.679586]}},
{ "type": "Feature", "properties": {"Name":"Klamath Falls city","State":"Oregon","State_Abbrev":"OR"},
"geometry":{ "type": "Point", "coordinates": [-121.778718,42.218845]}},
{ "type": "Feature", "properties": {"Name":"Knappa CDP","State":"Oregon","State_Abbrev":"OR"},
"geometry":{ "type": "Point", "coordinates": [-123.579823,46.170814]}},
{ "type": "Feature", "properties": {"Name":"Labish Village CDP","State":"Oregon","State_Abbrev":"OR"},
"geometry":{ "type": "Point", "coordinates": [-122.973569,45.019095]}},
{ "type": "Feature", "properties": {"Name":"Lacomb CDP","State":"Oregon","State_Abbrev":"OR"},
"geometry":{ "type": "Point", "coordinates": [-122.741669,44.584365]}},
{ "type": "Feature", "properties": {"Name":"Lafayette city","State":"Oregon","State_Abbrev":"OR"},
"geometry":{ "type": "Point", "coordinates": [-123.111899,45.246856]}},
{ "type": "Feature", "properties": {"Name":"La Grande city","State":"Oregon","State_Abbrev":"OR"},
"geometry":{ "type": "Point", "coordinates": [-118.086891,45.324471]}},
{ "type": "Feature", "properties": {"Name":"Lake Oswego city","State":"Oregon","State_Abbrev":"OR"},
"geometry":{ "type": "Point", "coordinates": [-122.700007,45.413551]}},
{ "type": "Feature", "properties": {"Name":"Lakeside city","State":"Oregon","State_Abbrev":"OR"},
"geometry":{ "type": "Point", "coordinates": [-124.171932,43.584498]}},
{ "type": "Feature", "properties": {"Name":"Lakeview town","State":"Oregon","State_Abbrev":"OR"},
"geometry":{ "type": "Point", "coordinates": [-120.352536,42.191438]}},
{ "type": "Feature", "properties": {"Name":"Langlois CDP","State":"Oregon","State_Abbrev":"OR"},
"geometry":{ "type": "Point", "coordinates": [-124.453177,42.925901]}},
{ "type": "Feature", "properties": {"Name":"La Pine city","State":"Oregon","State_Abbrev":"OR"},
"geometry":{ "type": "Point", "coordinates": [-121.485315,43.68685]}},
{ "type": "Feature", "properties": {"Name":"Lebanon city","State":"Oregon","State_Abbrev":"OR"},
"geometry":{ "type": "Point", "coordinates": [-122.908126,44.530981]}},
{ "type": "Feature", "properties": {"Name":"Lexington town","State":"Oregon","State_Abbrev":"OR"},
"geometry":{ "type": "Point", "coordinates": [-119.687952,45.44616]}},
{ "type": "Feature", "properties": {"Name":"Lincoln Beach CDP","State":"Oregon","State_Abbrev":"OR"},
"geometry":{ "type": "Point", "coordinates": [-124.031435,44.873179]}},
{ "type": "Feature", "properties": {"Name":"Lincoln City city","State":"Oregon","State_Abbrev":"OR"},
"geometry":{ "type": "Point", "coordinates": [-124.006054,44.977881]}},
{ "type": "Feature", "properties": {"Name":"Lonerock city","State":"Oregon","State_Abbrev":"OR"},
"geometry":{ "type": "Point", "coordinates": [-119.884125,45.088722]}},
{ "type": "Feature", "properties": {"Name":"Long Creek city","State":"Oregon","State_Abbrev":"OR"},
"geometry":{ "type": "Point", "coordinates": [-119.104245,44.714152]}},
{ "type": "Feature", "properties": {"Name":"Lookingglass CDP","State":"Oregon","State_Abbrev":"OR"},
"geometry":{ "type": "Point", "coordinates": [-123.499903,43.184802]}},
{ "type": "Feature", "properties": {"Name":"Lostine city","State":"Oregon","State_Abbrev":"OR"},
"geometry":{ "type": "Point", "coordinates": [-117.429466,45.486703]}},
{ "type": "Feature", "properties": {"Name":"Lowell city","State":"Oregon","State_Abbrev":"OR"},
"geometry":{ "type": "Point", "coordinates": [-122.781752,43.920071]}},
{ "type": "Feature", "properties": {"Name":"Lyons city","State":"Oregon","State_Abbrev":"OR"},
"geometry":{ "type": "Point", "coordinates": [-122.611833,44.779255]}},
{ "type": "Feature", "properties": {"Name":"McKay CDP","State":"Oregon","State_Abbrev":"OR"},
"geometry":{ "type": "Point", "coordinates": [-118.68418,45.492346]}},
{ "type": "Feature", "properties": {"Name":"McMinnville city","State":"Oregon","State_Abbrev":"OR"},
"geometry":{ "type": "Point", "coordinates": [-123.191822,45.211047]}},
{ "type": "Feature", "properties": {"Name":"Madras city","State":"Oregon","State_Abbrev":"OR"},
"geometry":{ "type": "Point", "coordinates": [-121.160438,44.663897]}},
{ "type": "Feature", "properties": {"Name":"Malin city","State":"Oregon","State_Abbrev":"OR"},
"geometry":{ "type": "Point", "coordinates": [-121.409744,42.013367]}},
{ "type": "Feature", "properties": {"Name":"Manzanita city","State":"Oregon","State_Abbrev":"OR"},
"geometry":{ "type": "Point", "coordinates": [-123.935073,45.716584]}},
{ "type": "Feature", "properties": {"Name":"Mapleton CDP","State":"Oregon","State_Abbrev":"OR"},
"geometry":{ "type": "Point", "coordinates": [-123.86483,44.033416]}},
{ "type": "Feature", "properties": {"Name":"Marcola CDP","State":"Oregon","State_Abbrev":"OR"},
"geometry":{ "type": "Point", "coordinates": [-122.858162,44.175058]}},
{ "type": "Feature", "properties": {"Name":"Marion CDP","State":"Oregon","State_Abbrev":"OR"},
"geometry":{ "type": "Point", "coordinates": [-122.927723,44.75125]}},
{ "type": "Feature", "properties": {"Name":"Marlene Village CDP","State":"Oregon","State_Abbrev":"OR"},
"geometry":{ "type": "Point", "coordinates": [-122.819938,45.517297]}},
{ "type": "Feature", "properties": {"Name":"Maupin city","State":"Oregon","State_Abbrev":"OR"},
"geometry":{ "type": "Point", "coordinates": [-121.088391,45.170708]}},
{ "type": "Feature", "properties": {"Name":"Maywood Park city","State":"Oregon","State_Abbrev":"OR"},
"geometry":{ "type": "Point", "coordinates": [-122.561778,45.552517]}},
{ "type": "Feature", "properties": {"Name":"Meacham CDP","State":"Oregon","State_Abbrev":"OR"},
"geometry":{ "type": "Point", "coordinates": [-118.439518,45.523066]}},
{ "type": "Feature", "properties": {"Name":"Medford city","State":"Oregon","State_Abbrev":"OR"},
"geometry":{ "type": "Point", "coordinates": [-122.851762,42.336006]}},
{ "type": "Feature", "properties": {"Name":"Mehama CDP","State":"Oregon","State_Abbrev":"OR"},
"geometry":{ "type": "Point", "coordinates": [-122.628424,44.791246]}},
{ "type": "Feature", "properties": {"Name":"Melrose CDP","State":"Oregon","State_Abbrev":"OR"},
"geometry":{ "type": "Point", "coordinates": [-123.457458,43.252861]}},
{ "type": "Feature", "properties": {"Name":"Merlin CDP","State":"Oregon","State_Abbrev":"OR"},
"geometry":{ "type": "Point", "coordinates": [-123.432297,42.519934]}},
{ "type": "Feature", "properties": {"Name":"Merrill city","State":"Oregon","State_Abbrev":"OR"},
"geometry":{ "type": "Point", "coordinates": [-121.60085,42.026015]}},
{ "type": "Feature", "properties": {"Name":"Metolius city","State":"Oregon","State_Abbrev":"OR"},
"geometry":{ "type": "Point", "coordinates": [-121.175989,44.587479]}},
{ "type": "Feature", "properties": {"Name":"Metzger CDP","State":"Oregon","State_Abbrev":"OR"},
"geometry":{ "type": "Point", "coordinates": [-122.762071,45.449304]}},
{ "type": "Feature", "properties": {"Name":"Mill City city","State":"Oregon","State_Abbrev":"OR"},
"geometry":{ "type": "Point", "coordinates": [-122.477004,44.752008]}},
{ "type": "Feature", "properties": {"Name":"Millersburg city","State":"Oregon","State_Abbrev":"OR"},
"geometry":{ "type": "Point", "coordinates": [-123.072773,44.678856]}},
{ "type": "Feature", "properties": {"Name":"Milton-Freewater city","State":"Oregon","State_Abbrev":"OR"},
"geometry":{ "type": "Point", "coordinates": [-118.390968,45.933993]}},
{ "type": "Feature", "properties": {"Name":"Milwaukie city","State":"Oregon","State_Abbrev":"OR"},
"geometry":{ "type": "Point", "coordinates": [-122.620848,45.444835]}},
{ "type": "Feature", "properties": {"Name":"Mission CDP","State":"Oregon","State_Abbrev":"OR"},
"geometry":{ "type": "Point", "coordinates": [-118.665527,45.658566]}},
{ "type": "Feature", "properties": {"Name":"Mitchell city","State":"Oregon","State_Abbrev":"OR"},
"geometry":{ "type": "Point", "coordinates": [-120.152883,44.573695]}},
{ "type": "Feature", "properties": {"Name":"Molalla city","State":"Oregon","State_Abbrev":"OR"},
"geometry":{ "type": "Point", "coordinates": [-122.584865,45.149348]}},
{ "type": "Feature", "properties": {"Name":"Monmouth city","State":"Oregon","State_Abbrev":"OR"},
"geometry":{ "type": "Point", "coordinates": [-123.228603,44.851316]}},
{ "type": "Feature", "properties": {"Name":"Monroe city","State":"Oregon","State_Abbrev":"OR"},
"geometry":{ "type": "Point", "coordinates": [-123.298903,44.316948]}},
{ "type": "Feature", "properties": {"Name":"Monument city","State":"Oregon","State_Abbrev":"OR"},
"geometry":{ "type": "Point", "coordinates": [-119.420885,44.820795]}},
{ "type": "Feature", "properties": {"Name":"Moro city","State":"Oregon","State_Abbrev":"OR"},
"geometry":{ "type": "Point", "coordinates": [-120.733315,45.483752]}},
{ "type": "Feature", "properties": {"Name":"Mosier city","State":"Oregon","State_Abbrev":"OR"},
"geometry":{ "type": "Point", "coordinates": [-121.398216,45.685038]}},
{ "type": "Feature", "properties": {"Name":"Mount Angel city","State":"Oregon","State_Abbrev":"OR"},
"geometry":{ "type": "Point", "coordinates": [-122.797219,45.069535]}},
{ "type": "Feature", "properties": {"Name":"Mount Hood CDP","State":"Oregon","State_Abbrev":"OR"},
"geometry":{ "type": "Point", "coordinates": [-121.566214,45.533898]}},
{ "type": "Feature", "properties": {"Name":"Mount Hood Villages CDP","State":"Oregon","State_Abbrev":"OR"},
"geometry":{ "type": "Point", "coordinates": [-121.990453,45.323984]}},
{ "type": "Feature", "properties": {"Name":"Mount Vernon city","State":"Oregon","State_Abbrev":"OR"},
"geometry":{ "type": "Point", "coordinates": [-119.113174,44.416897]}},
{ "type": "Feature", "properties": {"Name":"Mulino CDP","State":"Oregon","State_Abbrev":"OR"},
"geometry":{ "type": "Point", "coordinates": [-122.557242,45.222006]}},
{ "type": "Feature", "properties": {"Name":"Myrtle Creek city","State":"Oregon","State_Abbrev":"OR"},
"geometry":{ "type": "Point", "coordinates": [-123.27835,43.024065]}},
{ "type": "Feature", "properties": {"Name":"Myrtle Point city","State":"Oregon","State_Abbrev":"OR"},
"geometry":{ "type": "Point", "coordinates": [-124.13308,43.06268]}},
{ "type": "Feature", "properties": {"Name":"Neahkahnie CDP","State":"Oregon","State_Abbrev":"OR"},
"geometry":{ "type": "Point", "coordinates": [-123.939798,45.732341]}},
{ "type": "Feature", "properties": {"Name":"Nehalem city","State":"Oregon","State_Abbrev":"OR"},
"geometry":{ "type": "Point", "coordinates": [-123.894023,45.719528]}},
{ "type": "Feature", "properties": {"Name":"Neotsu CDP","State":"Oregon","State_Abbrev":"OR"},
"geometry":{ "type": "Point", "coordinates": [-123.977634,44.996052]}},
{ "type": "Feature", "properties": {"Name":"Nesika Beach CDP","State":"Oregon","State_Abbrev":"OR"},
"geometry":{ "type": "Point", "coordinates": [-124.40224,42.507694]}},
{ "type": "Feature", "properties": {"Name":"Neskowin CDP","State":"Oregon","State_Abbrev":"OR"},
"geometry":{ "type": "Point", "coordinates": [-123.976305,45.120823]}},
{ "type": "Feature", "properties": {"Name":"Netarts CDP","State":"Oregon","State_Abbrev":"OR"},
"geometry":{ "type": "Point", "coordinates": [-123.934386,45.435624]}},
{ "type": "Feature", "properties": {"Name":"Newberg city","State":"Oregon","State_Abbrev":"OR"},
"geometry":{ "type": "Point", "coordinates": [-122.960176,45.30725]}},
{ "type": "Feature", "properties": {"Name":"New Hope CDP","State":"Oregon","State_Abbrev":"OR"},
"geometry":{ "type": "Point", "coordinates": [-123.35895,42.36929]}},
{ "type": "Feature", "properties": {"Name":"New Pine Creek CDP","State":"Oregon","State_Abbrev":"OR"},
"geometry":{ "type": "Point", "coordinates": [-120.304294,42.00144]}},
{ "type": "Feature", "properties": {"Name":"Newport city","State":"Oregon","State_Abbrev":"OR"},
"geometry":{ "type": "Point", "coordinates": [-124.043824,44.621411]}},
{ "type": "Feature", "properties": {"Name":"North Bend city","State":"Oregon","State_Abbrev":"OR"},
"geometry":{ "type": "Point", "coordinates": [-124.234483,43.407163]}},
{ "type": "Feature", "properties": {"Name":"North Plains city","State":"Oregon","State_Abbrev":"OR"},
"geometry":{ "type": "Point", "coordinates": [-122.994719,45.597475]}},
{ "type": "Feature", "properties": {"Name":"North Powder city","State":"Oregon","State_Abbrev":"OR"},
"geometry":{ "type": "Point", "coordinates": [-117.9204,45.030008]}},
{ "type": "Feature", "properties": {"Name":"Nyssa city","State":"Oregon","State_Abbrev":"OR"},
"geometry":{ "type": "Point", "coordinates": [-116.9956,43.87788]}},
{ "type": "Feature", "properties": {"Name":"Oak Grove CDP","State":"Oregon","State_Abbrev":"OR"},
"geometry":{ "type": "Point", "coordinates": [-122.634446,45.412653]}},
{ "type": "Feature", "properties": {"Name":"Oak Hills CDP","State":"Oregon","State_Abbrev":"OR"},
"geometry":{ "type": "Point", "coordinates": [-122.841291,45.540388]}},
{ "type": "Feature", "properties": {"Name":"Oakland city","State":"Oregon","State_Abbrev":"OR"},
"geometry":{ "type": "Point", "coordinates": [-123.297168,43.422998]}},
{ "type": "Feature", "properties": {"Name":"Oakridge city","State":"Oregon","State_Abbrev":"OR"},
"geometry":{ "type": "Point", "coordinates": [-122.465026,43.745052]}},
{ "type": "Feature", "properties": {"Name":"Oatfield CDP","State":"Oregon","State_Abbrev":"OR"},
"geometry":{ "type": "Point", "coordinates": [-122.594086,45.412539]}},
{ "type": "Feature", "properties": {"Name":"O'Brien CDP","State":"Oregon","State_Abbrev":"OR"},
"geometry":{ "type": "Point", "coordinates": [-123.704571,42.079926]}},
{ "type": "Feature", "properties": {"Name":"Oceanside CDP","State":"Oregon","State_Abbrev":"OR"},
"geometry":{ "type": "Point", "coordinates": [-123.961265,45.454901]}},
{ "type": "Feature", "properties": {"Name":"Ochoco West CDP","State":"Oregon","State_Abbrev":"OR"},
"geometry":{ "type": "Point", "coordinates": [-120.92083,44.403269]}},
{ "type": "Feature", "properties": {"Name":"Odell CDP","State":"Oregon","State_Abbrev":"OR"},
"geometry":{ "type": "Point", "coordinates": [-121.552231,45.635462]}},
{ "type": "Feature", "properties": {"Name":"Ontario city","State":"Oregon","State_Abbrev":"OR"},
"geometry":{ "type": "Point", "coordinates": [-116.976018,44.025893]}},
{ "type": "Feature", "properties": {"Name":"Oregon City city","State":"Oregon","State_Abbrev":"OR"},
"geometry":{ "type": "Point", "coordinates": [-122.592327,45.341314]}},
{ "type": "Feature", "properties": {"Name":"Oregon Shores CDP","State":"Oregon","State_Abbrev":"OR"},
"geometry":{ "type": "Point", "coordinates": [-121.920711,42.538031]}},
{ "type": "Feature", "properties": {"Name":"Orient CDP","State":"Oregon","State_Abbrev":"OR"},
"geometry":{ "type": "Point", "coordinates": [-122.354978,45.4694]}},
{ "type": "Feature", "properties": {"Name":"Pacific City CDP","State":"Oregon","State_Abbrev":"OR"},
"geometry":{ "type": "Point", "coordinates": [-123.954237,45.205273]}},
{ "type": "Feature", "properties": {"Name":"Paisley city","State":"Oregon","State_Abbrev":"OR"},
"geometry":{ "type": "Point", "coordinates": [-120.545275,42.692535]}},
{ "type": "Feature", "properties": {"Name":"Parkdale CDP","State":"Oregon","State_Abbrev":"OR"},
"geometry":{ "type": "Point", "coordinates": [-121.592076,45.513042]}},
{ "type": "Feature", "properties": {"Name":"Pendleton city","State":"Oregon","State_Abbrev":"OR"},
"geometry":{ "type": "Point", "coordinates": [-118.819755,45.675609]}},
{ "type": "Feature", "properties": {"Name":"Peoria CDP","State":"Oregon","State_Abbrev":"OR"},
"geometry":{ "type": "Point", "coordinates": [-123.204252,44.450749]}},
{ "type": "Feature", "properties": {"Name":"Philomath city","State":"Oregon","State_Abbrev":"OR"},
"geometry":{ "type": "Point", "coordinates": [-123.359527,44.541973]}},
{ "type": "Feature", "properties": {"Name":"Phoenix city","State":"Oregon","State_Abbrev":"OR"},
"geometry":{ "type": "Point", "coordinates": [-122.815291,42.274849]}},
{ "type": "Feature", "properties": {"Name":"Pilot Rock city","State":"Oregon","State_Abbrev":"OR"},
"geometry":{ "type": "Point", "coordinates": [-118.830157,45.492793]}},
{ "type": "Feature", "properties": {"Name":"Pine Grove CDP","State":"Oregon","State_Abbrev":"OR"},
"geometry":{ "type": "Point", "coordinates": [-121.355334,45.11351]}},
{ "type": "Feature", "properties": {"Name":"Pine Hollow CDP","State":"Oregon","State_Abbrev":"OR"},
"geometry":{ "type": "Point", "coordinates": [-121.283705,45.235235]}},
{ "type": "Feature", "properties": {"Name":"Pistol River CDP","State":"Oregon","State_Abbrev":"OR"},
"geometry":{ "type": "Point", "coordinates": [-124.398775,42.287853]}},
{ "type": "Feature", "properties": {"Name":"Pleasant Valley CDP","State":"Oregon","State_Abbrev":"OR"},
"geometry":{ "type": "Point", "coordinates": [-123.795172,45.376125]}},
{ "type": "Feature", "properties": {"Name":"Plush CDP","State":"Oregon","State_Abbrev":"OR"},
"geometry":{ "type": "Point", "coordinates": [-119.899312,42.405043]}},
{ "type": "Feature", "properties": {"Name":"Portland city","State":"Oregon","State_Abbrev":"OR"},
"geometry":{ "type": "Point", "coordinates": [-122.649971,45.536951]}},
{ "type": "Feature", "properties": {"Name":"Port Orford city","State":"Oregon","State_Abbrev":"OR"},
"geometry":{ "type": "Point", "coordinates": [-124.498118,42.749276]}},
{ "type": "Feature", "properties": {"Name":"Powers city","State":"Oregon","State_Abbrev":"OR"},
"geometry":{ "type": "Point", "coordinates": [-124.076248,42.885003]}},
{ "type": "Feature", "properties": {"Name":"Prairie City city","State":"Oregon","State_Abbrev":"OR"},
"geometry":{ "type": "Point", "coordinates": [-118.70938,44.461101]}},
{ "type": "Feature", "properties": {"Name":"Prescott city","State":"Oregon","State_Abbrev":"OR"},
"geometry":{ "type": "Point", "coordinates": [-122.887077,46.047605]}},
{ "type": "Feature", "properties": {"Name":"Prineville city","State":"Oregon","State_Abbrev":"OR"},
"geometry":{ "type": "Point", "coordinates": [-120.860718,44.29854]}},
{ "type": "Feature", "properties": {"Name":"Prineville Lake Acres CDP","State":"Oregon","State_Abbrev":"OR"},
"geometry":{ "type": "Point", "coordinates": [-120.788884,44.167579]}},
{ "type": "Feature", "properties": {"Name":"Pronghorn CDP","State":"Oregon","State_Abbrev":"OR"},
"geometry":{ "type": "Point", "coordinates": [-121.181724,44.188124]}},
{ "type": "Feature", "properties": {"Name":"Prospect CDP","State":"Oregon","State_Abbrev":"OR"},
"geometry":{ "type": "Point", "coordinates": [-122.471115,42.754675]}},
{ "type": "Feature", "properties": {"Name":"Rainier city","State":"Oregon","State_Abbrev":"OR"},
"geometry":{ "type": "Point", "coordinates": [-122.941401,46.071388]}},
{ "type": "Feature", "properties": {"Name":"Raleigh Hills CDP","State":"Oregon","State_Abbrev":"OR"},
"geometry":{ "type": "Point", "coordinates": [-122.756678,45.485095]}},
{ "type": "Feature", "properties": {"Name":"Redmond city","State":"Oregon","State_Abbrev":"OR"},
"geometry":{ "type": "Point", "coordinates": [-121.182425,44.260694]}},
{ "type": "Feature", "properties": {"Name":"Redwood CDP","State":"Oregon","State_Abbrev":"OR"},
"geometry":{ "type": "Point", "coordinates": [-123.392828,42.42091]}},
{ "type": "Feature", "properties": {"Name":"Reedsport city","State":"Oregon","State_Abbrev":"OR"},
"geometry":{ "type": "Point", "coordinates": [-124.111918,43.698854]}},
{ "type": "Feature", "properties": {"Name":"Rhododendron CDP","State":"Oregon","State_Abbrev":"OR"},
"geometry":{ "type": "Point", "coordinates": [-121.847917,45.305321]}},
{ "type": "Feature", "properties": {"Name":"Richland city","State":"Oregon","State_Abbrev":"OR"},
"geometry":{ "type": "Point", "coordinates": [-117.168576,44.769508]}},
{ "type": "Feature", "properties": {"Name":"Rickreall CDP","State":"Oregon","State_Abbrev":"OR"},
"geometry":{ "type": "Point", "coordinates": [-123.234362,44.931926]}},
{ "type": "Feature", "properties": {"Name":"Riddle city","State":"Oregon","State_Abbrev":"OR"},
"geometry":{ "type": "Point", "coordinates": [-123.364485,42.954177]}},
{ "type": "Feature", "properties": {"Name":"Rivergrove city","State":"Oregon","State_Abbrev":"OR"},
"geometry":{ "type": "Point", "coordinates": [-122.733525,45.385167]}},
{ "type": "Feature", "properties": {"Name":"River Point CDP","State":"Oregon","State_Abbrev":"OR"},
"geometry":{ "type": "Point", "coordinates": [-123.80488,46.144397]}},
{ "type": "Feature", "properties": {"Name":"River Road CDP","State":"Oregon","State_Abbrev":"OR"},
"geometry":{ "type": "Point", "coordinates": [-123.132101,44.083586]}},
{ "type": "Feature", "properties": {"Name":"Riverside CDP","State":"Oregon","State_Abbrev":"OR"},
"geometry":{ "type": "Point", "coordinates": [-118.736816,45.676815]}},
{ "type": "Feature", "properties": {"Name":"Rockaway Beach city","State":"Oregon","State_Abbrev":"OR"},
"geometry":{ "type": "Point", "coordinates": [-123.938885,45.617027]}},
{ "type": "Feature", "properties": {"Name":"Rockcreek CDP","State":"Oregon","State_Abbrev":"OR"},
"geometry":{ "type": "Point", "coordinates": [-122.875945,45.552516]}},
{ "type": "Feature", "properties": {"Name":"Rocky Point CDP","State":"Oregon","State_Abbrev":"OR"},
"geometry":{ "type": "Point", "coordinates": [-122.118865,42.433579]}},
{ "type": "Feature", "properties": {"Name":"Rogue River city","State":"Oregon","State_Abbrev":"OR"},
"geometry":{ "type": "Point", "coordinates": [-123.168226,42.435534]}},
{ "type": "Feature", "properties": {"Name":"Roseburg city","State":"Oregon","State_Abbrev":"OR"},
"geometry":{ "type": "Point", "coordinates": [-123.352037,43.223604]}},
{ "type": "Feature", "properties": {"Name":"Roseburg North CDP","State":"Oregon","State_Abbrev":"OR"},
"geometry":{ "type": "Point", "coordinates": [-123.34746,43.269577]}},
{ "type": "Feature", "properties": {"Name":"Rose Lodge CDP","State":"Oregon","State_Abbrev":"OR"},
"geometry":{ "type": "Point", "coordinates": [-123.888223,45.018708]}},
{ "type": "Feature", "properties": {"Name":"Rowena CDP","State":"Oregon","State_Abbrev":"OR"},
"geometry":{ "type": "Point", "coordinates": [-121.274947,45.670108]}},
{ "type": "Feature", "properties": {"Name":"Ruch CDP","State":"Oregon","State_Abbrev":"OR"},
"geometry":{ "type": "Point", "coordinates": [-123.040322,42.231368]}},
{ "type": "Feature", "properties": {"Name":"Rufus city","State":"Oregon","State_Abbrev":"OR"},
"geometry":{ "type": "Point", "coordinates": [-120.746072,45.689049]}},
{ "type": "Feature", "properties": {"Name":"Running Y Ranch CDP","State":"Oregon","State_Abbrev":"OR"},
"geometry":{ "type": "Point", "coordinates": [-121.874966,42.273266]}},
{ "type": "Feature", "properties": {"Name":"St. Helens city","State":"Oregon","State_Abbrev":"OR"},
"geometry":{ "type": "Point", "coordinates": [-122.816279,45.856821]}},
{ "type": "Feature", "properties": {"Name":"St. Paul city","State":"Oregon","State_Abbrev":"OR"},
"geometry":{ "type": "Point", "coordinates": [-122.977166,45.212249]}},
{ "type": "Feature", "properties": {"Name":"Salem city","State":"Oregon","State_Abbrev":"OR"},
"geometry":{ "type": "Point", "coordinates": [-123.023007,44.9239]}},
{ "type": "Feature", "properties": {"Name":"Sandy city","State":"Oregon","State_Abbrev":"OR"},
"geometry":{ "type": "Point", "coordinates": [-122.268802,45.398073]}},
{ "type": "Feature", "properties": {"Name":"San Marine CDP","State":"Oregon","State_Abbrev":"OR"},
"geometry":{ "type": "Point", "coordinates": [-124.093996,44.35473]}},
{ "type": "Feature", "properties": {"Name":"Santa Clara CDP","State":"Oregon","State_Abbrev":"OR"},
"geometry":{ "type": "Point", "coordinates": [-123.134283,44.115022]}},
{ "type": "Feature", "properties": {"Name":"Saunders Lake CDP","State":"Oregon","State_Abbrev":"OR"},
"geometry":{ "type": "Point", "coordinates": [-124.211737,43.519681]}},
{ "type": "Feature", "properties": {"Name":"Scappoose city","State":"Oregon","State_Abbrev":"OR"},
"geometry":{ "type": "Point", "coordinates": [-122.873097,45.758079]}},
{ "type": "Feature", "properties": {"Name":"Scio city","State":"Oregon","State_Abbrev":"OR"},
"geometry":{ "type": "Point", "coordinates": [-122.851008,44.704296]}},
{ "type": "Feature", "properties": {"Name":"Scotts Mills city","State":"Oregon","State_Abbrev":"OR"},
"geometry":{ "type": "Point", "coordinates": [-122.668923,45.04103]}},
{ "type": "Feature", "properties": {"Name":"Seaside city","State":"Oregon","State_Abbrev":"OR"},
"geometry":{ "type": "Point", "coordinates": [-123.920958,45.989019]}},
{ "type": "Feature", "properties": {"Name":"Selma CDP","State":"Oregon","State_Abbrev":"OR"},
"geometry":{ "type": "Point", "coordinates": [-123.615063,42.279724]}},
{ "type": "Feature", "properties": {"Name":"Seneca city","State":"Oregon","State_Abbrev":"OR"},
"geometry":{ "type": "Point", "coordinates": [-118.97627,44.135219]}},
{ "type": "Feature", "properties": {"Name":"Seventh Mountain CDP","State":"Oregon","State_Abbrev":"OR"},
"geometry":{ "type": "Point", "coordinates": [-121.383738,44.004302]}},
{ "type": "Feature", "properties": {"Name":"Shady Cove city","State":"Oregon","State_Abbrev":"OR"},
"geometry":{ "type": "Point", "coordinates": [-122.819377,42.605321]}},
{ "type": "Feature", "properties": {"Name":"Shaniko city","State":"Oregon","State_Abbrev":"OR"},
"geometry":{ "type": "Point", "coordinates": [-120.752151,45.003653]}},
{ "type": "Feature", "properties": {"Name":"Shedd CDP","State":"Oregon","State_Abbrev":"OR"},
"geometry":{ "type": "Point", "coordinates": [-123.111911,44.457955]}},
{ "type": "Feature", "properties": {"Name":"Sheridan city","State":"Oregon","State_Abbrev":"OR"},
"geometry":{ "type": "Point", "coordinates": [-123.398088,45.095933]}},
{ "type": "Feature", "properties": {"Name":"Sherwood city","State":"Oregon","State_Abbrev":"OR"},
"geometry":{ "type": "Point", "coordinates": [-122.842392,45.35945]}},
{ "type": "Feature", "properties": {"Name":"Siletz city","State":"Oregon","State_Abbrev":"OR"},
"geometry":{ "type": "Point", "coordinates": [-123.9187,44.721834]}},
{ "type": "Feature", "properties": {"Name":"Silver Lake CDP","State":"Oregon","State_Abbrev":"OR"},
"geometry":{ "type": "Point", "coordinates": [-121.049471,43.12639]}},
{ "type": "Feature", "properties": {"Name":"Silverton city","State":"Oregon","State_Abbrev":"OR"},
"geometry":{ "type": "Point", "coordinates": [-122.780928,45.003391]}},
{ "type": "Feature", "properties": {"Name":"Sisters city","State":"Oregon","State_Abbrev":"OR"},
"geometry":{ "type": "Point", "coordinates": [-121.552975,44.292382]}},
{ "type": "Feature", "properties": {"Name":"Sodaville city","State":"Oregon","State_Abbrev":"OR"},
"geometry":{ "type": "Point", "coordinates": [-122.869078,44.483042]}},
{ "type": "Feature", "properties": {"Name":"South Lebanon CDP","State":"Oregon","State_Abbrev":"OR"},
"geometry":{ "type": "Point", "coordinates": [-122.900579,44.506392]}},
{ "type": "Feature", "properties": {"Name":"Sportsmans Park CDP","State":"Oregon","State_Abbrev":"OR"},
"geometry":{ "type": "Point", "coordinates": [-121.39562,45.219499]}},
{ "type": "Feature", "properties": {"Name":"Sprague River CDP","State":"Oregon","State_Abbrev":"OR"},
"geometry":{ "type": "Point", "coordinates": [-121.502141,42.456624]}},
{ "type": "Feature", "properties": {"Name":"Spray town","State":"Oregon","State_Abbrev":"OR"},
"geometry":{ "type": "Point", "coordinates": [-119.794149,44.833108]}},
{ "type": "Feature", "properties": {"Name":"Springfield city","State":"Oregon","State_Abbrev":"OR"},
"geometry":{ "type": "Point", "coordinates": [-122.981134,44.053786]}},
{ "type": "Feature", "properties": {"Name":"Stafford CDP","State":"Oregon","State_Abbrev":"OR"},
"geometry":{ "type": "Point", "coordinates": [-122.676463,45.382617]}},
{ "type": "Feature", "properties": {"Name":"Stanfield city","State":"Oregon","State_Abbrev":"OR"},
"geometry":{ "type": "Point", "coordinates": [-119.21613,45.782259]}},
{ "type": "Feature", "properties": {"Name":"Stayton city","State":"Oregon","State_Abbrev":"OR"},
"geometry":{ "type": "Point", "coordinates": [-122.799814,44.805514]}},
{ "type": "Feature", "properties": {"Name":"Sublimity city","State":"Oregon","State_Abbrev":"OR"},
"geometry":{ "type": "Point", "coordinates": [-122.792302,44.829407]}},
{ "type": "Feature", "properties": {"Name":"Summerville town","State":"Oregon","State_Abbrev":"OR"},
"geometry":{ "type": "Point", "coordinates": [-118.004065,45.489708]}},
{ "type": "Feature", "properties": {"Name":"Summit CDP","State":"Oregon","State_Abbrev":"OR"},
"geometry":{ "type": "Point", "coordinates": [-123.576709,44.636046]}},
{ "type": "Feature", "properties": {"Name":"Sumpter city","State":"Oregon","State_Abbrev":"OR"},
"geometry":{ "type": "Point", "coordinates": [-118.197461,44.743547]}},
{ "type": "Feature", "properties": {"Name":"Sunriver CDP","State":"Oregon","State_Abbrev":"OR"},
"geometry":{ "type": "Point", "coordinates": [-121.434971,43.882123]}},
{ "type": "Feature", "properties": {"Name":"Sutherlin city","State":"Oregon","State_Abbrev":"OR"},
"geometry":{ "type": "Point", "coordinates": [-123.322673,43.386245]}},
{ "type": "Feature", "properties": {"Name":"Svensen CDP","State":"Oregon","State_Abbrev":"OR"},
"geometry":{ "type": "Point", "coordinates": [-123.655415,46.156421]}},
{ "type": "Feature", "properties": {"Name":"Sweet Home city","State":"Oregon","State_Abbrev":"OR"},
"geometry":{ "type": "Point", "coordinates": [-122.7015,44.404011]}},
{ "type": "Feature", "properties": {"Name":"Takilma CDP","State":"Oregon","State_Abbrev":"OR"},
"geometry":{ "type": "Point", "coordinates": [-123.622313,42.040835]}},
{ "type": "Feature", "properties": {"Name":"Talent city","State":"Oregon","State_Abbrev":"OR"},
"geometry":{ "type": "Point", "coordinates": [-122.781158,42.240464]}},
{ "type": "Feature", "properties": {"Name":"Tangent city","State":"Oregon","State_Abbrev":"OR"},
"geometry":{ "type": "Point", "coordinates": [-123.110936,44.547747]}},
{ "type": "Feature", "properties": {"Name":"Terrebonne CDP","State":"Oregon","State_Abbrev":"OR"},
"geometry":{ "type": "Point", "coordinates": [-121.18083,44.353349]}},
{ "type": "Feature", "properties": {"Name":"Tetherow CDP","State":"Oregon","State_Abbrev":"OR"},
"geometry":{ "type": "Point", "coordinates": [-121.366544,44.038944]}},
{ "type": "Feature", "properties": {"Name":"The Dalles city","State":"Oregon","State_Abbrev":"OR"},
"geometry":{ "type": "Point", "coordinates": [-121.152411,45.598386]}},
{ "type": "Feature", "properties": {"Name":"Three Rivers CDP","State":"Oregon","State_Abbrev":"OR"},
"geometry":{ "type": "Point", "coordinates": [-121.46463,43.836558]}},
{ "type": "Feature", "properties": {"Name":"Tigard city","State":"Oregon","State_Abbrev":"OR"},
"geometry":{ "type": "Point", "coordinates": [-122.784388,45.422921]}},
{ "type": "Feature", "properties": {"Name":"Tillamook city","State":"Oregon","State_Abbrev":"OR"},
"geometry":{ "type": "Point", "coordinates": [-123.833147,45.456124]}},
{ "type": "Feature", "properties": {"Name":"Toledo city","State":"Oregon","State_Abbrev":"OR"},
"geometry":{ "type": "Point", "coordinates": [-123.933704,44.619748]}},
{ "type": "Feature", "properties": {"Name":"Trail CDP","State":"Oregon","State_Abbrev":"OR"},
"geometry":{ "type": "Point", "coordinates": [-122.812825,42.666479]}},
{ "type": "Feature", "properties": {"Name":"Trent CDP","State":"Oregon","State_Abbrev":"OR"},
"geometry":{ "type": "Point", "coordinates": [-122.857848,43.943618]}},
{ "type": "Feature", "properties": {"Name":"Tri-City CDP","State":"Oregon","State_Abbrev":"OR"},
"geometry":{ "type": "Point", "coordinates": [-123.299866,42.989349]}},
{ "type": "Feature", "properties": {"Name":"Troutdale city","State":"Oregon","State_Abbrev":"OR"},
"geometry":{ "type": "Point", "coordinates": [-122.392673,45.53922]}},
{ "type": "Feature", "properties": {"Name":"Tualatin city","State":"Oregon","State_Abbrev":"OR"},
"geometry":{ "type": "Point", "coordinates": [-122.774679,45.376858]}},
{ "type": "Feature", "properties": {"Name":"Tumalo CDP","State":"Oregon","State_Abbrev":"OR"},
"geometry":{ "type": "Point", "coordinates": [-121.327985,44.156065]}},
{ "type": "Feature", "properties": {"Name":"Turner city","State":"Oregon","State_Abbrev":"OR"},
"geometry":{ "type": "Point", "coordinates": [-122.951336,44.848455]}},
{ "type": "Feature", "properties": {"Name":"Tutuilla CDP","State":"Oregon","State_Abbrev":"OR"},
"geometry":{ "type": "Point", "coordinates": [-118.706494,45.614178]}},
{ "type": "Feature", "properties": {"Name":"Tygh Valley CDP","State":"Oregon","State_Abbrev":"OR"},
"geometry":{ "type": "Point", "coordinates": [-121.169278,45.241802]}},
{ "type": "Feature", "properties": {"Name":"Ukiah city","State":"Oregon","State_Abbrev":"OR"},
"geometry":{ "type": "Point", "coordinates": [-118.932984,45.134444]}},
{ "type": "Feature", "properties": {"Name":"Umapine CDP","State":"Oregon","State_Abbrev":"OR"},
"geometry":{ "type": "Point", "coordinates": [-118.500938,45.975929]}},
{ "type": "Feature", "properties": {"Name":"Umatilla city","State":"Oregon","State_Abbrev":"OR"},
"geometry":{ "type": "Point", "coordinates": [-119.331979,45.917612]}},
{ "type": "Feature", "properties": {"Name":"Union city","State":"Oregon","State_Abbrev":"OR"},
"geometry":{ "type": "Point", "coordinates": [-117.867864,45.208913]}},
{ "type": "Feature", "properties": {"Name":"Unity city","State":"Oregon","State_Abbrev":"OR"},
"geometry":{ "type": "Point", "coordinates": [-118.186298,44.451573]}},
{ "type": "Feature", "properties": {"Name":"Vale city","State":"Oregon","State_Abbrev":"OR"},
"geometry":{ "type": "Point", "coordinates": [-117.241749,43.983953]}},
{ "type": "Feature", "properties": {"Name":"Veneta city","State":"Oregon","State_Abbrev":"OR"},
"geometry":{ "type": "Point", "coordinates": [-123.351335,44.04715]}},
{ "type": "Feature", "properties": {"Name":"Vernonia city","State":"Oregon","State_Abbrev":"OR"},
"geometry":{ "type": "Point", "coordinates": [-123.183624,45.864032]}},
{ "type": "Feature", "properties": {"Name":"Waldport city","State":"Oregon","State_Abbrev":"OR"},
"geometry":{ "type": "Point", "coordinates": [-124.066234,44.418366]}},
{ "type": "Feature", "properties": {"Name":"Wallowa city","State":"Oregon","State_Abbrev":"OR"},
"geometry":{ "type": "Point", "coordinates": [-117.528575,45.57035]}},
{ "type": "Feature", "properties": {"Name":"Wallowa Lake CDP","State":"Oregon","State_Abbrev":"OR"},
"geometry":{ "type": "Point", "coordinates": [-117.215248,45.300501]}},
{ "type": "Feature", "properties": {"Name":"Wamic CDP","State":"Oregon","State_Abbrev":"OR"},
"geometry":{ "type": "Point", "coordinates": [-121.292667,45.225619]}},
{ "type": "Feature", "properties": {"Name":"Warm Springs CDP","State":"Oregon","State_Abbrev":"OR"},
"geometry":{ "type": "Point", "coordinates": [-121.247653,44.791278]}},
{ "type": "Feature", "properties": {"Name":"Warren CDP","State":"Oregon","State_Abbrev":"OR"},
"geometry":{ "type": "Point", "coordinates": [-122.882741,45.816024]}},
{ "type": "Feature", "properties": {"Name":"Warrenton city","State":"Oregon","State_Abbrev":"OR"},
"geometry":{ "type": "Point", "coordinates": [-123.922653,46.170222]}},
{ "type": "Feature", "properties": {"Name":"Wasco city","State":"Oregon","State_Abbrev":"OR"},
"geometry":{ "type": "Point", "coordinates": [-120.697464,45.591657]}},
{ "type": "Feature", "properties": {"Name":"Waterloo town","State":"Oregon","State_Abbrev":"OR"},
"geometry":{ "type": "Point", "coordinates": [-122.824252,44.494654]}},
{ "type": "Feature", "properties": {"Name":"Wedderburn CDP","State":"Oregon","State_Abbrev":"OR"},
"geometry":{ "type": "Point", "coordinates": [-124.420148,42.434187]}},
{ "type": "Feature", "properties": {"Name":"Westfir city","State":"Oregon","State_Abbrev":"OR"},
"geometry":{ "type": "Point", "coordinates": [-122.503083,43.757892]}},
{ "type": "Feature", "properties": {"Name":"West Haven-Sylvan CDP","State":"Oregon","State_Abbrev":"OR"},
"geometry":{ "type": "Point", "coordinates": [-122.76561,45.516422]}},
{ "type": "Feature", "properties": {"Name":"West Linn city","State":"Oregon","State_Abbrev":"OR"},
"geometry":{ "type": "Point", "coordinates": [-122.6389,45.366592]}},
{ "type": "Feature", "properties": {"Name":"Weston city","State":"Oregon","State_Abbrev":"OR"},
"geometry":{ "type": "Point", "coordinates": [-118.425846,45.816438]}},
{ "type": "Feature", "properties": {"Name":"Westport CDP","State":"Oregon","State_Abbrev":"OR"},
"geometry":{ "type": "Point", "coordinates": [-123.37144,46.130373]}},
{ "type": "Feature", "properties": {"Name":"West Scio CDP","State":"Oregon","State_Abbrev":"OR"},
"geometry":{ "type": "Point", "coordinates": [-122.88122,44.709831]}},
{ "type": "Feature", "properties": {"Name":"West Slope CDP","State":"Oregon","State_Abbrev":"OR"},
"geometry":{ "type": "Point", "coordinates": [-122.773018,45.496229]}},
{ "type": "Feature", "properties": {"Name":"Wheeler city","State":"Oregon","State_Abbrev":"OR"},
"geometry":{ "type": "Point", "coordinates": [-123.887071,45.687317]}},
{ "type": "Feature", "properties": {"Name":"White City CDP","State":"Oregon","State_Abbrev":"OR"},
"geometry":{ "type": "Point", "coordinates": [-122.832231,42.431667]}},
{ "type": "Feature", "properties": {"Name":"Willamina city","State":"Oregon","State_Abbrev":"OR"},
"geometry":{ "type": "Point", "coordinates": [-123.48487,45.078649]}},
{ "type": "Feature", "properties": {"Name":"Williams CDP","State":"Oregon","State_Abbrev":"OR"},
"geometry":{ "type": "Point", "coordinates": [-123.292208,42.219433]}},
{ "type": "Feature", "properties": {"Name":"Wilsonville city","State":"Oregon","State_Abbrev":"OR"},
"geometry":{ "type": "Point", "coordinates": [-122.77092,45.311262]}},
{ "type": "Feature", "properties": {"Name":"Wimer CDP","State":"Oregon","State_Abbrev":"OR"},
"geometry":{ "type": "Point", "coordinates": [-123.145949,42.552527]}},
{ "type": "Feature", "properties": {"Name":"Winchester Bay CDP","State":"Oregon","State_Abbrev":"OR"},
"geometry":{ "type": "Point", "coordinates": [-124.186938,43.669982]}},
{ "type": "Feature", "properties": {"Name":"Winston city","State":"Oregon","State_Abbrev":"OR"},
"geometry":{ "type": "Point", "coordinates": [-123.42453,43.120109]}},
{ "type": "Feature", "properties": {"Name":"Woodburn city","State":"Oregon","State_Abbrev":"OR"},
"geometry":{ "type": "Point", "coordinates": [-122.860401,45.147266]}},
{ "type": "Feature", "properties": {"Name":"Wood Village city","State":"Oregon","State_Abbrev":"OR"},
"geometry":{ "type": "Point", "coordinates": [-122.420493,45.535789]}},
{ "type": "Feature", "properties": {"Name":"Yachats city","State":"Oregon","State_Abbrev":"OR"},
"geometry":{ "type": "Point", "coordinates": [-124.101392,44.311758]}},
{ "type": "Feature", "properties": {"Name":"Yamhill city","State":"Oregon","State_Abbrev":"OR"},
"geometry":{ "type": "Point", "coordinates": [-123.184471,45.34083]}},
{ "type": "Feature", "properties": {"Name":"Yoncalla city","State":"Oregon","State_Abbrev":"OR"},
"geometry":{ "type": "Point", "coordinates": [-123.292372,43.600247]}}]}
