{"type":"FeatureCollection","features":[
{ "type": "Feature", "properties": {"Name":"Aaronsburg CDP","State":"Pennsylvania","State_Abbrev":"PA"},
"geometry":{ "type": "Point", "coordinates": [-77.451316,40.904233]}},
{ "type": "Feature", "properties": {"Name":"Aaronsburg CDP","State":"Pennsylvania","State_Abbrev":"PA"},
"geometry":{ "type": "Point", "coordinates": [-80.000926,40.010823]}},
{ "type": "Feature", "properties": {"Name":"Abbottstown borough","State":"Pennsylvania","State_Abbrev":"PA"},
"geometry":{ "type": "Point", "coordinates": [-76.992777,39.881766]}},
{ "type": "Feature", "properties": {"Name":"Ackermanville CDP","State":"Pennsylvania","State_Abbrev":"PA"},
"geometry":{ "type": "Point", "coordinates": [-75.226474,40.83404]}},
{ "type": "Feature", "properties": {"Name":"Adamsburg borough","State":"Pennsylvania","State_Abbrev":"PA"},
"geometry":{ "type": "Point", "coordinates": [-79.654279,40.312434]}},
{ "type": "Feature", "properties": {"Name":"Adamstown borough","State":"Pennsylvania","State_Abbrev":"PA"},
"geometry":{ "type": "Point", "coordinates": [-76.064701,40.244477]}},
{ "type": "Feature", "properties": {"Name":"Adamsville CDP","State":"Pennsylvania","State_Abbrev":"PA"},
"geometry":{ "type": "Point", "coordinates": [-80.371471,41.511107]}},
{ "type": "Feature", "properties": {"Name":"Addison borough","State":"Pennsylvania","State_Abbrev":"PA"},
"geometry":{ "type": "Point", "coordinates": [-79.334349,39.745247]}},
{ "type": "Feature", "properties": {"Name":"Akron borough","State":"Pennsylvania","State_Abbrev":"PA"},
"geometry":{ "type": "Point", "coordinates": [-76.203373,40.157809]}},
{ "type": "Feature", "properties": {"Name":"Alba borough","State":"Pennsylvania","State_Abbrev":"PA"},
"geometry":{ "type": "Point", "coordinates": [-76.827636,41.705934]}},
{ "type": "Feature", "properties": {"Name":"Albion borough","State":"Pennsylvania","State_Abbrev":"PA"},
"geometry":{ "type": "Point", "coordinates": [-80.36478,41.890023]}},
{ "type": "Feature", "properties": {"Name":"Albrightsville CDP","State":"Pennsylvania","State_Abbrev":"PA"},
"geometry":{ "type": "Point", "coordinates": [-75.606829,41.01168]}},
{ "type": "Feature", "properties": {"Name":"Alburtis borough","State":"Pennsylvania","State_Abbrev":"PA"},
"geometry":{ "type": "Point", "coordinates": [-75.600226,40.506632]}},
{ "type": "Feature", "properties": {"Name":"Aldan borough","State":"Pennsylvania","State_Abbrev":"PA"},
"geometry":{ "type": "Point", "coordinates": [-75.288119,39.92241]}},
{ "type": "Feature", "properties": {"Name":"Alexandria borough","State":"Pennsylvania","State_Abbrev":"PA"},
"geometry":{ "type": "Point", "coordinates": [-78.099883,40.558438]}},
{ "type": "Feature", "properties": {"Name":"Alfarata CDP","State":"Pennsylvania","State_Abbrev":"PA"},
"geometry":{ "type": "Point", "coordinates": [-77.455851,40.661867]}},
{ "type": "Feature", "properties": {"Name":"Aliquippa city","State":"Pennsylvania","State_Abbrev":"PA"},
"geometry":{ "type": "Point", "coordinates": [-80.255162,40.615827]}},
{ "type": "Feature", "properties": {"Name":"Alleghenyville CDP","State":"Pennsylvania","State_Abbrev":"PA"},
"geometry":{ "type": "Point", "coordinates": [-75.97757,40.234057]}},
{ "type": "Feature", "properties": {"Name":"Allenport CDP","State":"Pennsylvania","State_Abbrev":"PA"},
"geometry":{ "type": "Point", "coordinates": [-77.874092,40.367646]}},
{ "type": "Feature", "properties": {"Name":"Allenport borough","State":"Pennsylvania","State_Abbrev":"PA"},
"geometry":{ "type": "Point", "coordinates": [-79.859395,40.088805]}},
{ "type": "Feature", "properties": {"Name":"Allensville CDP","State":"Pennsylvania","State_Abbrev":"PA"},
"geometry":{ "type": "Point", "coordinates": [-77.811258,40.529339]}},
{ "type": "Feature", "properties": {"Name":"Allentown city","State":"Pennsylvania","State_Abbrev":"PA"},
"geometry":{ "type": "Point", "coordinates": [-75.478393,40.593648]}},
{ "type": "Feature", "properties": {"Name":"Allenwood CDP","State":"Pennsylvania","State_Abbrev":"PA"},
"geometry":{ "type": "Point", "coordinates": [-76.898157,41.108096]}},
{ "type": "Feature", "properties": {"Name":"Allison CDP","State":"Pennsylvania","State_Abbrev":"PA"},
"geometry":{ "type": "Point", "coordinates": [-79.873134,39.985305]}},
{ "type": "Feature", "properties": {"Name":"Allison Park CDP","State":"Pennsylvania","State_Abbrev":"PA"},
"geometry":{ "type": "Point", "coordinates": [-79.96027,40.573012]}},
{ "type": "Feature", "properties": {"Name":"Allport CDP","State":"Pennsylvania","State_Abbrev":"PA"},
"geometry":{ "type": "Point", "coordinates": [-78.204948,40.966539]}},
{ "type": "Feature", "properties": {"Name":"Almedia CDP","State":"Pennsylvania","State_Abbrev":"PA"},
"geometry":{ "type": "Point", "coordinates": [-76.384604,41.014286]}},
{ "type": "Feature", "properties": {"Name":"Alsace Manor CDP","State":"Pennsylvania","State_Abbrev":"PA"},
"geometry":{ "type": "Point", "coordinates": [-75.855654,40.397188]}},
{ "type": "Feature", "properties": {"Name":"Altamont CDP","State":"Pennsylvania","State_Abbrev":"PA"},
"geometry":{ "type": "Point", "coordinates": [-76.216932,40.784965]}},
{ "type": "Feature", "properties": {"Name":"Altoona city","State":"Pennsylvania","State_Abbrev":"PA"},
"geometry":{ "type": "Point", "coordinates": [-78.401114,40.508052]}},
{ "type": "Feature", "properties": {"Name":"Alverda CDP","State":"Pennsylvania","State_Abbrev":"PA"},
"geometry":{ "type": "Point", "coordinates": [-78.858396,40.634542]}},
{ "type": "Feature", "properties": {"Name":"Ambler borough","State":"Pennsylvania","State_Abbrev":"PA"},
"geometry":{ "type": "Point", "coordinates": [-75.221532,40.156385]}},
{ "type": "Feature", "properties": {"Name":"Ambridge borough","State":"Pennsylvania","State_Abbrev":"PA"},
"geometry":{ "type": "Point", "coordinates": [-80.226911,40.591646]}},
{ "type": "Feature", "properties": {"Name":"Amity Gardens CDP","State":"Pennsylvania","State_Abbrev":"PA"},
"geometry":{ "type": "Point", "coordinates": [-75.730789,40.269351]}},
{ "type": "Feature", "properties": {"Name":"Ancient Oaks CDP","State":"Pennsylvania","State_Abbrev":"PA"},
"geometry":{ "type": "Point", "coordinates": [-75.58578,40.536139]}},
{ "type": "Feature", "properties": {"Name":"Annville CDP","State":"Pennsylvania","State_Abbrev":"PA"},
"geometry":{ "type": "Point", "coordinates": [-76.507684,40.332505]}},
{ "type": "Feature", "properties": {"Name":"Apollo borough","State":"Pennsylvania","State_Abbrev":"PA"},
"geometry":{ "type": "Point", "coordinates": [-79.564677,40.585004]}},
{ "type": "Feature", "properties": {"Name":"Applewold borough","State":"Pennsylvania","State_Abbrev":"PA"},
"geometry":{ "type": "Point", "coordinates": [-79.522029,40.808227]}},
{ "type": "Feature", "properties": {"Name":"Arcadia University CDP","State":"Pennsylvania","State_Abbrev":"PA"},
"geometry":{ "type": "Point", "coordinates": [-75.165241,40.091545]}},
{ "type": "Feature", "properties": {"Name":"Archbald borough","State":"Pennsylvania","State_Abbrev":"PA"},
"geometry":{ "type": "Point", "coordinates": [-75.550459,41.506438]}},
{ "type": "Feature", "properties": {"Name":"Ardmore CDP","State":"Pennsylvania","State_Abbrev":"PA"},
"geometry":{ "type": "Point", "coordinates": [-75.294739,40.003242]}},
{ "type": "Feature", "properties": {"Name":"Arendtsville borough","State":"Pennsylvania","State_Abbrev":"PA"},
"geometry":{ "type": "Point", "coordinates": [-77.299862,39.923308]}},
{ "type": "Feature", "properties": {"Name":"Aristes CDP","State":"Pennsylvania","State_Abbrev":"PA"},
"geometry":{ "type": "Point", "coordinates": [-76.340753,40.81443]}},
{ "type": "Feature", "properties": {"Name":"Arlington Heights CDP","State":"Pennsylvania","State_Abbrev":"PA"},
"geometry":{ "type": "Point", "coordinates": [-75.208272,41.000062]}},
{ "type": "Feature", "properties": {"Name":"Armagh borough","State":"Pennsylvania","State_Abbrev":"PA"},
"geometry":{ "type": "Point", "coordinates": [-79.032451,40.453632]}},
{ "type": "Feature", "properties": {"Name":"Arnold city","State":"Pennsylvania","State_Abbrev":"PA"},
"geometry":{ "type": "Point", "coordinates": [-79.765293,40.578916]}},
{ "type": "Feature", "properties": {"Name":"Arnold City CDP","State":"Pennsylvania","State_Abbrev":"PA"},
"geometry":{ "type": "Point", "coordinates": [-79.822597,40.117314]}},
{ "type": "Feature", "properties": {"Name":"Arnot CDP","State":"Pennsylvania","State_Abbrev":"PA"},
"geometry":{ "type": "Point", "coordinates": [-77.12216,41.661573]}},
{ "type": "Feature", "properties": {"Name":"Arona borough","State":"Pennsylvania","State_Abbrev":"PA"},
"geometry":{ "type": "Point", "coordinates": [-79.655373,40.268182]}},
{ "type": "Feature", "properties": {"Name":"Ashland borough","State":"Pennsylvania","State_Abbrev":"PA"},
"geometry":{ "type": "Point", "coordinates": [-76.345046,40.781106]}},
{ "type": "Feature", "properties": {"Name":"Ashley borough","State":"Pennsylvania","State_Abbrev":"PA"},
"geometry":{ "type": "Point", "coordinates": [-75.899363,41.212727]}},
{ "type": "Feature", "properties": {"Name":"Ashville borough","State":"Pennsylvania","State_Abbrev":"PA"},
"geometry":{ "type": "Point", "coordinates": [-78.547276,40.56005]}},
{ "type": "Feature", "properties": {"Name":"Aspers CDP","State":"Pennsylvania","State_Abbrev":"PA"},
"geometry":{ "type": "Point", "coordinates": [-77.227331,39.978659]}},
{ "type": "Feature", "properties": {"Name":"Aspinwall borough","State":"Pennsylvania","State_Abbrev":"PA"},
"geometry":{ "type": "Point", "coordinates": [-79.90306,40.492789]}},
{ "type": "Feature", "properties": {"Name":"Atglen borough","State":"Pennsylvania","State_Abbrev":"PA"},
"geometry":{ "type": "Point", "coordinates": [-75.974987,39.947508]}},
{ "type": "Feature", "properties": {"Name":"Athens borough","State":"Pennsylvania","State_Abbrev":"PA"},
"geometry":{ "type": "Point", "coordinates": [-76.513961,41.937461]}},
{ "type": "Feature", "properties": {"Name":"Atkinson Mills CDP","State":"Pennsylvania","State_Abbrev":"PA"},
"geometry":{ "type": "Point", "coordinates": [-77.803428,40.449273]}},
{ "type": "Feature", "properties": {"Name":"Atlantic CDP","State":"Pennsylvania","State_Abbrev":"PA"},
"geometry":{ "type": "Point", "coordinates": [-80.340579,41.505256]}},
{ "type": "Feature", "properties": {"Name":"Atlas CDP","State":"Pennsylvania","State_Abbrev":"PA"},
"geometry":{ "type": "Point", "coordinates": [-76.42833,40.797422]}},
{ "type": "Feature", "properties": {"Name":"Atlasburg CDP","State":"Pennsylvania","State_Abbrev":"PA"},
"geometry":{ "type": "Point", "coordinates": [-80.380339,40.343541]}},
{ "type": "Feature", "properties": {"Name":"Atwood borough","State":"Pennsylvania","State_Abbrev":"PA"},
"geometry":{ "type": "Point", "coordinates": [-79.252111,40.751483]}},
{ "type": "Feature", "properties": {"Name":"Auburn borough","State":"Pennsylvania","State_Abbrev":"PA"},
"geometry":{ "type": "Point", "coordinates": [-76.097239,40.595403]}},
{ "type": "Feature", "properties": {"Name":"Audubon CDP","State":"Pennsylvania","State_Abbrev":"PA"},
"geometry":{ "type": "Point", "coordinates": [-75.42802,40.13034]}},
{ "type": "Feature", "properties": {"Name":"Austin borough","State":"Pennsylvania","State_Abbrev":"PA"},
"geometry":{ "type": "Point", "coordinates": [-78.090335,41.637306]}},
{ "type": "Feature", "properties": {"Name":"Avalon borough","State":"Pennsylvania","State_Abbrev":"PA"},
"geometry":{ "type": "Point", "coordinates": [-80.068531,40.501162]}},
{ "type": "Feature", "properties": {"Name":"Avella CDP","State":"Pennsylvania","State_Abbrev":"PA"},
"geometry":{ "type": "Point", "coordinates": [-80.467216,40.273657]}},
{ "type": "Feature", "properties": {"Name":"Avis borough","State":"Pennsylvania","State_Abbrev":"PA"},
"geometry":{ "type": "Point", "coordinates": [-77.316486,41.185691]}},
{ "type": "Feature", "properties": {"Name":"Avoca borough","State":"Pennsylvania","State_Abbrev":"PA"},
"geometry":{ "type": "Point", "coordinates": [-75.742232,41.338182]}},
{ "type": "Feature", "properties": {"Name":"Avon CDP","State":"Pennsylvania","State_Abbrev":"PA"},
"geometry":{ "type": "Point", "coordinates": [-76.379283,40.342605]}},
{ "type": "Feature", "properties": {"Name":"Avondale borough","State":"Pennsylvania","State_Abbrev":"PA"},
"geometry":{ "type": "Point", "coordinates": [-75.781343,39.826215]}},
{ "type": "Feature", "properties": {"Name":"Avonia CDP","State":"Pennsylvania","State_Abbrev":"PA"},
"geometry":{ "type": "Point", "coordinates": [-80.28361,42.048505]}},
{ "type": "Feature", "properties": {"Name":"Avonmore borough","State":"Pennsylvania","State_Abbrev":"PA"},
"geometry":{ "type": "Point", "coordinates": [-79.469786,40.52715]}},
{ "type": "Feature", "properties": {"Name":"Baden borough","State":"Pennsylvania","State_Abbrev":"PA"},
"geometry":{ "type": "Point", "coordinates": [-80.222537,40.639695]}},
{ "type": "Feature", "properties": {"Name":"Baidland CDP","State":"Pennsylvania","State_Abbrev":"PA"},
"geometry":{ "type": "Point", "coordinates": [-79.954985,40.188737]}},
{ "type": "Feature", "properties": {"Name":"Baileyville CDP","State":"Pennsylvania","State_Abbrev":"PA"},
"geometry":{ "type": "Point", "coordinates": [-77.996053,40.712067]}},
{ "type": "Feature", "properties": {"Name":"Bainbridge CDP","State":"Pennsylvania","State_Abbrev":"PA"},
"geometry":{ "type": "Point", "coordinates": [-76.655069,40.089845]}},
{ "type": "Feature", "properties": {"Name":"Bairdford CDP","State":"Pennsylvania","State_Abbrev":"PA"},
"geometry":{ "type": "Point", "coordinates": [-79.881254,40.627904]}},
{ "type": "Feature", "properties": {"Name":"Bakerstown CDP","State":"Pennsylvania","State_Abbrev":"PA"},
"geometry":{ "type": "Point", "coordinates": [-79.939457,40.65377]}},
{ "type": "Feature", "properties": {"Name":"Bala Cynwyd CDP","State":"Pennsylvania","State_Abbrev":"PA"},
"geometry":{ "type": "Point", "coordinates": [-75.227892,40.011608]}},
{ "type": "Feature", "properties": {"Name":"Bald Eagle CDP","State":"Pennsylvania","State_Abbrev":"PA"},
"geometry":{ "type": "Point", "coordinates": [-78.187234,40.719476]}},
{ "type": "Feature", "properties": {"Name":"Baldwin borough","State":"Pennsylvania","State_Abbrev":"PA"},
"geometry":{ "type": "Point", "coordinates": [-79.945203,40.380642]}},
{ "type": "Feature", "properties": {"Name":"Bally borough","State":"Pennsylvania","State_Abbrev":"PA"},
"geometry":{ "type": "Point", "coordinates": [-75.587617,40.400447]}},
{ "type": "Feature", "properties": {"Name":"Bangor borough","State":"Pennsylvania","State_Abbrev":"PA"},
"geometry":{ "type": "Point", "coordinates": [-75.208481,40.867969]}},
{ "type": "Feature", "properties": {"Name":"Barkeyville borough","State":"Pennsylvania","State_Abbrev":"PA"},
"geometry":{ "type": "Point", "coordinates": [-79.982568,41.196557]}},
{ "type": "Feature", "properties": {"Name":"Barrville CDP","State":"Pennsylvania","State_Abbrev":"PA"},
"geometry":{ "type": "Point", "coordinates": [-77.682222,40.668232]}},
{ "type": "Feature", "properties": {"Name":"Bath borough","State":"Pennsylvania","State_Abbrev":"PA"},
"geometry":{ "type": "Point", "coordinates": [-75.390593,40.729195]}},
{ "type": "Feature", "properties": {"Name":"Baumstown CDP","State":"Pennsylvania","State_Abbrev":"PA"},
"geometry":{ "type": "Point", "coordinates": [-75.81188,40.277284]}},
{ "type": "Feature", "properties": {"Name":"Beallsville borough","State":"Pennsylvania","State_Abbrev":"PA"},
"geometry":{ "type": "Point", "coordinates": [-80.030231,40.061904]}},
{ "type": "Feature", "properties": {"Name":"Bear Creek Village borough","State":"Pennsylvania","State_Abbrev":"PA"},
"geometry":{ "type": "Point", "coordinates": [-75.753988,41.186018]}},
{ "type": "Feature", "properties": {"Name":"Bear Lake borough","State":"Pennsylvania","State_Abbrev":"PA"},
"geometry":{ "type": "Point", "coordinates": [-79.501342,41.993404]}},
{ "type": "Feature", "properties": {"Name":"Bear Rocks CDP","State":"Pennsylvania","State_Abbrev":"PA"},
"geometry":{ "type": "Point", "coordinates": [-79.463621,40.127496]}},
{ "type": "Feature", "properties": {"Name":"Beaver borough","State":"Pennsylvania","State_Abbrev":"PA"},
"geometry":{ "type": "Point", "coordinates": [-80.307582,40.693538]}},
{ "type": "Feature", "properties": {"Name":"Beaverdale CDP","State":"Pennsylvania","State_Abbrev":"PA"},
"geometry":{ "type": "Point", "coordinates": [-78.701436,40.324378]}},
{ "type": "Feature", "properties": {"Name":"Beaver Falls city","State":"Pennsylvania","State_Abbrev":"PA"},
"geometry":{ "type": "Point", "coordinates": [-80.322551,40.759401]}},
{ "type": "Feature", "properties": {"Name":"Beaver Meadows borough","State":"Pennsylvania","State_Abbrev":"PA"},
"geometry":{ "type": "Point", "coordinates": [-75.913105,40.929892]}},
{ "type": "Feature", "properties": {"Name":"Beaver Springs CDP","State":"Pennsylvania","State_Abbrev":"PA"},
"geometry":{ "type": "Point", "coordinates": [-77.216216,40.744823]}},
{ "type": "Feature", "properties": {"Name":"Beavertown CDP","State":"Pennsylvania","State_Abbrev":"PA"},
"geometry":{ "type": "Point", "coordinates": [-78.237108,40.373605]}},
{ "type": "Feature", "properties": {"Name":"Beavertown borough","State":"Pennsylvania","State_Abbrev":"PA"},
"geometry":{ "type": "Point", "coordinates": [-77.170985,40.749664]}},
{ "type": "Feature", "properties": {"Name":"Bechtelsville borough","State":"Pennsylvania","State_Abbrev":"PA"},
"geometry":{ "type": "Point", "coordinates": [-75.630835,40.370158]}},
{ "type": "Feature", "properties": {"Name":"Bedford borough","State":"Pennsylvania","State_Abbrev":"PA"},
"geometry":{ "type": "Point", "coordinates": [-78.503017,40.015115]}},
{ "type": "Feature", "properties": {"Name":"Beech Creek borough","State":"Pennsylvania","State_Abbrev":"PA"},
"geometry":{ "type": "Point", "coordinates": [-77.580412,41.072748]}},
{ "type": "Feature", "properties": {"Name":"Beech Mountain Lakes CDP","State":"Pennsylvania","State_Abbrev":"PA"},
"geometry":{ "type": "Point", "coordinates": [-75.931813,41.043799]}},
{ "type": "Feature", "properties": {"Name":"Belfast CDP","State":"Pennsylvania","State_Abbrev":"PA"},
"geometry":{ "type": "Point", "coordinates": [-75.2743,40.782132]}},
{ "type": "Feature", "properties": {"Name":"Bell Acres borough","State":"Pennsylvania","State_Abbrev":"PA"},
"geometry":{ "type": "Point", "coordinates": [-80.173782,40.589779]}},
{ "type": "Feature", "properties": {"Name":"Bellefonte borough","State":"Pennsylvania","State_Abbrev":"PA"},
"geometry":{ "type": "Point", "coordinates": [-77.768197,40.914213]}},
{ "type": "Feature", "properties": {"Name":"Belle Vernon borough","State":"Pennsylvania","State_Abbrev":"PA"},
"geometry":{ "type": "Point", "coordinates": [-79.862037,40.123488]}},
{ "type": "Feature", "properties": {"Name":"Belleville CDP","State":"Pennsylvania","State_Abbrev":"PA"},
"geometry":{ "type": "Point", "coordinates": [-77.719782,40.606583]}},
{ "type": "Feature", "properties": {"Name":"Bellevue borough","State":"Pennsylvania","State_Abbrev":"PA"},
"geometry":{ "type": "Point", "coordinates": [-80.055342,40.49395]}},
{ "type": "Feature", "properties": {"Name":"Bellwood borough","State":"Pennsylvania","State_Abbrev":"PA"},
"geometry":{ "type": "Point", "coordinates": [-78.333271,40.600677]}},
{ "type": "Feature", "properties": {"Name":"Belmont CDP","State":"Pennsylvania","State_Abbrev":"PA"},
"geometry":{ "type": "Point", "coordinates": [-78.884561,40.281262]}},
{ "type": "Feature", "properties": {"Name":"Ben Avon borough","State":"Pennsylvania","State_Abbrev":"PA"},
"geometry":{ "type": "Point", "coordinates": [-80.082138,40.505159]}},
{ "type": "Feature", "properties": {"Name":"Ben Avon Heights borough","State":"Pennsylvania","State_Abbrev":"PA"},
"geometry":{ "type": "Point", "coordinates": [-80.073081,40.512545]}},
{ "type": "Feature", "properties": {"Name":"Bendersville borough","State":"Pennsylvania","State_Abbrev":"PA"},
"geometry":{ "type": "Point", "coordinates": [-77.249315,39.981276]}},
{ "type": "Feature", "properties": {"Name":"Benson borough","State":"Pennsylvania","State_Abbrev":"PA"},
"geometry":{ "type": "Point", "coordinates": [-78.929348,40.202742]}},
{ "type": "Feature", "properties": {"Name":"Bentleyville borough","State":"Pennsylvania","State_Abbrev":"PA"},
"geometry":{ "type": "Point", "coordinates": [-80.00442,40.117846]}},
{ "type": "Feature", "properties": {"Name":"Benton borough","State":"Pennsylvania","State_Abbrev":"PA"},
"geometry":{ "type": "Point", "coordinates": [-76.384254,41.195691]}},
{ "type": "Feature", "properties": {"Name":"Berlin borough","State":"Pennsylvania","State_Abbrev":"PA"},
"geometry":{ "type": "Point", "coordinates": [-78.950859,39.921523]}},
{ "type": "Feature", "properties": {"Name":"Bernville borough","State":"Pennsylvania","State_Abbrev":"PA"},
"geometry":{ "type": "Point", "coordinates": [-76.111172,40.433758]}},
{ "type": "Feature", "properties": {"Name":"Berrysburg borough","State":"Pennsylvania","State_Abbrev":"PA"},
"geometry":{ "type": "Point", "coordinates": [-76.810105,40.602935]}},
{ "type": "Feature", "properties": {"Name":"Berwick borough","State":"Pennsylvania","State_Abbrev":"PA"},
"geometry":{ "type": "Point", "coordinates": [-76.25101,41.05499]}},
{ "type": "Feature", "properties": {"Name":"Berwyn CDP","State":"Pennsylvania","State_Abbrev":"PA"},
"geometry":{ "type": "Point", "coordinates": [-75.442087,40.038794]}},
{ "type": "Feature", "properties": {"Name":"Bessemer borough","State":"Pennsylvania","State_Abbrev":"PA"},
"geometry":{ "type": "Point", "coordinates": [-80.488722,40.977156]}},
{ "type": "Feature", "properties": {"Name":"Bethany borough","State":"Pennsylvania","State_Abbrev":"PA"},
"geometry":{ "type": "Point", "coordinates": [-75.288511,41.614398]}},
{ "type": "Feature", "properties": {"Name":"Bethel CDP","State":"Pennsylvania","State_Abbrev":"PA"},
"geometry":{ "type": "Point", "coordinates": [-76.28797,40.476483]}},
{ "type": "Feature", "properties": {"Name":"Bethel Park municipality","State":"Pennsylvania","State_Abbrev":"PA"},
"geometry":{ "type": "Point", "coordinates": [-80.036421,40.323803]}},
{ "type": "Feature", "properties": {"Name":"Bethlehem city","State":"Pennsylvania","State_Abbrev":"PA"},
"geometry":{ "type": "Point", "coordinates": [-75.367898,40.626424]}},
{ "type": "Feature", "properties": {"Name":"Beurys Lake CDP","State":"Pennsylvania","State_Abbrev":"PA"},
"geometry":{ "type": "Point", "coordinates": [-76.379918,40.717827]}},
{ "type": "Feature", "properties": {"Name":"Big Bass Lake CDP","State":"Pennsylvania","State_Abbrev":"PA"},
"geometry":{ "type": "Point", "coordinates": [-75.479672,41.249749]}},
{ "type": "Feature", "properties": {"Name":"Big Beaver borough","State":"Pennsylvania","State_Abbrev":"PA"},
"geometry":{ "type": "Point", "coordinates": [-80.357679,40.82264]}},
{ "type": "Feature", "properties": {"Name":"Bigler CDP","State":"Pennsylvania","State_Abbrev":"PA"},
"geometry":{ "type": "Point", "coordinates": [-78.309334,40.987489]}},
{ "type": "Feature", "properties": {"Name":"Biglerville borough","State":"Pennsylvania","State_Abbrev":"PA"},
"geometry":{ "type": "Point", "coordinates": [-77.246842,39.929513]}},
{ "type": "Feature", "properties": {"Name":"Big Run borough","State":"Pennsylvania","State_Abbrev":"PA"},
"geometry":{ "type": "Point", "coordinates": [-78.877426,40.970657]}},
{ "type": "Feature", "properties": {"Name":"Birchwood Lakes CDP","State":"Pennsylvania","State_Abbrev":"PA"},
"geometry":{ "type": "Point", "coordinates": [-74.910728,41.250911]}},
{ "type": "Feature", "properties": {"Name":"Bird-in-Hand CDP","State":"Pennsylvania","State_Abbrev":"PA"},
"geometry":{ "type": "Point", "coordinates": [-76.189542,40.036657]}},
{ "type": "Feature", "properties": {"Name":"Birdsboro borough","State":"Pennsylvania","State_Abbrev":"PA"},
"geometry":{ "type": "Point", "coordinates": [-75.810113,40.262329]}},
{ "type": "Feature", "properties": {"Name":"Birmingham borough","State":"Pennsylvania","State_Abbrev":"PA"},
"geometry":{ "type": "Point", "coordinates": [-78.195685,40.647154]}},
{ "type": "Feature", "properties": {"Name":"Black Lick CDP","State":"Pennsylvania","State_Abbrev":"PA"},
"geometry":{ "type": "Point", "coordinates": [-79.188058,40.469136]}},
{ "type": "Feature", "properties": {"Name":"Blain borough","State":"Pennsylvania","State_Abbrev":"PA"},
"geometry":{ "type": "Point", "coordinates": [-77.512368,40.336518]}},
{ "type": "Feature", "properties": {"Name":"Blairsville borough","State":"Pennsylvania","State_Abbrev":"PA"},
"geometry":{ "type": "Point", "coordinates": [-79.259881,40.43249]}},
{ "type": "Feature", "properties": {"Name":"Blakely borough","State":"Pennsylvania","State_Abbrev":"PA"},
"geometry":{ "type": "Point", "coordinates": [-75.601255,41.485933]}},
{ "type": "Feature", "properties": {"Name":"Blanchard CDP","State":"Pennsylvania","State_Abbrev":"PA"},
"geometry":{ "type": "Point", "coordinates": [-77.605916,41.067043]}},
{ "type": "Feature", "properties": {"Name":"Blandburg CDP","State":"Pennsylvania","State_Abbrev":"PA"},
"geometry":{ "type": "Point", "coordinates": [-78.415842,40.683688]}},
{ "type": "Feature", "properties": {"Name":"Blandon CDP","State":"Pennsylvania","State_Abbrev":"PA"},
"geometry":{ "type": "Point", "coordinates": [-75.879451,40.44515]}},
{ "type": "Feature", "properties": {"Name":"Blawnox borough","State":"Pennsylvania","State_Abbrev":"PA"},
"geometry":{ "type": "Point", "coordinates": [-79.859344,40.493302]}},
{ "type": "Feature", "properties": {"Name":"Bloomfield borough","State":"Pennsylvania","State_Abbrev":"PA"},
"geometry":{ "type": "Point", "coordinates": [-77.188969,40.418871]}},
{ "type": "Feature", "properties": {"Name":"Blooming Valley borough","State":"Pennsylvania","State_Abbrev":"PA"},
"geometry":{ "type": "Point", "coordinates": [-80.030887,41.677013]}},
{ "type": "Feature", "properties": {"Name":"Bloomsburg town","State":"Pennsylvania","State_Abbrev":"PA"},
"geometry":{ "type": "Point", "coordinates": [-76.45658,41.002717]}},
{ "type": "Feature", "properties": {"Name":"Blossburg borough","State":"Pennsylvania","State_Abbrev":"PA"},
"geometry":{ "type": "Point", "coordinates": [-77.068951,41.679525]}},
{ "type": "Feature", "properties": {"Name":"Blue Ball CDP","State":"Pennsylvania","State_Abbrev":"PA"},
"geometry":{ "type": "Point", "coordinates": [-76.055148,40.111297]}},
{ "type": "Feature", "properties": {"Name":"Blue Bell CDP","State":"Pennsylvania","State_Abbrev":"PA"},
"geometry":{ "type": "Point", "coordinates": [-75.26868,40.147352]}},
{ "type": "Feature", "properties": {"Name":"Blue Knob CDP","State":"Pennsylvania","State_Abbrev":"PA"},
"geometry":{ "type": "Point", "coordinates": [-78.553228,40.352891]}},
{ "type": "Feature", "properties": {"Name":"Blue Ridge Summit CDP","State":"Pennsylvania","State_Abbrev":"PA"},
"geometry":{ "type": "Point", "coordinates": [-77.468754,39.725562]}},
{ "type": "Feature", "properties": {"Name":"Boalsburg CDP","State":"Pennsylvania","State_Abbrev":"PA"},
"geometry":{ "type": "Point", "coordinates": [-77.774364,40.777966]}},
{ "type": "Feature", "properties": {"Name":"Bobtown CDP","State":"Pennsylvania","State_Abbrev":"PA"},
"geometry":{ "type": "Point", "coordinates": [-79.984788,39.760344]}},
{ "type": "Feature", "properties": {"Name":"Boiling Springs CDP","State":"Pennsylvania","State_Abbrev":"PA"},
"geometry":{ "type": "Point", "coordinates": [-77.139919,40.159332]}},
{ "type": "Feature", "properties": {"Name":"Bolivar borough","State":"Pennsylvania","State_Abbrev":"PA"},
"geometry":{ "type": "Point", "coordinates": [-79.152089,40.395006]}},
{ "type": "Feature", "properties": {"Name":"Bonneauville borough","State":"Pennsylvania","State_Abbrev":"PA"},
"geometry":{ "type": "Point", "coordinates": [-77.13626,39.810426]}},
{ "type": "Feature", "properties": {"Name":"Boothwyn CDP","State":"Pennsylvania","State_Abbrev":"PA"},
"geometry":{ "type": "Point", "coordinates": [-75.445331,39.835656]}},
{ "type": "Feature", "properties": {"Name":"Boston CDP","State":"Pennsylvania","State_Abbrev":"PA"},
"geometry":{ "type": "Point", "coordinates": [-79.823518,40.311678]}},
{ "type": "Feature", "properties": {"Name":"Boswell borough","State":"Pennsylvania","State_Abbrev":"PA"},
"geometry":{ "type": "Point", "coordinates": [-79.027467,40.161484]}},
{ "type": "Feature", "properties": {"Name":"Bowers CDP","State":"Pennsylvania","State_Abbrev":"PA"},
"geometry":{ "type": "Point", "coordinates": [-75.74323,40.485917]}},
{ "type": "Feature", "properties": {"Name":"Bowmanstown borough","State":"Pennsylvania","State_Abbrev":"PA"},
"geometry":{ "type": "Point", "coordinates": [-75.661116,40.801445]}},
{ "type": "Feature", "properties": {"Name":"Bowmansville CDP","State":"Pennsylvania","State_Abbrev":"PA"},
"geometry":{ "type": "Point", "coordinates": [-76.02103,40.20173]}},
{ "type": "Feature", "properties": {"Name":"Boyertown borough","State":"Pennsylvania","State_Abbrev":"PA"},
"geometry":{ "type": "Point", "coordinates": [-75.637478,40.33233]}},
{ "type": "Feature", "properties": {"Name":"Brackenridge borough","State":"Pennsylvania","State_Abbrev":"PA"},
"geometry":{ "type": "Point", "coordinates": [-79.740016,40.607982]}},
{ "type": "Feature", "properties": {"Name":"Braddock borough","State":"Pennsylvania","State_Abbrev":"PA"},
"geometry":{ "type": "Point", "coordinates": [-79.868622,40.401736]}},
{ "type": "Feature", "properties": {"Name":"Braddock Hills borough","State":"Pennsylvania","State_Abbrev":"PA"},
"geometry":{ "type": "Point", "coordinates": [-79.861273,40.41456]}},
{ "type": "Feature", "properties": {"Name":"Bradenville CDP","State":"Pennsylvania","State_Abbrev":"PA"},
"geometry":{ "type": "Point", "coordinates": [-79.340254,40.323621]}},
{ "type": "Feature", "properties": {"Name":"Bradford city","State":"Pennsylvania","State_Abbrev":"PA"},
"geometry":{ "type": "Point", "coordinates": [-78.64088,41.960963]}},
{ "type": "Feature", "properties": {"Name":"Bradford Woods borough","State":"Pennsylvania","State_Abbrev":"PA"},
"geometry":{ "type": "Point", "coordinates": [-80.0809,40.636949]}},
{ "type": "Feature", "properties": {"Name":"Branchdale CDP","State":"Pennsylvania","State_Abbrev":"PA"},
"geometry":{ "type": "Point", "coordinates": [-76.32223,40.673193]}},
{ "type": "Feature", "properties": {"Name":"Brandonville CDP","State":"Pennsylvania","State_Abbrev":"PA"},
"geometry":{ "type": "Point", "coordinates": [-76.168887,40.860056]}},
{ "type": "Feature", "properties": {"Name":"Brave CDP","State":"Pennsylvania","State_Abbrev":"PA"},
"geometry":{ "type": "Point", "coordinates": [-80.260169,39.730793]}},
{ "type": "Feature", "properties": {"Name":"Breinigsville CDP","State":"Pennsylvania","State_Abbrev":"PA"},
"geometry":{ "type": "Point", "coordinates": [-75.634783,40.538903]}},
{ "type": "Feature", "properties": {"Name":"Brentwood borough","State":"Pennsylvania","State_Abbrev":"PA"},
"geometry":{ "type": "Point", "coordinates": [-79.975784,40.373378]}},
{ "type": "Feature", "properties": {"Name":"Bressler CDP","State":"Pennsylvania","State_Abbrev":"PA"},
"geometry":{ "type": "Point", "coordinates": [-76.818973,40.231928]}},
{ "type": "Feature", "properties": {"Name":"Briar Creek borough","State":"Pennsylvania","State_Abbrev":"PA"},
"geometry":{ "type": "Point", "coordinates": [-76.284018,41.049239]}},
{ "type": "Feature", "properties": {"Name":"Brickerville CDP","State":"Pennsylvania","State_Abbrev":"PA"},
"geometry":{ "type": "Point", "coordinates": [-76.286485,40.226828]}},
{ "type": "Feature", "properties": {"Name":"Bridgeport borough","State":"Pennsylvania","State_Abbrev":"PA"},
"geometry":{ "type": "Point", "coordinates": [-75.34355,40.104072]}},
{ "type": "Feature", "properties": {"Name":"Bridgeville borough","State":"Pennsylvania","State_Abbrev":"PA"},
"geometry":{ "type": "Point", "coordinates": [-80.10755,40.358204]}},
{ "type": "Feature", "properties": {"Name":"Bridgewater borough","State":"Pennsylvania","State_Abbrev":"PA"},
"geometry":{ "type": "Point", "coordinates": [-80.30041,40.705077]}},
{ "type": "Feature", "properties": {"Name":"Brisbin borough","State":"Pennsylvania","State_Abbrev":"PA"},
"geometry":{ "type": "Point", "coordinates": [-78.351235,40.838548]}},
{ "type": "Feature", "properties": {"Name":"Bristol borough","State":"Pennsylvania","State_Abbrev":"PA"},
"geometry":{ "type": "Point", "coordinates": [-74.852347,40.102767]}},
{ "type": "Feature", "properties": {"Name":"Brittany Farms-The Highlands CDP","State":"Pennsylvania","State_Abbrev":"PA"},
"geometry":{ "type": "Point", "coordinates": [-75.216644,40.268509]}},
{ "type": "Feature", "properties": {"Name":"Broad Top City borough","State":"Pennsylvania","State_Abbrev":"PA"},
"geometry":{ "type": "Point", "coordinates": [-78.140563,40.20118]}},
{ "type": "Feature", "properties": {"Name":"Brockway borough","State":"Pennsylvania","State_Abbrev":"PA"},
"geometry":{ "type": "Point", "coordinates": [-78.792415,41.247102]}},
{ "type": "Feature", "properties": {"Name":"Brodheadsville CDP","State":"Pennsylvania","State_Abbrev":"PA"},
"geometry":{ "type": "Point", "coordinates": [-75.401855,40.928446]}},
{ "type": "Feature", "properties": {"Name":"Brookhaven borough","State":"Pennsylvania","State_Abbrev":"PA"},
"geometry":{ "type": "Point", "coordinates": [-75.391253,39.871096]}},
{ "type": "Feature", "properties": {"Name":"Brooks Mill CDP","State":"Pennsylvania","State_Abbrev":"PA"},
"geometry":{ "type": "Point", "coordinates": [-78.423428,40.373774]}},
{ "type": "Feature", "properties": {"Name":"Brookville borough","State":"Pennsylvania","State_Abbrev":"PA"},
"geometry":{ "type": "Point", "coordinates": [-79.082652,41.161676]}},
{ "type": "Feature", "properties": {"Name":"Broomall CDP","State":"Pennsylvania","State_Abbrev":"PA"},
"geometry":{ "type": "Point", "coordinates": [-75.354127,39.968823]}},
{ "type": "Feature", "properties": {"Name":"Brownstown borough","State":"Pennsylvania","State_Abbrev":"PA"},
"geometry":{ "type": "Point", "coordinates": [-78.93732,40.333377]}},
{ "type": "Feature", "properties": {"Name":"Brownstown CDP","State":"Pennsylvania","State_Abbrev":"PA"},
"geometry":{ "type": "Point", "coordinates": [-76.21818,40.127126]}},
{ "type": "Feature", "properties": {"Name":"Brownsville borough","State":"Pennsylvania","State_Abbrev":"PA"},
"geometry":{ "type": "Point", "coordinates": [-79.890016,40.018865]}},
{ "type": "Feature", "properties": {"Name":"Browntown CDP","State":"Pennsylvania","State_Abbrev":"PA"},
"geometry":{ "type": "Point", "coordinates": [-75.782666,41.313869]}},
{ "type": "Feature", "properties": {"Name":"Bruin borough","State":"Pennsylvania","State_Abbrev":"PA"},
"geometry":{ "type": "Point", "coordinates": [-79.727301,41.05439]}},
{ "type": "Feature", "properties": {"Name":"Bryn Athyn borough","State":"Pennsylvania","State_Abbrev":"PA"},
"geometry":{ "type": "Point", "coordinates": [-75.067401,40.141067]}},
{ "type": "Feature", "properties": {"Name":"Bryn Mawr CDP","State":"Pennsylvania","State_Abbrev":"PA"},
"geometry":{ "type": "Point", "coordinates": [-75.316167,40.020824]}},
{ "type": "Feature", "properties": {"Name":"Buckhorn CDP","State":"Pennsylvania","State_Abbrev":"PA"},
"geometry":{ "type": "Point", "coordinates": [-76.493202,41.020442]}},
{ "type": "Feature", "properties": {"Name":"Buck Run CDP","State":"Pennsylvania","State_Abbrev":"PA"},
"geometry":{ "type": "Point", "coordinates": [-76.32123,40.706754]}},
{ "type": "Feature", "properties": {"Name":"Buffington CDP","State":"Pennsylvania","State_Abbrev":"PA"},
"geometry":{ "type": "Point", "coordinates": [-79.839149,39.929961]}},
{ "type": "Feature", "properties": {"Name":"Bulger CDP","State":"Pennsylvania","State_Abbrev":"PA"},
"geometry":{ "type": "Point", "coordinates": [-80.322993,40.376643]}},
{ "type": "Feature", "properties": {"Name":"Burgettstown borough","State":"Pennsylvania","State_Abbrev":"PA"},
"geometry":{ "type": "Point", "coordinates": [-80.392613,40.381293]}},
{ "type": "Feature", "properties": {"Name":"Burlington borough","State":"Pennsylvania","State_Abbrev":"PA"},
"geometry":{ "type": "Point", "coordinates": [-76.607272,41.784063]}},
{ "type": "Feature", "properties": {"Name":"Burnham borough","State":"Pennsylvania","State_Abbrev":"PA"},
"geometry":{ "type": "Point", "coordinates": [-77.562995,40.634293]}},
{ "type": "Feature", "properties": {"Name":"Burnside borough","State":"Pennsylvania","State_Abbrev":"PA"},
"geometry":{ "type": "Point", "coordinates": [-78.798048,40.812405]}},
{ "type": "Feature", "properties": {"Name":"Butler city","State":"Pennsylvania","State_Abbrev":"PA"},
"geometry":{ "type": "Point", "coordinates": [-79.89617,40.861554]}},
{ "type": "Feature", "properties": {"Name":"Byrnedale CDP","State":"Pennsylvania","State_Abbrev":"PA"},
"geometry":{ "type": "Point", "coordinates": [-78.502276,41.292712]}},
{ "type": "Feature", "properties": {"Name":"Cairnbrook CDP","State":"Pennsylvania","State_Abbrev":"PA"},
"geometry":{ "type": "Point", "coordinates": [-78.818938,40.124587]}},
{ "type": "Feature", "properties": {"Name":"California borough","State":"Pennsylvania","State_Abbrev":"PA"},
"geometry":{ "type": "Point", "coordinates": [-79.91198,40.066665]}},
{ "type": "Feature", "properties": {"Name":"Callensburg borough","State":"Pennsylvania","State_Abbrev":"PA"},
"geometry":{ "type": "Point", "coordinates": [-79.557713,41.125741]}},
{ "type": "Feature", "properties": {"Name":"Callery borough","State":"Pennsylvania","State_Abbrev":"PA"},
"geometry":{ "type": "Point", "coordinates": [-80.037966,40.739383]}},
{ "type": "Feature", "properties": {"Name":"Callimont borough","State":"Pennsylvania","State_Abbrev":"PA"},
"geometry":{ "type": "Point", "coordinates": [-78.921606,39.801153]}},
{ "type": "Feature", "properties": {"Name":"Caln CDP","State":"Pennsylvania","State_Abbrev":"PA"},
"geometry":{ "type": "Point", "coordinates": [-75.782896,39.997115]}},
{ "type": "Feature", "properties": {"Name":"Calumet CDP","State":"Pennsylvania","State_Abbrev":"PA"},
"geometry":{ "type": "Point", "coordinates": [-79.48919,40.218902]}},
{ "type": "Feature", "properties": {"Name":"Cambridge Springs borough","State":"Pennsylvania","State_Abbrev":"PA"},
"geometry":{ "type": "Point", "coordinates": [-80.059793,41.801969]}},
{ "type": "Feature", "properties": {"Name":"Campbelltown CDP","State":"Pennsylvania","State_Abbrev":"PA"},
"geometry":{ "type": "Point", "coordinates": [-76.582914,40.276002]}},
{ "type": "Feature", "properties": {"Name":"Camp Hill borough","State":"Pennsylvania","State_Abbrev":"PA"},
"geometry":{ "type": "Point", "coordinates": [-76.9274,40.242192]}},
{ "type": "Feature", "properties": {"Name":"Canadohta Lake CDP","State":"Pennsylvania","State_Abbrev":"PA"},
"geometry":{ "type": "Point", "coordinates": [-79.835754,41.811497]}},
{ "type": "Feature", "properties": {"Name":"Canan Station CDP","State":"Pennsylvania","State_Abbrev":"PA"},
"geometry":{ "type": "Point", "coordinates": [-78.431957,40.462742]}},
{ "type": "Feature", "properties": {"Name":"Canoe Creek CDP","State":"Pennsylvania","State_Abbrev":"PA"},
"geometry":{ "type": "Point", "coordinates": [-78.278995,40.473575]}},
{ "type": "Feature", "properties": {"Name":"Canonsburg borough","State":"Pennsylvania","State_Abbrev":"PA"},
"geometry":{ "type": "Point", "coordinates": [-80.186776,40.264246]}},
{ "type": "Feature", "properties": {"Name":"Canton borough","State":"Pennsylvania","State_Abbrev":"PA"},
"geometry":{ "type": "Point", "coordinates": [-76.852662,41.65711]}},
{ "type": "Feature", "properties": {"Name":"Carbondale city","State":"Pennsylvania","State_Abbrev":"PA"},
"geometry":{ "type": "Point", "coordinates": [-75.504778,41.571373]}},
{ "type": "Feature", "properties": {"Name":"Carlisle borough","State":"Pennsylvania","State_Abbrev":"PA"},
"geometry":{ "type": "Point", "coordinates": [-77.204149,40.199994]}},
{ "type": "Feature", "properties": {"Name":"Carlisle Barracks CDP","State":"Pennsylvania","State_Abbrev":"PA"},
"geometry":{ "type": "Point", "coordinates": [-77.172749,40.209791]}},
{ "type": "Feature", "properties": {"Name":"Carmichaels borough","State":"Pennsylvania","State_Abbrev":"PA"},
"geometry":{ "type": "Point", "coordinates": [-79.974988,39.897595]}},
{ "type": "Feature", "properties": {"Name":"Carnegie borough","State":"Pennsylvania","State_Abbrev":"PA"},
"geometry":{ "type": "Point", "coordinates": [-80.086037,40.407987]}},
{ "type": "Feature", "properties": {"Name":"Carnot-Moon CDP","State":"Pennsylvania","State_Abbrev":"PA"},
"geometry":{ "type": "Point", "coordinates": [-80.217742,40.518718]}},
{ "type": "Feature", "properties": {"Name":"Carrolltown borough","State":"Pennsylvania","State_Abbrev":"PA"},
"geometry":{ "type": "Point", "coordinates": [-78.70715,40.604732]}},
{ "type": "Feature", "properties": {"Name":"Carroll Valley borough","State":"Pennsylvania","State_Abbrev":"PA"},
"geometry":{ "type": "Point", "coordinates": [-77.386854,39.750191]}},
{ "type": "Feature", "properties": {"Name":"Carson Valley CDP","State":"Pennsylvania","State_Abbrev":"PA"},
"geometry":{ "type": "Point", "coordinates": [-78.448584,40.449128]}},
{ "type": "Feature", "properties": {"Name":"Casanova CDP","State":"Pennsylvania","State_Abbrev":"PA"},
"geometry":{ "type": "Point", "coordinates": [-78.158465,40.955618]}},
{ "type": "Feature", "properties": {"Name":"Cashtown CDP","State":"Pennsylvania","State_Abbrev":"PA"},
"geometry":{ "type": "Point", "coordinates": [-77.350746,39.884405]}},
{ "type": "Feature", "properties": {"Name":"Cassandra borough","State":"Pennsylvania","State_Abbrev":"PA"},
"geometry":{ "type": "Point", "coordinates": [-78.640712,40.408556]}},
{ "type": "Feature", "properties": {"Name":"Casselman borough","State":"Pennsylvania","State_Abbrev":"PA"},
"geometry":{ "type": "Point", "coordinates": [-79.21065,39.885407]}},
{ "type": "Feature", "properties": {"Name":"Cassville borough","State":"Pennsylvania","State_Abbrev":"PA"},
"geometry":{ "type": "Point", "coordinates": [-78.02723,40.292836]}},
{ "type": "Feature", "properties": {"Name":"Castanea CDP","State":"Pennsylvania","State_Abbrev":"PA"},
"geometry":{ "type": "Point", "coordinates": [-77.426972,41.11712]}},
{ "type": "Feature", "properties": {"Name":"Castle Shannon borough","State":"Pennsylvania","State_Abbrev":"PA"},
"geometry":{ "type": "Point", "coordinates": [-80.019461,40.366424]}},
{ "type": "Feature", "properties": {"Name":"Catasauqua borough","State":"Pennsylvania","State_Abbrev":"PA"},
"geometry":{ "type": "Point", "coordinates": [-75.461037,40.653828]}},
{ "type": "Feature", "properties": {"Name":"Catawissa borough","State":"Pennsylvania","State_Abbrev":"PA"},
"geometry":{ "type": "Point", "coordinates": [-76.459943,40.95311]}},
{ "type": "Feature", "properties": {"Name":"Cecil-Bishop CDP","State":"Pennsylvania","State_Abbrev":"PA"},
"geometry":{ "type": "Point", "coordinates": [-80.191902,40.318488]}},
{ "type": "Feature", "properties": {"Name":"Cedar Crest CDP","State":"Pennsylvania","State_Abbrev":"PA"},
"geometry":{ "type": "Point", "coordinates": [-77.885703,40.396593]}},
{ "type": "Feature", "properties": {"Name":"Cementon CDP","State":"Pennsylvania","State_Abbrev":"PA"},
"geometry":{ "type": "Point", "coordinates": [-75.517773,40.687474]}},
{ "type": "Feature", "properties": {"Name":"Centerport borough","State":"Pennsylvania","State_Abbrev":"PA"},
"geometry":{ "type": "Point", "coordinates": [-76.004376,40.485895]}},
{ "type": "Feature", "properties": {"Name":"Centerville borough","State":"Pennsylvania","State_Abbrev":"PA"},
"geometry":{ "type": "Point", "coordinates": [-79.761018,41.738881]}},
{ "type": "Feature", "properties": {"Name":"Centerville borough","State":"Pennsylvania","State_Abbrev":"PA"},
"geometry":{ "type": "Point", "coordinates": [-79.95948,40.032477]}},
{ "type": "Feature", "properties": {"Name":"Central City borough","State":"Pennsylvania","State_Abbrev":"PA"},
"geometry":{ "type": "Point", "coordinates": [-78.804318,40.109617]}},
{ "type": "Feature", "properties": {"Name":"Centralia borough","State":"Pennsylvania","State_Abbrev":"PA"},
"geometry":{ "type": "Point", "coordinates": [-76.344007,40.804486]}},
{ "type": "Feature", "properties": {"Name":"Centre Hall borough","State":"Pennsylvania","State_Abbrev":"PA"},
"geometry":{ "type": "Point", "coordinates": [-77.685072,40.844743]}},
{ "type": "Feature", "properties": {"Name":"Cetronia CDP","State":"Pennsylvania","State_Abbrev":"PA"},
"geometry":{ "type": "Point", "coordinates": [-75.543838,40.585675]}},
{ "type": "Feature", "properties": {"Name":"Chadds Ford CDP","State":"Pennsylvania","State_Abbrev":"PA"},
"geometry":{ "type": "Point", "coordinates": [-75.608223,39.875949]}},
{ "type": "Feature", "properties": {"Name":"Chalfant borough","State":"Pennsylvania","State_Abbrev":"PA"},
"geometry":{ "type": "Point", "coordinates": [-79.838594,40.410124]}},
{ "type": "Feature", "properties": {"Name":"Chalfont borough","State":"Pennsylvania","State_Abbrev":"PA"},
"geometry":{ "type": "Point", "coordinates": [-75.209591,40.288978]}},
{ "type": "Feature", "properties": {"Name":"Chalkhill CDP","State":"Pennsylvania","State_Abbrev":"PA"},
"geometry":{ "type": "Point", "coordinates": [-79.618245,39.847801]}},
{ "type": "Feature", "properties": {"Name":"Chambersburg borough","State":"Pennsylvania","State_Abbrev":"PA"},
"geometry":{ "type": "Point", "coordinates": [-77.655642,39.931433]}},
{ "type": "Feature", "properties": {"Name":"Chapman borough","State":"Pennsylvania","State_Abbrev":"PA"},
"geometry":{ "type": "Point", "coordinates": [-75.400558,40.759951]}},
{ "type": "Feature", "properties": {"Name":"Charleroi borough","State":"Pennsylvania","State_Abbrev":"PA"},
"geometry":{ "type": "Point", "coordinates": [-79.899756,40.137859]}},
{ "type": "Feature", "properties": {"Name":"Charlottsville CDP","State":"Pennsylvania","State_Abbrev":"PA"},
"geometry":{ "type": "Point", "coordinates": [-78.275434,40.645655]}},
{ "type": "Feature", "properties": {"Name":"Chase CDP","State":"Pennsylvania","State_Abbrev":"PA"},
"geometry":{ "type": "Point", "coordinates": [-75.964362,41.28064]}},
{ "type": "Feature", "properties": {"Name":"Cheltenham Village CDP","State":"Pennsylvania","State_Abbrev":"PA"},
"geometry":{ "type": "Point", "coordinates": [-75.09345,40.063116]}},
{ "type": "Feature", "properties": {"Name":"Cherry Tree borough","State":"Pennsylvania","State_Abbrev":"PA"},
"geometry":{ "type": "Point", "coordinates": [-78.812492,40.725747]}},
{ "type": "Feature", "properties": {"Name":"Cherry Valley borough","State":"Pennsylvania","State_Abbrev":"PA"},
"geometry":{ "type": "Point", "coordinates": [-79.801195,41.159412]}},
{ "type": "Feature", "properties": {"Name":"Cherryville CDP","State":"Pennsylvania","State_Abbrev":"PA"},
"geometry":{ "type": "Point", "coordinates": [-75.532524,40.756581]}},
{ "type": "Feature", "properties": {"Name":"Chester city","State":"Pennsylvania","State_Abbrev":"PA"},
"geometry":{ "type": "Point", "coordinates": [-75.371882,39.845558]}},
{ "type": "Feature", "properties": {"Name":"Chesterbrook CDP","State":"Pennsylvania","State_Abbrev":"PA"},
"geometry":{ "type": "Point", "coordinates": [-75.455128,40.070357]}},
{ "type": "Feature", "properties": {"Name":"Chester Heights borough","State":"Pennsylvania","State_Abbrev":"PA"},
"geometry":{ "type": "Point", "coordinates": [-75.468956,39.892551]}},
{ "type": "Feature", "properties": {"Name":"Chester Hill borough","State":"Pennsylvania","State_Abbrev":"PA"},
"geometry":{ "type": "Point", "coordinates": [-78.230665,40.890972]}},
{ "type": "Feature", "properties": {"Name":"Chestnut Hill CDP","State":"Pennsylvania","State_Abbrev":"PA"},
"geometry":{ "type": "Point", "coordinates": [-75.207232,40.72279]}},
{ "type": "Feature", "properties": {"Name":"Chest Springs borough","State":"Pennsylvania","State_Abbrev":"PA"},
"geometry":{ "type": "Point", "coordinates": [-78.610521,40.578082]}},
{ "type": "Feature", "properties": {"Name":"Cheswick borough","State":"Pennsylvania","State_Abbrev":"PA"},
"geometry":{ "type": "Point", "coordinates": [-79.800984,40.543024]}},
{ "type": "Feature", "properties": {"Name":"Chevy Chase Heights CDP","State":"Pennsylvania","State_Abbrev":"PA"},
"geometry":{ "type": "Point", "coordinates": [-79.14562,40.64037]}},
{ "type": "Feature", "properties": {"Name":"Chewton CDP","State":"Pennsylvania","State_Abbrev":"PA"},
"geometry":{ "type": "Point", "coordinates": [-80.318456,40.897578]}},
{ "type": "Feature", "properties": {"Name":"Cheyney University CDP","State":"Pennsylvania","State_Abbrev":"PA"},
"geometry":{ "type": "Point", "coordinates": [-75.530595,39.934245]}},
{ "type": "Feature", "properties": {"Name":"Chicora borough","State":"Pennsylvania","State_Abbrev":"PA"},
"geometry":{ "type": "Point", "coordinates": [-79.73905,40.952507]}},
{ "type": "Feature", "properties": {"Name":"Chinchilla CDP","State":"Pennsylvania","State_Abbrev":"PA"},
"geometry":{ "type": "Point", "coordinates": [-75.666462,41.485848]}},
{ "type": "Feature", "properties": {"Name":"Christiana borough","State":"Pennsylvania","State_Abbrev":"PA"},
"geometry":{ "type": "Point", "coordinates": [-75.997346,39.954504]}},
{ "type": "Feature", "properties": {"Name":"Church Hill CDP","State":"Pennsylvania","State_Abbrev":"PA"},
"geometry":{ "type": "Point", "coordinates": [-77.59491,40.692602]}},
{ "type": "Feature", "properties": {"Name":"Churchill borough","State":"Pennsylvania","State_Abbrev":"PA"},
"geometry":{ "type": "Point", "coordinates": [-79.84159,40.438847]}},
{ "type": "Feature", "properties": {"Name":"Churchtown CDP","State":"Pennsylvania","State_Abbrev":"PA"},
"geometry":{ "type": "Point", "coordinates": [-75.95321,40.139327]}},
{ "type": "Feature", "properties": {"Name":"Churchville CDP","State":"Pennsylvania","State_Abbrev":"PA"},
"geometry":{ "type": "Point", "coordinates": [-75.001775,40.19451]}},
{ "type": "Feature", "properties": {"Name":"Clairton city","State":"Pennsylvania","State_Abbrev":"PA"},
"geometry":{ "type": "Point", "coordinates": [-79.889026,40.296656]}},
{ "type": "Feature", "properties": {"Name":"Clappertown CDP","State":"Pennsylvania","State_Abbrev":"PA"},
"geometry":{ "type": "Point", "coordinates": [-78.277756,40.402729]}},
{ "type": "Feature", "properties": {"Name":"Clarence CDP","State":"Pennsylvania","State_Abbrev":"PA"},
"geometry":{ "type": "Point", "coordinates": [-77.950301,41.046331]}},
{ "type": "Feature", "properties": {"Name":"Clarendon borough","State":"Pennsylvania","State_Abbrev":"PA"},
"geometry":{ "type": "Point", "coordinates": [-79.094008,41.780615]}},
{ "type": "Feature", "properties": {"Name":"Clarion borough","State":"Pennsylvania","State_Abbrev":"PA"},
"geometry":{ "type": "Point", "coordinates": [-79.380087,41.209445]}},
{ "type": "Feature", "properties": {"Name":"Clark borough","State":"Pennsylvania","State_Abbrev":"PA"},
"geometry":{ "type": "Point", "coordinates": [-80.404732,41.287725]}},
{ "type": "Feature", "properties": {"Name":"Clarks Green borough","State":"Pennsylvania","State_Abbrev":"PA"},
"geometry":{ "type": "Point", "coordinates": [-75.695315,41.500913]}},
{ "type": "Feature", "properties": {"Name":"Clarks Summit borough","State":"Pennsylvania","State_Abbrev":"PA"},
"geometry":{ "type": "Point", "coordinates": [-75.706509,41.490237]}},
{ "type": "Feature", "properties": {"Name":"Clarksville borough","State":"Pennsylvania","State_Abbrev":"PA"},
"geometry":{ "type": "Point", "coordinates": [-80.043902,39.974396]}},
{ "type": "Feature", "properties": {"Name":"Clay CDP","State":"Pennsylvania","State_Abbrev":"PA"},
"geometry":{ "type": "Point", "coordinates": [-76.239033,40.219045]}},
{ "type": "Feature", "properties": {"Name":"Claysburg CDP","State":"Pennsylvania","State_Abbrev":"PA"},
"geometry":{ "type": "Point", "coordinates": [-78.451414,40.291446]}},
{ "type": "Feature", "properties": {"Name":"Claysville borough","State":"Pennsylvania","State_Abbrev":"PA"},
"geometry":{ "type": "Point", "coordinates": [-80.413275,40.120644]}},
{ "type": "Feature", "properties": {"Name":"Clearfield borough","State":"Pennsylvania","State_Abbrev":"PA"},
"geometry":{ "type": "Point", "coordinates": [-78.439398,41.021498]}},
{ "type": "Feature", "properties": {"Name":"Cleona borough","State":"Pennsylvania","State_Abbrev":"PA"},
"geometry":{ "type": "Point", "coordinates": [-76.477093,40.338511]}},
{ "type": "Feature", "properties": {"Name":"Clifton Heights borough","State":"Pennsylvania","State_Abbrev":"PA"},
"geometry":{ "type": "Point", "coordinates": [-75.295827,39.93015]}},
{ "type": "Feature", "properties": {"Name":"Clinton CDP","State":"Pennsylvania","State_Abbrev":"PA"},
"geometry":{ "type": "Point", "coordinates": [-80.296995,40.492265]}},
{ "type": "Feature", "properties": {"Name":"Clintondale CDP","State":"Pennsylvania","State_Abbrev":"PA"},
"geometry":{ "type": "Point", "coordinates": [-77.520788,41.01849]}},
{ "type": "Feature", "properties": {"Name":"Clintonville borough","State":"Pennsylvania","State_Abbrev":"PA"},
"geometry":{ "type": "Point", "coordinates": [-79.874512,41.201025]}},
{ "type": "Feature", "properties": {"Name":"Clymer borough","State":"Pennsylvania","State_Abbrev":"PA"},
"geometry":{ "type": "Point", "coordinates": [-79.013605,40.668502]}},
{ "type": "Feature", "properties": {"Name":"Coal Center borough","State":"Pennsylvania","State_Abbrev":"PA"},
"geometry":{ "type": "Point", "coordinates": [-79.901166,40.070033]}},
{ "type": "Feature", "properties": {"Name":"Coaldale borough","State":"Pennsylvania","State_Abbrev":"PA"},
"geometry":{ "type": "Point", "coordinates": [-78.21661,40.167359]}},
{ "type": "Feature", "properties": {"Name":"Coaldale borough","State":"Pennsylvania","State_Abbrev":"PA"},
"geometry":{ "type": "Point", "coordinates": [-75.916102,40.81974]}},
{ "type": "Feature", "properties": {"Name":"Coalmont borough","State":"Pennsylvania","State_Abbrev":"PA"},
"geometry":{ "type": "Point", "coordinates": [-78.199977,40.21121]}},
{ "type": "Feature", "properties": {"Name":"Coalport borough","State":"Pennsylvania","State_Abbrev":"PA"},
"geometry":{ "type": "Point", "coordinates": [-78.529652,40.746364]}},
{ "type": "Feature", "properties": {"Name":"Coatesville city","State":"Pennsylvania","State_Abbrev":"PA"},
"geometry":{ "type": "Point", "coordinates": [-75.819,39.985152]}},
{ "type": "Feature", "properties": {"Name":"Coburn CDP","State":"Pennsylvania","State_Abbrev":"PA"},
"geometry":{ "type": "Point", "coordinates": [-77.463863,40.86612]}},
{ "type": "Feature", "properties": {"Name":"Cochranton borough","State":"Pennsylvania","State_Abbrev":"PA"},
"geometry":{ "type": "Point", "coordinates": [-80.046991,41.519097]}},
{ "type": "Feature", "properties": {"Name":"Cochranville CDP","State":"Pennsylvania","State_Abbrev":"PA"},
"geometry":{ "type": "Point", "coordinates": [-75.92981,39.888614]}},
{ "type": "Feature", "properties": {"Name":"Cokeburg borough","State":"Pennsylvania","State_Abbrev":"PA"},
"geometry":{ "type": "Point", "coordinates": [-80.065513,40.099954]}},
{ "type": "Feature", "properties": {"Name":"Collegeville borough","State":"Pennsylvania","State_Abbrev":"PA"},
"geometry":{ "type": "Point", "coordinates": [-75.457519,40.186865]}},
{ "type": "Feature", "properties": {"Name":"Collingdale borough","State":"Pennsylvania","State_Abbrev":"PA"},
"geometry":{ "type": "Point", "coordinates": [-75.27763,39.915065]}},
{ "type": "Feature", "properties": {"Name":"Collinsburg CDP","State":"Pennsylvania","State_Abbrev":"PA"},
"geometry":{ "type": "Point", "coordinates": [-79.781219,40.220942]}},
{ "type": "Feature", "properties": {"Name":"Colonial Park CDP","State":"Pennsylvania","State_Abbrev":"PA"},
"geometry":{ "type": "Point", "coordinates": [-76.806994,40.298695]}},
{ "type": "Feature", "properties": {"Name":"Colony Park CDP","State":"Pennsylvania","State_Abbrev":"PA"},
"geometry":{ "type": "Point", "coordinates": [-75.982705,40.346486]}},
{ "type": "Feature", "properties": {"Name":"Columbia borough","State":"Pennsylvania","State_Abbrev":"PA"},
"geometry":{ "type": "Point", "coordinates": [-76.495889,40.034855]}},
{ "type": "Feature", "properties": {"Name":"Columbus CDP","State":"Pennsylvania","State_Abbrev":"PA"},
"geometry":{ "type": "Point", "coordinates": [-79.583235,41.947907]}},
{ "type": "Feature", "properties": {"Name":"Colver CDP","State":"Pennsylvania","State_Abbrev":"PA"},
"geometry":{ "type": "Point", "coordinates": [-78.789155,40.542658]}},
{ "type": "Feature", "properties": {"Name":"Colwyn borough","State":"Pennsylvania","State_Abbrev":"PA"},
"geometry":{ "type": "Point", "coordinates": [-75.253077,39.911809]}},
{ "type": "Feature", "properties": {"Name":"Commodore CDP","State":"Pennsylvania","State_Abbrev":"PA"},
"geometry":{ "type": "Point", "coordinates": [-78.934778,40.715139]}},
{ "type": "Feature", "properties": {"Name":"Conashaugh Lakes CDP","State":"Pennsylvania","State_Abbrev":"PA"},
"geometry":{ "type": "Point", "coordinates": [-74.992538,41.304037]}},
{ "type": "Feature", "properties": {"Name":"Conestoga CDP","State":"Pennsylvania","State_Abbrev":"PA"},
"geometry":{ "type": "Point", "coordinates": [-76.336045,39.939755]}},
{ "type": "Feature", "properties": {"Name":"Confluence borough","State":"Pennsylvania","State_Abbrev":"PA"},
"geometry":{ "type": "Point", "coordinates": [-79.355905,39.809904]}},
{ "type": "Feature", "properties": {"Name":"Conneaut Lake borough","State":"Pennsylvania","State_Abbrev":"PA"},
"geometry":{ "type": "Point", "coordinates": [-80.309411,41.602677]}},
{ "type": "Feature", "properties": {"Name":"Conneaut Lakeshore CDP","State":"Pennsylvania","State_Abbrev":"PA"},
"geometry":{ "type": "Point", "coordinates": [-80.312062,41.619041]}},
{ "type": "Feature", "properties": {"Name":"Conneautville borough","State":"Pennsylvania","State_Abbrev":"PA"},
"geometry":{ "type": "Point", "coordinates": [-80.368638,41.75776]}},
{ "type": "Feature", "properties": {"Name":"Connellsville city","State":"Pennsylvania","State_Abbrev":"PA"},
"geometry":{ "type": "Point", "coordinates": [-79.58963,40.015901]}},
{ "type": "Feature", "properties": {"Name":"Connoquenessing borough","State":"Pennsylvania","State_Abbrev":"PA"},
"geometry":{ "type": "Point", "coordinates": [-80.015151,40.817417]}},
{ "type": "Feature", "properties": {"Name":"Conshohocken borough","State":"Pennsylvania","State_Abbrev":"PA"},
"geometry":{ "type": "Point", "coordinates": [-75.3041,40.077219]}},
{ "type": "Feature", "properties": {"Name":"Continental Courts CDP","State":"Pennsylvania","State_Abbrev":"PA"},
"geometry":{ "type": "Point", "coordinates": [-77.865723,40.870533]}},
{ "type": "Feature", "properties": {"Name":"Conway borough","State":"Pennsylvania","State_Abbrev":"PA"},
"geometry":{ "type": "Point", "coordinates": [-80.240179,40.666338]}},
{ "type": "Feature", "properties": {"Name":"Conyngham borough","State":"Pennsylvania","State_Abbrev":"PA"},
"geometry":{ "type": "Point", "coordinates": [-76.059854,40.991236]}},
{ "type": "Feature", "properties": {"Name":"Coopersburg borough","State":"Pennsylvania","State_Abbrev":"PA"},
"geometry":{ "type": "Point", "coordinates": [-75.39192,40.510368]}},
{ "type": "Feature", "properties": {"Name":"Cooperstown borough","State":"Pennsylvania","State_Abbrev":"PA"},
"geometry":{ "type": "Point", "coordinates": [-79.873626,41.4998]}},
{ "type": "Feature", "properties": {"Name":"Coplay borough","State":"Pennsylvania","State_Abbrev":"PA"},
"geometry":{ "type": "Point", "coordinates": [-75.495547,40.670709]}},
{ "type": "Feature", "properties": {"Name":"Coral CDP","State":"Pennsylvania","State_Abbrev":"PA"},
"geometry":{ "type": "Point", "coordinates": [-79.175216,40.503555]}},
{ "type": "Feature", "properties": {"Name":"Coraopolis borough","State":"Pennsylvania","State_Abbrev":"PA"},
"geometry":{ "type": "Point", "coordinates": [-80.161825,40.514618]}},
{ "type": "Feature", "properties": {"Name":"Cornwall borough","State":"Pennsylvania","State_Abbrev":"PA"},
"geometry":{ "type": "Point", "coordinates": [-76.410952,40.261093]}},
{ "type": "Feature", "properties": {"Name":"Cornwells Heights CDP","State":"Pennsylvania","State_Abbrev":"PA"},
"geometry":{ "type": "Point", "coordinates": [-74.951649,40.077065]}},
{ "type": "Feature", "properties": {"Name":"Corry city","State":"Pennsylvania","State_Abbrev":"PA"},
"geometry":{ "type": "Point", "coordinates": [-79.63313,41.928225]}},
{ "type": "Feature", "properties": {"Name":"Corsica borough","State":"Pennsylvania","State_Abbrev":"PA"},
"geometry":{ "type": "Point", "coordinates": [-79.202565,41.181294]}},
{ "type": "Feature", "properties": {"Name":"Cotton Town CDP","State":"Pennsylvania","State_Abbrev":"PA"},
"geometry":{ "type": "Point", "coordinates": [-78.481156,40.279879]}},
{ "type": "Feature", "properties": {"Name":"Coudersport borough","State":"Pennsylvania","State_Abbrev":"PA"},
"geometry":{ "type": "Point", "coordinates": [-78.016038,41.775844]}},
{ "type": "Feature", "properties": {"Name":"Courtdale borough","State":"Pennsylvania","State_Abbrev":"PA"},
"geometry":{ "type": "Point", "coordinates": [-75.914293,41.284932]}},
{ "type": "Feature", "properties": {"Name":"Cove Forge CDP","State":"Pennsylvania","State_Abbrev":"PA"},
"geometry":{ "type": "Point", "coordinates": [-78.173388,40.479115]}},
{ "type": "Feature", "properties": {"Name":"Crabtree CDP","State":"Pennsylvania","State_Abbrev":"PA"},
"geometry":{ "type": "Point", "coordinates": [-79.46949,40.363841]}},
{ "type": "Feature", "properties": {"Name":"Crafton borough","State":"Pennsylvania","State_Abbrev":"PA"},
"geometry":{ "type": "Point", "coordinates": [-80.071133,40.433301]}},
{ "type": "Feature", "properties": {"Name":"Cranesville borough","State":"Pennsylvania","State_Abbrev":"PA"},
"geometry":{ "type": "Point", "coordinates": [-80.33649,41.902592]}},
{ "type": "Feature", "properties": {"Name":"Creekside borough","State":"Pennsylvania","State_Abbrev":"PA"},
"geometry":{ "type": "Point", "coordinates": [-79.193613,40.681932]}},
{ "type": "Feature", "properties": {"Name":"Crenshaw CDP","State":"Pennsylvania","State_Abbrev":"PA"},
"geometry":{ "type": "Point", "coordinates": [-78.754056,41.251665]}},
{ "type": "Feature", "properties": {"Name":"Cresson borough","State":"Pennsylvania","State_Abbrev":"PA"},
"geometry":{ "type": "Point", "coordinates": [-78.586565,40.462594]}},
{ "type": "Feature", "properties": {"Name":"Cressona borough","State":"Pennsylvania","State_Abbrev":"PA"},
"geometry":{ "type": "Point", "coordinates": [-76.193861,40.630394]}},
{ "type": "Feature", "properties": {"Name":"Cross Creek CDP","State":"Pennsylvania","State_Abbrev":"PA"},
"geometry":{ "type": "Point", "coordinates": [-80.409115,40.326398]}},
{ "type": "Feature", "properties": {"Name":"Cross Keys CDP","State":"Pennsylvania","State_Abbrev":"PA"},
"geometry":{ "type": "Point", "coordinates": [-78.429329,40.445719]}},
{ "type": "Feature", "properties": {"Name":"Cross Roads borough","State":"Pennsylvania","State_Abbrev":"PA"},
"geometry":{ "type": "Point", "coordinates": [-76.572823,39.820013]}},
{ "type": "Feature", "properties": {"Name":"Crown CDP","State":"Pennsylvania","State_Abbrev":"PA"},
"geometry":{ "type": "Point", "coordinates": [-79.263766,41.393939]}},
{ "type": "Feature", "properties": {"Name":"Croydon CDP","State":"Pennsylvania","State_Abbrev":"PA"},
"geometry":{ "type": "Point", "coordinates": [-74.896679,40.090348]}},
{ "type": "Feature", "properties": {"Name":"Crucible CDP","State":"Pennsylvania","State_Abbrev":"PA"},
"geometry":{ "type": "Point", "coordinates": [-79.966613,39.947936]}},
{ "type": "Feature", "properties": {"Name":"Culp CDP","State":"Pennsylvania","State_Abbrev":"PA"},
"geometry":{ "type": "Point", "coordinates": [-78.263258,40.582484]}},
{ "type": "Feature", "properties": {"Name":"Cumbola CDP","State":"Pennsylvania","State_Abbrev":"PA"},
"geometry":{ "type": "Point", "coordinates": [-76.143184,40.713801]}},
{ "type": "Feature", "properties": {"Name":"Curryville CDP","State":"Pennsylvania","State_Abbrev":"PA"},
"geometry":{ "type": "Point", "coordinates": [-78.337961,40.275932]}},
{ "type": "Feature", "properties": {"Name":"Curtisville CDP","State":"Pennsylvania","State_Abbrev":"PA"},
"geometry":{ "type": "Point", "coordinates": [-79.849193,40.649746]}},
{ "type": "Feature", "properties": {"Name":"Curwensville borough","State":"Pennsylvania","State_Abbrev":"PA"},
"geometry":{ "type": "Point", "coordinates": [-78.518619,40.972882]}},
{ "type": "Feature", "properties": {"Name":"Daisytown borough","State":"Pennsylvania","State_Abbrev":"PA"},
"geometry":{ "type": "Point", "coordinates": [-78.903655,40.320115]}},
{ "type": "Feature", "properties": {"Name":"Dale borough","State":"Pennsylvania","State_Abbrev":"PA"},
"geometry":{ "type": "Point", "coordinates": [-78.905005,40.312108]}},
{ "type": "Feature", "properties": {"Name":"Dallas borough","State":"Pennsylvania","State_Abbrev":"PA"},
"geometry":{ "type": "Point", "coordinates": [-75.972862,41.33152]}},
{ "type": "Feature", "properties": {"Name":"Dallastown borough","State":"Pennsylvania","State_Abbrev":"PA"},
"geometry":{ "type": "Point", "coordinates": [-76.640937,39.899667]}},
{ "type": "Feature", "properties": {"Name":"Dalmatia CDP","State":"Pennsylvania","State_Abbrev":"PA"},
"geometry":{ "type": "Point", "coordinates": [-76.904234,40.648944]}},
{ "type": "Feature", "properties": {"Name":"Dalton borough","State":"Pennsylvania","State_Abbrev":"PA"},
"geometry":{ "type": "Point", "coordinates": [-75.73827,41.53761]}},
{ "type": "Feature", "properties": {"Name":"Danville borough","State":"Pennsylvania","State_Abbrev":"PA"},
"geometry":{ "type": "Point", "coordinates": [-76.61204,40.961676]}},
{ "type": "Feature", "properties": {"Name":"Darby borough","State":"Pennsylvania","State_Abbrev":"PA"},
"geometry":{ "type": "Point", "coordinates": [-75.261082,39.920953]}},
{ "type": "Feature", "properties": {"Name":"Darlington borough","State":"Pennsylvania","State_Abbrev":"PA"},
"geometry":{ "type": "Point", "coordinates": [-80.423389,40.810298]}},
{ "type": "Feature", "properties": {"Name":"Dauberville CDP","State":"Pennsylvania","State_Abbrev":"PA"},
"geometry":{ "type": "Point", "coordinates": [-75.995109,40.46076]}},
{ "type": "Feature", "properties": {"Name":"Dauphin borough","State":"Pennsylvania","State_Abbrev":"PA"},
"geometry":{ "type": "Point", "coordinates": [-76.930221,40.368281]}},
{ "type": "Feature", "properties": {"Name":"Davidsville CDP","State":"Pennsylvania","State_Abbrev":"PA"},
"geometry":{ "type": "Point", "coordinates": [-78.93563,40.234795]}},
{ "type": "Feature", "properties": {"Name":"Dawson borough","State":"Pennsylvania","State_Abbrev":"PA"},
"geometry":{ "type": "Point", "coordinates": [-79.656942,40.047175]}},
{ "type": "Feature", "properties": {"Name":"Dayton borough","State":"Pennsylvania","State_Abbrev":"PA"},
"geometry":{ "type": "Point", "coordinates": [-79.241127,40.881195]}},
{ "type": "Feature", "properties": {"Name":"Deemston borough","State":"Pennsylvania","State_Abbrev":"PA"},
"geometry":{ "type": "Point", "coordinates": [-80.033355,40.027272]}},
{ "type": "Feature", "properties": {"Name":"Deer Lake CDP","State":"Pennsylvania","State_Abbrev":"PA"},
"geometry":{ "type": "Point", "coordinates": [-79.589543,39.847251]}},
{ "type": "Feature", "properties": {"Name":"Deer Lake borough","State":"Pennsylvania","State_Abbrev":"PA"},
"geometry":{ "type": "Point", "coordinates": [-76.056838,40.620874]}},
{ "type": "Feature", "properties": {"Name":"Defiance CDP","State":"Pennsylvania","State_Abbrev":"PA"},
"geometry":{ "type": "Point", "coordinates": [-78.231776,40.159907]}},
{ "type": "Feature", "properties": {"Name":"Delano CDP","State":"Pennsylvania","State_Abbrev":"PA"},
"geometry":{ "type": "Point", "coordinates": [-76.067036,40.840428]}},
{ "type": "Feature", "properties": {"Name":"Delaware Water Gap borough","State":"Pennsylvania","State_Abbrev":"PA"},
"geometry":{ "type": "Point", "coordinates": [-75.133837,40.967874]}},
{ "type": "Feature", "properties": {"Name":"Delmont borough","State":"Pennsylvania","State_Abbrev":"PA"},
"geometry":{ "type": "Point", "coordinates": [-79.57289,40.414408]}},
{ "type": "Feature", "properties": {"Name":"Delta borough","State":"Pennsylvania","State_Abbrev":"PA"},
"geometry":{ "type": "Point", "coordinates": [-76.327131,39.726707]}},
{ "type": "Feature", "properties": {"Name":"Denver borough","State":"Pennsylvania","State_Abbrev":"PA"},
"geometry":{ "type": "Point", "coordinates": [-76.141163,40.234122]}},
{ "type": "Feature", "properties": {"Name":"Derry borough","State":"Pennsylvania","State_Abbrev":"PA"},
"geometry":{ "type": "Point", "coordinates": [-79.301084,40.333431]}},
{ "type": "Feature", "properties": {"Name":"DeSales University CDP","State":"Pennsylvania","State_Abbrev":"PA"},
"geometry":{ "type": "Point", "coordinates": [-75.378114,40.538224]}},
{ "type": "Feature", "properties": {"Name":"Devon CDP","State":"Pennsylvania","State_Abbrev":"PA"},
"geometry":{ "type": "Point", "coordinates": [-75.426792,40.048947]}},
{ "type": "Feature", "properties": {"Name":"Dewart CDP","State":"Pennsylvania","State_Abbrev":"PA"},
"geometry":{ "type": "Point", "coordinates": [-76.870655,41.109937]}},
{ "type": "Feature", "properties": {"Name":"Dickson City borough","State":"Pennsylvania","State_Abbrev":"PA"},
"geometry":{ "type": "Point", "coordinates": [-75.635816,41.468349]}},
{ "type": "Feature", "properties": {"Name":"Dillsburg borough","State":"Pennsylvania","State_Abbrev":"PA"},
"geometry":{ "type": "Point", "coordinates": [-77.032508,40.111524]}},
{ "type": "Feature", "properties": {"Name":"Dilworthtown CDP","State":"Pennsylvania","State_Abbrev":"PA"},
"geometry":{ "type": "Point", "coordinates": [-75.571355,39.901873]}},
{ "type": "Feature", "properties": {"Name":"Dixonville CDP","State":"Pennsylvania","State_Abbrev":"PA"},
"geometry":{ "type": "Point", "coordinates": [-79.010553,40.71617]}},
{ "type": "Feature", "properties": {"Name":"Donaldson CDP","State":"Pennsylvania","State_Abbrev":"PA"},
"geometry":{ "type": "Point", "coordinates": [-76.405873,40.636341]}},
{ "type": "Feature", "properties": {"Name":"Donegal borough","State":"Pennsylvania","State_Abbrev":"PA"},
"geometry":{ "type": "Point", "coordinates": [-79.380772,40.11202]}},
{ "type": "Feature", "properties": {"Name":"Donora borough","State":"Pennsylvania","State_Abbrev":"PA"},
"geometry":{ "type": "Point", "coordinates": [-79.862408,40.179529]}},
{ "type": "Feature", "properties": {"Name":"Dormont borough","State":"Pennsylvania","State_Abbrev":"PA"},
"geometry":{ "type": "Point", "coordinates": [-80.037709,40.394046]}},
{ "type": "Feature", "properties": {"Name":"Dorneyville CDP","State":"Pennsylvania","State_Abbrev":"PA"},
"geometry":{ "type": "Point", "coordinates": [-75.51958,40.576561]}},
{ "type": "Feature", "properties": {"Name":"Douglassville CDP","State":"Pennsylvania","State_Abbrev":"PA"},
"geometry":{ "type": "Point", "coordinates": [-75.724228,40.259899]}},
{ "type": "Feature", "properties": {"Name":"Dover borough","State":"Pennsylvania","State_Abbrev":"PA"},
"geometry":{ "type": "Point", "coordinates": [-76.848431,40.003302]}},
{ "type": "Feature", "properties": {"Name":"Downingtown borough","State":"Pennsylvania","State_Abbrev":"PA"},
"geometry":{ "type": "Point", "coordinates": [-75.702163,40.008289]}},
{ "type": "Feature", "properties": {"Name":"Doylestown borough","State":"Pennsylvania","State_Abbrev":"PA"},
"geometry":{ "type": "Point", "coordinates": [-75.127697,40.314197]}},
{ "type": "Feature", "properties": {"Name":"Dravosburg borough","State":"Pennsylvania","State_Abbrev":"PA"},
"geometry":{ "type": "Point", "coordinates": [-79.890176,40.350648]}},
{ "type": "Feature", "properties": {"Name":"Drexel Hill CDP","State":"Pennsylvania","State_Abbrev":"PA"},
"geometry":{ "type": "Point", "coordinates": [-75.303876,39.949498]}},
{ "type": "Feature", "properties": {"Name":"Driftwood borough","State":"Pennsylvania","State_Abbrev":"PA"},
"geometry":{ "type": "Point", "coordinates": [-78.122955,41.343958]}},
{ "type": "Feature", "properties": {"Name":"Dry Tavern CDP","State":"Pennsylvania","State_Abbrev":"PA"},
"geometry":{ "type": "Point", "coordinates": [-80.009525,39.939872]}},
{ "type": "Feature", "properties": {"Name":"Dryville CDP","State":"Pennsylvania","State_Abbrev":"PA"},
"geometry":{ "type": "Point", "coordinates": [-75.754753,40.46166]}},
{ "type": "Feature", "properties": {"Name":"Dublin borough","State":"Pennsylvania","State_Abbrev":"PA"},
"geometry":{ "type": "Point", "coordinates": [-75.205948,40.37692]}},
{ "type": "Feature", "properties": {"Name":"DuBois city","State":"Pennsylvania","State_Abbrev":"PA"},
"geometry":{ "type": "Point", "coordinates": [-78.756154,41.122269]}},
{ "type": "Feature", "properties": {"Name":"Duboistown borough","State":"Pennsylvania","State_Abbrev":"PA"},
"geometry":{ "type": "Point", "coordinates": [-77.037947,41.223175]}},
{ "type": "Feature", "properties": {"Name":"Dudley borough","State":"Pennsylvania","State_Abbrev":"PA"},
"geometry":{ "type": "Point", "coordinates": [-78.178305,40.205307]}},
{ "type": "Feature", "properties": {"Name":"Dumb Hundred CDP","State":"Pennsylvania","State_Abbrev":"PA"},
"geometry":{ "type": "Point", "coordinates": [-78.410466,40.317043]}},
{ "type": "Feature", "properties": {"Name":"Dunbar borough","State":"Pennsylvania","State_Abbrev":"PA"},
"geometry":{ "type": "Point", "coordinates": [-79.614665,39.978297]}},
{ "type": "Feature", "properties": {"Name":"Duncannon borough","State":"Pennsylvania","State_Abbrev":"PA"},
"geometry":{ "type": "Point", "coordinates": [-77.02773,40.395178]}},
{ "type": "Feature", "properties": {"Name":"Duncansville borough","State":"Pennsylvania","State_Abbrev":"PA"},
"geometry":{ "type": "Point", "coordinates": [-78.43026,40.426307]}},
{ "type": "Feature", "properties": {"Name":"Dunlevy borough","State":"Pennsylvania","State_Abbrev":"PA"},
"geometry":{ "type": "Point", "coordinates": [-79.858756,40.109575]}},
{ "type": "Feature", "properties": {"Name":"Dunlo CDP","State":"Pennsylvania","State_Abbrev":"PA"},
"geometry":{ "type": "Point", "coordinates": [-78.717617,40.293443]}},
{ "type": "Feature", "properties": {"Name":"Dunmore borough","State":"Pennsylvania","State_Abbrev":"PA"},
"geometry":{ "type": "Point", "coordinates": [-75.606253,41.413984]}},
{ "type": "Feature", "properties": {"Name":"Dunnstown CDP","State":"Pennsylvania","State_Abbrev":"PA"},
"geometry":{ "type": "Point", "coordinates": [-77.420699,41.150071]}},
{ "type": "Feature", "properties": {"Name":"Dupont borough","State":"Pennsylvania","State_Abbrev":"PA"},
"geometry":{ "type": "Point", "coordinates": [-75.741921,41.323776]}},
{ "type": "Feature", "properties": {"Name":"Duquesne city","State":"Pennsylvania","State_Abbrev":"PA"},
"geometry":{ "type": "Point", "coordinates": [-79.850162,40.373461]}},
{ "type": "Feature", "properties": {"Name":"Duryea borough","State":"Pennsylvania","State_Abbrev":"PA"},
"geometry":{ "type": "Point", "coordinates": [-75.776063,41.35131]}},
{ "type": "Feature", "properties": {"Name":"Dushore borough","State":"Pennsylvania","State_Abbrev":"PA"},
"geometry":{ "type": "Point", "coordinates": [-76.398512,41.526002]}},
{ "type": "Feature", "properties": {"Name":"Eagle CDP","State":"Pennsylvania","State_Abbrev":"PA"},
"geometry":{ "type": "Point", "coordinates": [-75.684749,40.076202]}},
{ "type": "Feature", "properties": {"Name":"Eagle Creek CDP","State":"Pennsylvania","State_Abbrev":"PA"},
"geometry":{ "type": "Point", "coordinates": [-77.893495,40.898834]}},
{ "type": "Feature", "properties": {"Name":"Eagle Lake CDP","State":"Pennsylvania","State_Abbrev":"PA"},
"geometry":{ "type": "Point", "coordinates": [-75.472903,41.280051]}},
{ "type": "Feature", "properties": {"Name":"Eagles Mere borough","State":"Pennsylvania","State_Abbrev":"PA"},
"geometry":{ "type": "Point", "coordinates": [-76.583089,41.409845]}},
{ "type": "Feature", "properties": {"Name":"Eagleview CDP","State":"Pennsylvania","State_Abbrev":"PA"},
"geometry":{ "type": "Point", "coordinates": [-75.680747,40.059376]}},
{ "type": "Feature", "properties": {"Name":"Eagleville CDP","State":"Pennsylvania","State_Abbrev":"PA"},
"geometry":{ "type": "Point", "coordinates": [-77.585317,41.055987]}},
{ "type": "Feature", "properties": {"Name":"Eagleville CDP","State":"Pennsylvania","State_Abbrev":"PA"},
"geometry":{ "type": "Point", "coordinates": [-75.408962,40.159863]}},
{ "type": "Feature", "properties": {"Name":"Earlston CDP","State":"Pennsylvania","State_Abbrev":"PA"},
"geometry":{ "type": "Point", "coordinates": [-78.373206,40.004081]}},
{ "type": "Feature", "properties": {"Name":"East Altoona CDP","State":"Pennsylvania","State_Abbrev":"PA"},
"geometry":{ "type": "Point", "coordinates": [-78.363634,40.546917]}},
{ "type": "Feature", "properties": {"Name":"East Bangor borough","State":"Pennsylvania","State_Abbrev":"PA"},
"geometry":{ "type": "Point", "coordinates": [-75.186393,40.880311]}},
{ "type": "Feature", "properties": {"Name":"East Berlin borough","State":"Pennsylvania","State_Abbrev":"PA"},
"geometry":{ "type": "Point", "coordinates": [-76.979459,39.936829]}},
{ "type": "Feature", "properties": {"Name":"East Berwick CDP","State":"Pennsylvania","State_Abbrev":"PA"},
"geometry":{ "type": "Point", "coordinates": [-76.217444,41.069717]}},
{ "type": "Feature", "properties": {"Name":"East Brady borough","State":"Pennsylvania","State_Abbrev":"PA"},
"geometry":{ "type": "Point", "coordinates": [-79.610306,40.981944]}},
{ "type": "Feature", "properties": {"Name":"East Butler borough","State":"Pennsylvania","State_Abbrev":"PA"},
"geometry":{ "type": "Point", "coordinates": [-79.847256,40.878837]}},
{ "type": "Feature", "properties": {"Name":"East Conemaugh borough","State":"Pennsylvania","State_Abbrev":"PA"},
"geometry":{ "type": "Point", "coordinates": [-78.886072,40.34763]}},
{ "type": "Feature", "properties": {"Name":"East Earl CDP","State":"Pennsylvania","State_Abbrev":"PA"},
"geometry":{ "type": "Point", "coordinates": [-76.025953,40.110171]}},
{ "type": "Feature", "properties": {"Name":"East Freedom CDP","State":"Pennsylvania","State_Abbrev":"PA"},
"geometry":{ "type": "Point", "coordinates": [-78.430471,40.355235]}},
{ "type": "Feature", "properties": {"Name":"East Greenville borough","State":"Pennsylvania","State_Abbrev":"PA"},
"geometry":{ "type": "Point", "coordinates": [-75.50596,40.40572]}},
{ "type": "Feature", "properties": {"Name":"East Lansdowne borough","State":"Pennsylvania","State_Abbrev":"PA"},
"geometry":{ "type": "Point", "coordinates": [-75.2608,39.943971]}},
{ "type": "Feature", "properties": {"Name":"Eastlawn Gardens CDP","State":"Pennsylvania","State_Abbrev":"PA"},
"geometry":{ "type": "Point", "coordinates": [-75.284681,40.748049]}},
{ "type": "Feature", "properties": {"Name":"East McKeesport borough","State":"Pennsylvania","State_Abbrev":"PA"},
"geometry":{ "type": "Point", "coordinates": [-79.807439,40.384812]}},
{ "type": "Feature", "properties": {"Name":"Easton city","State":"Pennsylvania","State_Abbrev":"PA"},
"geometry":{ "type": "Point", "coordinates": [-75.218548,40.685971]}},
{ "type": "Feature", "properties": {"Name":"East Petersburg borough","State":"Pennsylvania","State_Abbrev":"PA"},
"geometry":{ "type": "Point", "coordinates": [-76.349739,40.10336]}},
{ "type": "Feature", "properties": {"Name":"East Pittsburgh borough","State":"Pennsylvania","State_Abbrev":"PA"},
"geometry":{ "type": "Point", "coordinates": [-79.8382,40.396866]}},
{ "type": "Feature", "properties": {"Name":"East Prospect borough","State":"Pennsylvania","State_Abbrev":"PA"},
"geometry":{ "type": "Point", "coordinates": [-76.521404,39.971008]}},
{ "type": "Feature", "properties": {"Name":"East Rochester borough","State":"Pennsylvania","State_Abbrev":"PA"},
"geometry":{ "type": "Point", "coordinates": [-80.268983,40.698201]}},
{ "type": "Feature", "properties": {"Name":"East Salem CDP","State":"Pennsylvania","State_Abbrev":"PA"},
"geometry":{ "type": "Point", "coordinates": [-77.23694,40.608713]}},
{ "type": "Feature", "properties": {"Name":"East Sharpsburg CDP","State":"Pennsylvania","State_Abbrev":"PA"},
"geometry":{ "type": "Point", "coordinates": [-78.37217,40.334512]}},
{ "type": "Feature", "properties": {"Name":"East Side borough","State":"Pennsylvania","State_Abbrev":"PA"},
"geometry":{ "type": "Point", "coordinates": [-75.762173,41.062383]}},
{ "type": "Feature", "properties": {"Name":"East Stroudsburg borough","State":"Pennsylvania","State_Abbrev":"PA"},
"geometry":{ "type": "Point", "coordinates": [-75.171457,41.004877]}},
{ "type": "Feature", "properties": {"Name":"East Uniontown CDP","State":"Pennsylvania","State_Abbrev":"PA"},
"geometry":{ "type": "Point", "coordinates": [-79.697595,39.895986]}},
{ "type": "Feature", "properties": {"Name":"Eastvale borough","State":"Pennsylvania","State_Abbrev":"PA"},
"geometry":{ "type": "Point", "coordinates": [-80.314786,40.76662]}},
{ "type": "Feature", "properties": {"Name":"East Vandergrift borough","State":"Pennsylvania","State_Abbrev":"PA"},
"geometry":{ "type": "Point", "coordinates": [-79.562908,40.597437]}},
{ "type": "Feature", "properties": {"Name":"East Washington borough","State":"Pennsylvania","State_Abbrev":"PA"},
"geometry":{ "type": "Point", "coordinates": [-80.232436,40.174435]}},
{ "type": "Feature", "properties": {"Name":"East Waterford CDP","State":"Pennsylvania","State_Abbrev":"PA"},
"geometry":{ "type": "Point", "coordinates": [-77.604695,40.371131]}},
{ "type": "Feature", "properties": {"Name":"East York CDP","State":"Pennsylvania","State_Abbrev":"PA"},
"geometry":{ "type": "Point", "coordinates": [-76.675534,39.968722]}},
{ "type": "Feature", "properties": {"Name":"Eau Claire borough","State":"Pennsylvania","State_Abbrev":"PA"},
"geometry":{ "type": "Point", "coordinates": [-79.798531,41.136824]}},
{ "type": "Feature", "properties": {"Name":"Ebensburg borough","State":"Pennsylvania","State_Abbrev":"PA"},
"geometry":{ "type": "Point", "coordinates": [-78.726541,40.48812]}},
{ "type": "Feature", "properties": {"Name":"Economy borough","State":"Pennsylvania","State_Abbrev":"PA"},
"geometry":{ "type": "Point", "coordinates": [-80.186297,40.643656]}},
{ "type": "Feature", "properties": {"Name":"Eddington CDP","State":"Pennsylvania","State_Abbrev":"PA"},
"geometry":{ "type": "Point", "coordinates": [-74.944534,40.086492]}},
{ "type": "Feature", "properties": {"Name":"Eddystone borough","State":"Pennsylvania","State_Abbrev":"PA"},
"geometry":{ "type": "Point", "coordinates": [-75.337107,39.854849]}},
{ "type": "Feature", "properties": {"Name":"Edenborn CDP","State":"Pennsylvania","State_Abbrev":"PA"},
"geometry":{ "type": "Point", "coordinates": [-79.887664,39.882069]}},
{ "type": "Feature", "properties": {"Name":"Edenburg CDP","State":"Pennsylvania","State_Abbrev":"PA"},
"geometry":{ "type": "Point", "coordinates": [-75.959644,40.565512]}},
{ "type": "Feature", "properties": {"Name":"Edgewood borough","State":"Pennsylvania","State_Abbrev":"PA"},
"geometry":{ "type": "Point", "coordinates": [-79.883964,40.431295]}},
{ "type": "Feature", "properties": {"Name":"Edgewood CDP","State":"Pennsylvania","State_Abbrev":"PA"},
"geometry":{ "type": "Point", "coordinates": [-76.578025,40.788252]}},
{ "type": "Feature", "properties": {"Name":"Edgeworth borough","State":"Pennsylvania","State_Abbrev":"PA"},
"geometry":{ "type": "Point", "coordinates": [-80.192335,40.554421]}},
{ "type": "Feature", "properties": {"Name":"Edie CDP","State":"Pennsylvania","State_Abbrev":"PA"},
"geometry":{ "type": "Point", "coordinates": [-79.127898,40.086322]}},
{ "type": "Feature", "properties": {"Name":"Edinboro borough","State":"Pennsylvania","State_Abbrev":"PA"},
"geometry":{ "type": "Point", "coordinates": [-80.124246,41.874979]}},
{ "type": "Feature", "properties": {"Name":"Edwardsville borough","State":"Pennsylvania","State_Abbrev":"PA"},
"geometry":{ "type": "Point", "coordinates": [-75.909888,41.2602]}},
{ "type": "Feature", "properties": {"Name":"Effort CDP","State":"Pennsylvania","State_Abbrev":"PA"},
"geometry":{ "type": "Point", "coordinates": [-75.437683,40.941549]}},
{ "type": "Feature", "properties": {"Name":"Egypt CDP","State":"Pennsylvania","State_Abbrev":"PA"},
"geometry":{ "type": "Point", "coordinates": [-75.533025,40.685278]}},
{ "type": "Feature", "properties": {"Name":"Ehrenfeld borough","State":"Pennsylvania","State_Abbrev":"PA"},
"geometry":{ "type": "Point", "coordinates": [-78.777454,40.37513]}},
{ "type": "Feature", "properties": {"Name":"Eighty Four CDP","State":"Pennsylvania","State_Abbrev":"PA"},
"geometry":{ "type": "Point", "coordinates": [-80.130298,40.177698]}},
{ "type": "Feature", "properties": {"Name":"Elberta CDP","State":"Pennsylvania","State_Abbrev":"PA"},
"geometry":{ "type": "Point", "coordinates": [-78.324216,40.512465]}},
{ "type": "Feature", "properties": {"Name":"Elco borough","State":"Pennsylvania","State_Abbrev":"PA"},
"geometry":{ "type": "Point", "coordinates": [-79.881678,40.081825]}},
{ "type": "Feature", "properties": {"Name":"Elderton borough","State":"Pennsylvania","State_Abbrev":"PA"},
"geometry":{ "type": "Point", "coordinates": [-79.342075,40.694547]}},
{ "type": "Feature", "properties": {"Name":"Eldorado CDP","State":"Pennsylvania","State_Abbrev":"PA"},
"geometry":{ "type": "Point", "coordinates": [-78.439291,40.481187]}},
{ "type": "Feature", "properties": {"Name":"Eldred borough","State":"Pennsylvania","State_Abbrev":"PA"},
"geometry":{ "type": "Point", "coordinates": [-78.38062,41.956831]}},
{ "type": "Feature", "properties": {"Name":"Elgin borough","State":"Pennsylvania","State_Abbrev":"PA"},
"geometry":{ "type": "Point", "coordinates": [-79.746508,41.907013]}},
{ "type": "Feature", "properties": {"Name":"Elim CDP","State":"Pennsylvania","State_Abbrev":"PA"},
"geometry":{ "type": "Point", "coordinates": [-78.945463,40.297243]}},
{ "type": "Feature", "properties": {"Name":"Elizabeth borough","State":"Pennsylvania","State_Abbrev":"PA"},
"geometry":{ "type": "Point", "coordinates": [-79.887153,40.271554]}},
{ "type": "Feature", "properties": {"Name":"Elizabethtown borough","State":"Pennsylvania","State_Abbrev":"PA"},
"geometry":{ "type": "Point", "coordinates": [-76.598652,40.153284]}},
{ "type": "Feature", "properties": {"Name":"Elizabethville borough","State":"Pennsylvania","State_Abbrev":"PA"},
"geometry":{ "type": "Point", "coordinates": [-76.815973,40.547242]}},
{ "type": "Feature", "properties": {"Name":"Elkins Park CDP","State":"Pennsylvania","State_Abbrev":"PA"},
"geometry":{ "type": "Point", "coordinates": [-75.128024,40.077471]}},
{ "type": "Feature", "properties": {"Name":"Elkland borough","State":"Pennsylvania","State_Abbrev":"PA"},
"geometry":{ "type": "Point", "coordinates": [-77.314061,41.989058]}},
{ "type": "Feature", "properties": {"Name":"Ellport borough","State":"Pennsylvania","State_Abbrev":"PA"},
"geometry":{ "type": "Point", "coordinates": [-80.262113,40.861623]}},
{ "type": "Feature", "properties": {"Name":"Ellsworth borough","State":"Pennsylvania","State_Abbrev":"PA"},
"geometry":{ "type": "Point", "coordinates": [-80.022613,40.105341]}},
{ "type": "Feature", "properties": {"Name":"Ellwood City borough","State":"Pennsylvania","State_Abbrev":"PA"},
"geometry":{ "type": "Point", "coordinates": [-80.282913,40.861982]}},
{ "type": "Feature", "properties": {"Name":"Elrama CDP","State":"Pennsylvania","State_Abbrev":"PA"},
"geometry":{ "type": "Point", "coordinates": [-79.924344,40.251701]}},
{ "type": "Feature", "properties": {"Name":"Elverson borough","State":"Pennsylvania","State_Abbrev":"PA"},
"geometry":{ "type": "Point", "coordinates": [-75.830826,40.153719]}},
{ "type": "Feature", "properties": {"Name":"Elysburg CDP","State":"Pennsylvania","State_Abbrev":"PA"},
"geometry":{ "type": "Point", "coordinates": [-76.54916,40.86799]}},
{ "type": "Feature", "properties": {"Name":"Emerald Lakes CDP","State":"Pennsylvania","State_Abbrev":"PA"},
"geometry":{ "type": "Point", "coordinates": [-75.413727,41.084103]}},
{ "type": "Feature", "properties": {"Name":"Emigsville CDP","State":"Pennsylvania","State_Abbrev":"PA"},
"geometry":{ "type": "Point", "coordinates": [-76.730281,40.008019]}},
{ "type": "Feature", "properties": {"Name":"Emlenton borough","State":"Pennsylvania","State_Abbrev":"PA"},
"geometry":{ "type": "Point", "coordinates": [-79.70855,41.180245]}},
{ "type": "Feature", "properties": {"Name":"Emmaus borough","State":"Pennsylvania","State_Abbrev":"PA"},
"geometry":{ "type": "Point", "coordinates": [-75.497883,40.535188]}},
{ "type": "Feature", "properties": {"Name":"Emporium borough","State":"Pennsylvania","State_Abbrev":"PA"},
"geometry":{ "type": "Point", "coordinates": [-78.234035,41.510411]}},
{ "type": "Feature", "properties": {"Name":"Emsworth borough","State":"Pennsylvania","State_Abbrev":"PA"},
"geometry":{ "type": "Point", "coordinates": [-80.096217,40.510872]}},
{ "type": "Feature", "properties": {"Name":"Englewood CDP","State":"Pennsylvania","State_Abbrev":"PA"},
"geometry":{ "type": "Point", "coordinates": [-76.24491,40.781462]}},
{ "type": "Feature", "properties": {"Name":"Enhaut CDP","State":"Pennsylvania","State_Abbrev":"PA"},
"geometry":{ "type": "Point", "coordinates": [-76.82539,40.232425]}},
{ "type": "Feature", "properties": {"Name":"Enlow CDP","State":"Pennsylvania","State_Abbrev":"PA"},
"geometry":{ "type": "Point", "coordinates": [-80.231739,40.452255]}},
{ "type": "Feature", "properties": {"Name":"Enola CDP","State":"Pennsylvania","State_Abbrev":"PA"},
"geometry":{ "type": "Point", "coordinates": [-76.935497,40.290604]}},
{ "type": "Feature", "properties": {"Name":"Enon Valley borough","State":"Pennsylvania","State_Abbrev":"PA"},
"geometry":{ "type": "Point", "coordinates": [-80.456243,40.855756]}},
{ "type": "Feature", "properties": {"Name":"Ephrata borough","State":"Pennsylvania","State_Abbrev":"PA"},
"geometry":{ "type": "Point", "coordinates": [-76.180184,40.180851]}},
{ "type": "Feature", "properties": {"Name":"Erie city","State":"Pennsylvania","State_Abbrev":"PA"},
"geometry":{ "type": "Point", "coordinates": [-80.073503,42.116594]}},
{ "type": "Feature", "properties": {"Name":"Ernest borough","State":"Pennsylvania","State_Abbrev":"PA"},
"geometry":{ "type": "Point", "coordinates": [-79.165775,40.678894]}},
{ "type": "Feature", "properties": {"Name":"Espy CDP","State":"Pennsylvania","State_Abbrev":"PA"},
"geometry":{ "type": "Point", "coordinates": [-76.417222,41.005039]}},
{ "type": "Feature", "properties": {"Name":"Etna borough","State":"Pennsylvania","State_Abbrev":"PA"},
"geometry":{ "type": "Point", "coordinates": [-79.949631,40.495161]}},
{ "type": "Feature", "properties": {"Name":"Evansburg CDP","State":"Pennsylvania","State_Abbrev":"PA"},
"geometry":{ "type": "Point", "coordinates": [-75.434052,40.189785]}},
{ "type": "Feature", "properties": {"Name":"Evans City borough","State":"Pennsylvania","State_Abbrev":"PA"},
"geometry":{ "type": "Point", "coordinates": [-80.058366,40.768498]}},
{ "type": "Feature", "properties": {"Name":"Everett borough","State":"Pennsylvania","State_Abbrev":"PA"},
"geometry":{ "type": "Point", "coordinates": [-78.355903,40.010867]}},
{ "type": "Feature", "properties": {"Name":"Everson borough","State":"Pennsylvania","State_Abbrev":"PA"},
"geometry":{ "type": "Point", "coordinates": [-79.587044,40.090648]}},
{ "type": "Feature", "properties": {"Name":"Exeter borough","State":"Pennsylvania","State_Abbrev":"PA"},
"geometry":{ "type": "Point", "coordinates": [-75.82115,41.333177]}},
{ "type": "Feature", "properties": {"Name":"Export borough","State":"Pennsylvania","State_Abbrev":"PA"},
"geometry":{ "type": "Point", "coordinates": [-79.623063,40.416912]}},
{ "type": "Feature", "properties": {"Name":"Exton CDP","State":"Pennsylvania","State_Abbrev":"PA"},
"geometry":{ "type": "Point", "coordinates": [-75.633061,40.029916]}},
{ "type": "Feature", "properties": {"Name":"Eyers Grove CDP","State":"Pennsylvania","State_Abbrev":"PA"},
"geometry":{ "type": "Point", "coordinates": [-76.519614,41.095493]}},
{ "type": "Feature", "properties": {"Name":"Factoryville borough","State":"Pennsylvania","State_Abbrev":"PA"},
"geometry":{ "type": "Point", "coordinates": [-75.782643,41.559965]}},
{ "type": "Feature", "properties": {"Name":"Fairchance borough","State":"Pennsylvania","State_Abbrev":"PA"},
"geometry":{ "type": "Point", "coordinates": [-79.753998,39.825088]}},
{ "type": "Feature", "properties": {"Name":"Fairdale CDP","State":"Pennsylvania","State_Abbrev":"PA"},
"geometry":{ "type": "Point", "coordinates": [-79.966679,39.893169]}},
{ "type": "Feature", "properties": {"Name":"Fairfield borough","State":"Pennsylvania","State_Abbrev":"PA"},
"geometry":{ "type": "Point", "coordinates": [-77.369819,39.789001]}},
{ "type": "Feature", "properties": {"Name":"Fairhope CDP","State":"Pennsylvania","State_Abbrev":"PA"},
"geometry":{ "type": "Point", "coordinates": [-79.838819,40.115014]}},
{ "type": "Feature", "properties": {"Name":"Fairless Hills CDP","State":"Pennsylvania","State_Abbrev":"PA"},
"geometry":{ "type": "Point", "coordinates": [-74.85096,40.177667]}},
{ "type": "Feature", "properties": {"Name":"Fairview borough","State":"Pennsylvania","State_Abbrev":"PA"},
"geometry":{ "type": "Point", "coordinates": [-79.743151,41.015595]}},
{ "type": "Feature", "properties": {"Name":"Fairview CDP","State":"Pennsylvania","State_Abbrev":"PA"},
"geometry":{ "type": "Point", "coordinates": [-80.254725,42.025458]}},
{ "type": "Feature", "properties": {"Name":"Fairview-Ferndale CDP","State":"Pennsylvania","State_Abbrev":"PA"},
"geometry":{ "type": "Point", "coordinates": [-76.569952,40.779459]}},
{ "type": "Feature", "properties": {"Name":"Falls Creek borough","State":"Pennsylvania","State_Abbrev":"PA"},
"geometry":{ "type": "Point", "coordinates": [-78.806947,41.141959]}},
{ "type": "Feature", "properties": {"Name":"Fallston borough","State":"Pennsylvania","State_Abbrev":"PA"},
"geometry":{ "type": "Point", "coordinates": [-80.31375,40.726792]}},
{ "type": "Feature", "properties": {"Name":"Falmouth CDP","State":"Pennsylvania","State_Abbrev":"PA"},
"geometry":{ "type": "Point", "coordinates": [-76.702427,40.129868]}},
{ "type": "Feature", "properties": {"Name":"Farmersville CDP","State":"Pennsylvania","State_Abbrev":"PA"},
"geometry":{ "type": "Point", "coordinates": [-76.152095,40.124234]}},
{ "type": "Feature", "properties": {"Name":"Farmington CDP","State":"Pennsylvania","State_Abbrev":"PA"},
"geometry":{ "type": "Point", "coordinates": [-79.562942,39.808181]}},
{ "type": "Feature", "properties": {"Name":"Farrell city","State":"Pennsylvania","State_Abbrev":"PA"},
"geometry":{ "type": "Point", "coordinates": [-80.497338,41.211094]}},
{ "type": "Feature", "properties": {"Name":"Farwell CDP","State":"Pennsylvania","State_Abbrev":"PA"},
"geometry":{ "type": "Point", "coordinates": [-77.721297,41.333176]}},
{ "type": "Feature", "properties": {"Name":"Fawn Grove borough","State":"Pennsylvania","State_Abbrev":"PA"},
"geometry":{ "type": "Point", "coordinates": [-76.452115,39.731172]}},
{ "type": "Feature", "properties": {"Name":"Fawn Lake Forest CDP","State":"Pennsylvania","State_Abbrev":"PA"},
"geometry":{ "type": "Point", "coordinates": [-75.054398,41.51421]}},
{ "type": "Feature", "properties": {"Name":"Faxon CDP","State":"Pennsylvania","State_Abbrev":"PA"},
"geometry":{ "type": "Point", "coordinates": [-76.977138,41.255677]}},
{ "type": "Feature", "properties": {"Name":"Fayette City borough","State":"Pennsylvania","State_Abbrev":"PA"},
"geometry":{ "type": "Point", "coordinates": [-79.838348,40.100691]}},
{ "type": "Feature", "properties": {"Name":"Fayetteville CDP","State":"Pennsylvania","State_Abbrev":"PA"},
"geometry":{ "type": "Point", "coordinates": [-77.5651,39.911433]}},
{ "type": "Feature", "properties": {"Name":"Feasterville CDP","State":"Pennsylvania","State_Abbrev":"PA"},
"geometry":{ "type": "Point", "coordinates": [-74.991563,40.154001]}},
{ "type": "Feature", "properties": {"Name":"Fellsburg CDP","State":"Pennsylvania","State_Abbrev":"PA"},
"geometry":{ "type": "Point", "coordinates": [-79.826989,40.184207]}},
{ "type": "Feature", "properties": {"Name":"Felton borough","State":"Pennsylvania","State_Abbrev":"PA"},
"geometry":{ "type": "Point", "coordinates": [-76.561135,39.857115]}},
{ "type": "Feature", "properties": {"Name":"Ferndale borough","State":"Pennsylvania","State_Abbrev":"PA"},
"geometry":{ "type": "Point", "coordinates": [-78.919817,40.290549]}},
{ "type": "Feature", "properties": {"Name":"Fernville CDP","State":"Pennsylvania","State_Abbrev":"PA"},
"geometry":{ "type": "Point", "coordinates": [-76.477437,41.001972]}},
{ "type": "Feature", "properties": {"Name":"Finleyville borough","State":"Pennsylvania","State_Abbrev":"PA"},
"geometry":{ "type": "Point", "coordinates": [-80.002032,40.252765]}},
{ "type": "Feature", "properties": {"Name":"Fisherville CDP","State":"Pennsylvania","State_Abbrev":"PA"},
"geometry":{ "type": "Point", "coordinates": [-78.169775,40.472598]}},
{ "type": "Feature", "properties": {"Name":"Fivepointville CDP","State":"Pennsylvania","State_Abbrev":"PA"},
"geometry":{ "type": "Point", "coordinates": [-76.056291,40.179243]}},
{ "type": "Feature", "properties": {"Name":"Fleetwood borough","State":"Pennsylvania","State_Abbrev":"PA"},
"geometry":{ "type": "Point", "coordinates": [-75.821579,40.456503]}},
{ "type": "Feature", "properties": {"Name":"Flemington borough","State":"Pennsylvania","State_Abbrev":"PA"},
"geometry":{ "type": "Point", "coordinates": [-77.470232,41.12719]}},
{ "type": "Feature", "properties": {"Name":"Flourtown CDP","State":"Pennsylvania","State_Abbrev":"PA"},
"geometry":{ "type": "Point", "coordinates": [-75.206883,40.1052]}},
{ "type": "Feature", "properties": {"Name":"Flying Hills CDP","State":"Pennsylvania","State_Abbrev":"PA"},
"geometry":{ "type": "Point", "coordinates": [-75.913223,40.277907]}},
{ "type": "Feature", "properties": {"Name":"Folcroft borough","State":"Pennsylvania","State_Abbrev":"PA"},
"geometry":{ "type": "Point", "coordinates": [-75.275774,39.888246]}},
{ "type": "Feature", "properties": {"Name":"Folsom CDP","State":"Pennsylvania","State_Abbrev":"PA"},
"geometry":{ "type": "Point", "coordinates": [-75.328666,39.892381]}},
{ "type": "Feature", "properties": {"Name":"Foot of Ten CDP","State":"Pennsylvania","State_Abbrev":"PA"},
"geometry":{ "type": "Point", "coordinates": [-78.461567,40.418094]}},
{ "type": "Feature", "properties": {"Name":"Force CDP","State":"Pennsylvania","State_Abbrev":"PA"},
"geometry":{ "type": "Point", "coordinates": [-78.50406,41.25932]}},
{ "type": "Feature", "properties": {"Name":"Ford City borough","State":"Pennsylvania","State_Abbrev":"PA"},
"geometry":{ "type": "Point", "coordinates": [-79.532999,40.769615]}},
{ "type": "Feature", "properties": {"Name":"Ford Cliff borough","State":"Pennsylvania","State_Abbrev":"PA"},
"geometry":{ "type": "Point", "coordinates": [-79.535765,40.760813]}},
{ "type": "Feature", "properties": {"Name":"Forest City borough","State":"Pennsylvania","State_Abbrev":"PA"},
"geometry":{ "type": "Point", "coordinates": [-75.469231,41.65269]}},
{ "type": "Feature", "properties": {"Name":"Forest Hills borough","State":"Pennsylvania","State_Abbrev":"PA"},
"geometry":{ "type": "Point", "coordinates": [-79.854465,40.425081]}},
{ "type": "Feature", "properties": {"Name":"Forestville CDP","State":"Pennsylvania","State_Abbrev":"PA"},
"geometry":{ "type": "Point", "coordinates": [-76.292597,40.693791]}},
{ "type": "Feature", "properties": {"Name":"Forksville borough","State":"Pennsylvania","State_Abbrev":"PA"},
"geometry":{ "type": "Point", "coordinates": [-76.602841,41.489613]}},
{ "type": "Feature", "properties": {"Name":"Fort Fetter CDP","State":"Pennsylvania","State_Abbrev":"PA"},
"geometry":{ "type": "Point", "coordinates": [-78.404304,40.430089]}},
{ "type": "Feature", "properties": {"Name":"Fort Indiantown Gap CDP","State":"Pennsylvania","State_Abbrev":"PA"},