{"type":"FeatureCollection","features":[
{ "type": "Feature", "properties": {"Name":"Aceitunas comunidad","State":"Puerto Rico","State_Abbrev":"PR"},
"geometry":{ "type": "Point", "coordinates": [-67.066912,18.445534]}},
{ "type": "Feature", "properties": {"Name":"Adjuntas zona urbana","State":"Puerto Rico","State_Abbrev":"PR"},
"geometry":{ "type": "Point", "coordinates": [-66.723537,18.163777]}},
{ "type": "Feature", "properties": {"Name":"Aguada zona urbana","State":"Puerto Rico","State_Abbrev":"PR"},
"geometry":{ "type": "Point", "coordinates": [-67.188389,18.380342]}},
{ "type": "Feature", "properties": {"Name":"Aguadilla zona urbana","State":"Puerto Rico","State_Abbrev":"PR"},
"geometry":{ "type": "Point", "coordinates": [-67.154796,18.438398]}},
{ "type": "Feature", "properties": {"Name":"Aguas Buenas zona urbana","State":"Puerto Rico","State_Abbrev":"PR"},
"geometry":{ "type": "Point", "coordinates": [-66.106426,18.258177]}},
{ "type": "Feature", "properties": {"Name":"Aguas Claras comunidad","State":"Puerto Rico","State_Abbrev":"PR"},
"geometry":{ "type": "Point", "coordinates": [-65.666201,18.244671]}},
{ "type": "Feature", "properties": {"Name":"Aguilita comunidad","State":"Puerto Rico","State_Abbrev":"PR"},
"geometry":{ "type": "Point", "coordinates": [-66.534059,18.028544]}},
{ "type": "Feature", "properties": {"Name":"Aibonito zona urbana","State":"Puerto Rico","State_Abbrev":"PR"},
"geometry":{ "type": "Point", "coordinates": [-66.266355,18.140051]}},
{ "type": "Feature", "properties": {"Name":"Alianza comunidad","State":"Puerto Rico","State_Abbrev":"PR"},
"geometry":{ "type": "Point", "coordinates": [-66.855606,18.453417]}},
{ "type": "Feature", "properties": {"Name":"Añasco zona urbana","State":"Puerto Rico","State_Abbrev":"PR"},
"geometry":{ "type": "Point", "coordinates": [-67.14012,18.285525]}},
{ "type": "Feature", "properties": {"Name":"Animas comunidad","State":"Puerto Rico","State_Abbrev":"PR"},
"geometry":{ "type": "Point", "coordinates": [-66.636436,18.445744]}},
{ "type": "Feature", "properties": {"Name":"Anon Raices comunidad","State":"Puerto Rico","State_Abbrev":"PR"},
"geometry":{ "type": "Point", "coordinates": [-66.58577,18.139059]}},
{ "type": "Feature", "properties": {"Name":"Antón Ruíz comunidad","State":"Puerto Rico","State_Abbrev":"PR"},
"geometry":{ "type": "Point", "coordinates": [-65.807881,18.188269]}},
{ "type": "Feature", "properties": {"Name":"Arecibo zona urbana","State":"Puerto Rico","State_Abbrev":"PR"},
"geometry":{ "type": "Point", "coordinates": [-66.735446,18.454857]}},
{ "type": "Feature", "properties": {"Name":"Arroyo zona urbana","State":"Puerto Rico","State_Abbrev":"PR"},
"geometry":{ "type": "Point", "coordinates": [-66.059899,17.969618]}},
{ "type": "Feature", "properties": {"Name":"Bairoa La Veinticinco comunidad","State":"Puerto Rico","State_Abbrev":"PR"},
"geometry":{ "type": "Point", "coordinates": [-66.021499,18.263567]}},
{ "type": "Feature", "properties": {"Name":"Bajadero comunidad","State":"Puerto Rico","State_Abbrev":"PR"},
"geometry":{ "type": "Point", "coordinates": [-66.671979,18.420412]}},
{ "type": "Feature", "properties": {"Name":"Bajandas comunidad","State":"Puerto Rico","State_Abbrev":"PR"},
"geometry":{ "type": "Point", "coordinates": [-65.783104,18.160142]}},
{ "type": "Feature", "properties": {"Name":"Barahona comunidad","State":"Puerto Rico","State_Abbrev":"PR"},
"geometry":{ "type": "Point", "coordinates": [-66.44428,18.352202]}},
{ "type": "Feature", "properties": {"Name":"Barceloneta zona urbana","State":"Puerto Rico","State_Abbrev":"PR"},
"geometry":{ "type": "Point", "coordinates": [-66.538085,18.452974]}},
{ "type": "Feature", "properties": {"Name":"Barranquitas zona urbana","State":"Puerto Rico","State_Abbrev":"PR"},
"geometry":{ "type": "Point", "coordinates": [-66.310174,18.184765]}},
{ "type": "Feature", "properties": {"Name":"Bartolo comunidad","State":"Puerto Rico","State_Abbrev":"PR"},
"geometry":{ "type": "Point", "coordinates": [-65.841366,18.362003]}},
{ "type": "Feature", "properties": {"Name":"Bayamón zona urbana","State":"Puerto Rico","State_Abbrev":"PR"},
"geometry":{ "type": "Point", "coordinates": [-66.163253,18.380055]}},
{ "type": "Feature", "properties": {"Name":"Bayamón comunidad","State":"Puerto Rico","State_Abbrev":"PR"},
"geometry":{ "type": "Point", "coordinates": [-66.109726,18.178136]}},
{ "type": "Feature", "properties": {"Name":"Benítez comunidad","State":"Puerto Rico","State_Abbrev":"PR"},
"geometry":{ "type": "Point", "coordinates": [-65.878831,18.272533]}},
{ "type": "Feature", "properties": {"Name":"Betances comunidad","State":"Puerto Rico","State_Abbrev":"PR"},
"geometry":{ "type": "Point", "coordinates": [-67.133546,18.029568]}},
{ "type": "Feature", "properties": {"Name":"Boquerón comunidad","State":"Puerto Rico","State_Abbrev":"PR"},
"geometry":{ "type": "Point", "coordinates": [-67.171443,18.034077]}},
{ "type": "Feature", "properties": {"Name":"Boquerón comunidad","State":"Puerto Rico","State_Abbrev":"PR"},
"geometry":{ "type": "Point", "coordinates": [-65.843879,18.200145]}},
{ "type": "Feature", "properties": {"Name":"Breñas comunidad","State":"Puerto Rico","State_Abbrev":"PR"},
"geometry":{ "type": "Point", "coordinates": [-66.334609,18.473299]}},
{ "type": "Feature", "properties": {"Name":"Brisas del Campanero comunidad","State":"Puerto Rico","State_Abbrev":"PR"},
"geometry":{ "type": "Point", "coordinates": [-66.226068,18.431598]}},
{ "type": "Feature", "properties": {"Name":"Buena Vista comunidad","State":"Puerto Rico","State_Abbrev":"PR"},
"geometry":{ "type": "Point", "coordinates": [-66.05155,17.996468]}},
{ "type": "Feature", "properties": {"Name":"Buena Vista comunidad","State":"Puerto Rico","State_Abbrev":"PR"},
"geometry":{ "type": "Point", "coordinates": [-65.799057,18.115311]}},
{ "type": "Feature", "properties": {"Name":"Búfalo comunidad","State":"Puerto Rico","State_Abbrev":"PR"},
"geometry":{ "type": "Point", "coordinates": [-66.57501,18.416531]}},
{ "type": "Feature", "properties": {"Name":"Cabán comunidad","State":"Puerto Rico","State_Abbrev":"PR"},
"geometry":{ "type": "Point", "coordinates": [-67.136271,18.445009]}},
{ "type": "Feature", "properties": {"Name":"Cabo Rojo zona urbana","State":"Puerto Rico","State_Abbrev":"PR"},
"geometry":{ "type": "Point", "coordinates": [-67.148266,18.086717]}},
{ "type": "Feature", "properties": {"Name":"Cacao comunidad","State":"Puerto Rico","State_Abbrev":"PR"},
"geometry":{ "type": "Point", "coordinates": [-66.956314,18.452026]}},
{ "type": "Feature", "properties": {"Name":"Caguas zona urbana","State":"Puerto Rico","State_Abbrev":"PR"},
"geometry":{ "type": "Point", "coordinates": [-66.039035,18.232149]}},
{ "type": "Feature", "properties": {"Name":"Calzada comunidad","State":"Puerto Rico","State_Abbrev":"PR"},
"geometry":{ "type": "Point", "coordinates": [-66.564253,18.005465]}},
{ "type": "Feature", "properties": {"Name":"Cambalache comunidad","State":"Puerto Rico","State_Abbrev":"PR"},
"geometry":{ "type": "Point", "coordinates": [-65.886691,18.358273]}},
{ "type": "Feature", "properties": {"Name":"Campanilla comunidad","State":"Puerto Rico","State_Abbrev":"PR"},
"geometry":{ "type": "Point", "coordinates": [-66.239169,18.422435]}},
{ "type": "Feature", "properties": {"Name":"Campanillas comunidad","State":"Puerto Rico","State_Abbrev":"PR"},
"geometry":{ "type": "Point", "coordinates": [-66.21596,18.438623]}},
{ "type": "Feature", "properties": {"Name":"Campo Rico comunidad","State":"Puerto Rico","State_Abbrev":"PR"},
"geometry":{ "type": "Point", "coordinates": [-65.894341,18.339008]}},
{ "type": "Feature", "properties": {"Name":"Camuy zona urbana","State":"Puerto Rico","State_Abbrev":"PR"},
"geometry":{ "type": "Point", "coordinates": [-66.847372,18.48258]}},
{ "type": "Feature", "properties": {"Name":"Candelaria comunidad","State":"Puerto Rico","State_Abbrev":"PR"},
"geometry":{ "type": "Point", "coordinates": [-66.218021,18.406406]}},
{ "type": "Feature", "properties": {"Name":"Candelaria Arenas comunidad","State":"Puerto Rico","State_Abbrev":"PR"},
"geometry":{ "type": "Point", "coordinates": [-66.220527,18.417251]}},
{ "type": "Feature", "properties": {"Name":"Candelero Abajo comunidad","State":"Puerto Rico","State_Abbrev":"PR"},
"geometry":{ "type": "Point", "coordinates": [-65.816456,18.094167]}},
{ "type": "Feature", "properties": {"Name":"Candelero Arriba comunidad","State":"Puerto Rico","State_Abbrev":"PR"},
"geometry":{ "type": "Point", "coordinates": [-65.834242,18.101667]}},
{ "type": "Feature", "properties": {"Name":"Caño Martin Peña comunidad","State":"Puerto Rico","State_Abbrev":"PR"},
"geometry":{ "type": "Point", "coordinates": [-66.05007,18.430367]}},
{ "type": "Feature", "properties": {"Name":"Canóvanas zona urbana","State":"Puerto Rico","State_Abbrev":"PR"},
"geometry":{ "type": "Point", "coordinates": [-65.900894,18.369209]}},
{ "type": "Feature", "properties": {"Name":"Canovanillas comunidad","State":"Puerto Rico","State_Abbrev":"PR"},
"geometry":{ "type": "Point", "coordinates": [-65.903963,18.334528]}},
{ "type": "Feature", "properties": {"Name":"Capitanejo comunidad","State":"Puerto Rico","State_Abbrev":"PR"},
"geometry":{ "type": "Point", "coordinates": [-66.535641,18.013122]}},
{ "type": "Feature", "properties": {"Name":"Carolina zona urbana","State":"Puerto Rico","State_Abbrev":"PR"},
"geometry":{ "type": "Point", "coordinates": [-65.979697,18.409287]}},
{ "type": "Feature", "properties": {"Name":"Carrizales comunidad","State":"Puerto Rico","State_Abbrev":"PR"},
"geometry":{ "type": "Point", "coordinates": [-66.78791,18.481088]}},
{ "type": "Feature", "properties": {"Name":"Cataño zona urbana","State":"Puerto Rico","State_Abbrev":"PR"},
"geometry":{ "type": "Point", "coordinates": [-66.138834,18.438069]}},
{ "type": "Feature", "properties": {"Name":"Cayey zona urbana","State":"Puerto Rico","State_Abbrev":"PR"},
"geometry":{ "type": "Point", "coordinates": [-66.162877,18.115296]}},
{ "type": "Feature", "properties": {"Name":"Cayuco comunidad","State":"Puerto Rico","State_Abbrev":"PR"},
"geometry":{ "type": "Point", "coordinates": [-66.734847,18.29229]}},
{ "type": "Feature", "properties": {"Name":"Ceiba zona urbana","State":"Puerto Rico","State_Abbrev":"PR"},
"geometry":{ "type": "Point", "coordinates": [-65.648816,18.264971]}},
{ "type": "Feature", "properties": {"Name":"Ceiba comunidad","State":"Puerto Rico","State_Abbrev":"PR"},
"geometry":{ "type": "Point", "coordinates": [-66.345568,18.442643]}},
{ "type": "Feature", "properties": {"Name":"Celada comunidad","State":"Puerto Rico","State_Abbrev":"PR"},
"geometry":{ "type": "Point", "coordinates": [-65.962541,18.266689]}},
{ "type": "Feature", "properties": {"Name":"Central Aguirre comunidad","State":"Puerto Rico","State_Abbrev":"PR"},
"geometry":{ "type": "Point", "coordinates": [-66.228318,17.956697]}},
{ "type": "Feature", "properties": {"Name":"Cerrillos Hoyos comunidad","State":"Puerto Rico","State_Abbrev":"PR"},
"geometry":{ "type": "Point", "coordinates": [-66.568893,18.065478]}},
{ "type": "Feature", "properties": {"Name":"Ciales zona urbana","State":"Puerto Rico","State_Abbrev":"PR"},
"geometry":{ "type": "Point", "coordinates": [-66.471897,18.334053]}},
{ "type": "Feature", "properties": {"Name":"Cidra zona urbana","State":"Puerto Rico","State_Abbrev":"PR"},
"geometry":{ "type": "Point", "coordinates": [-66.158486,18.177505]}},
{ "type": "Feature", "properties": {"Name":"Coamo zona urbana","State":"Puerto Rico","State_Abbrev":"PR"},
"geometry":{ "type": "Point", "coordinates": [-66.363161,18.078302]}},
{ "type": "Feature", "properties": {"Name":"Coco comunidad","State":"Puerto Rico","State_Abbrev":"PR"},
"geometry":{ "type": "Point", "coordinates": [-66.2607,18.001277]}},
{ "type": "Feature", "properties": {"Name":"Comerío zona urbana","State":"Puerto Rico","State_Abbrev":"PR"},
"geometry":{ "type": "Point", "coordinates": [-66.225053,18.219489]}},
{ "type": "Feature", "properties": {"Name":"Comunas comunidad","State":"Puerto Rico","State_Abbrev":"PR"},
"geometry":{ "type": "Point", "coordinates": [-65.843537,18.084569]}},
{ "type": "Feature", "properties": {"Name":"Coquí comunidad","State":"Puerto Rico","State_Abbrev":"PR"},
"geometry":{ "type": "Point", "coordinates": [-66.225551,17.979286]}},
{ "type": "Feature", "properties": {"Name":"Corazón comunidad","State":"Puerto Rico","State_Abbrev":"PR"},
"geometry":{ "type": "Point", "coordinates": [-66.083355,17.994008]}},
{ "type": "Feature", "properties": {"Name":"Corcovado comunidad","State":"Puerto Rico","State_Abbrev":"PR"},
"geometry":{ "type": "Point", "coordinates": [-66.777761,18.461022]}},
{ "type": "Feature", "properties": {"Name":"Corozal zona urbana","State":"Puerto Rico","State_Abbrev":"PR"},
"geometry":{ "type": "Point", "coordinates": [-66.312464,18.340988]}},
{ "type": "Feature", "properties": {"Name":"Corral Viejo comunidad","State":"Puerto Rico","State_Abbrev":"PR"},
"geometry":{ "type": "Point", "coordinates": [-66.652336,18.075455]}},
{ "type": "Feature", "properties": {"Name":"Coto Laurel comunidad","State":"Puerto Rico","State_Abbrev":"PR"},
"geometry":{ "type": "Point", "coordinates": [-66.551703,18.04912]}},
{ "type": "Feature", "properties": {"Name":"Coto Norte comunidad","State":"Puerto Rico","State_Abbrev":"PR"},
"geometry":{ "type": "Point", "coordinates": [-66.440826,18.432826]}},
{ "type": "Feature", "properties": {"Name":"Culebra zona urbana","State":"Puerto Rico","State_Abbrev":"PR"},
"geometry":{ "type": "Point", "coordinates": [-65.302701,18.310331]}},
{ "type": "Feature", "properties": {"Name":"Daguao comunidad","State":"Puerto Rico","State_Abbrev":"PR"},
"geometry":{ "type": "Point", "coordinates": [-65.679774,18.22165]}},
{ "type": "Feature", "properties": {"Name":"Del Carmen comunidad","State":"Puerto Rico","State_Abbrev":"PR"},
"geometry":{ "type": "Point", "coordinates": [-66.848909,18.467795]}},
{ "type": "Feature", "properties": {"Name":"Dorado zona urbana","State":"Puerto Rico","State_Abbrev":"PR"},
"geometry":{ "type": "Point", "coordinates": [-66.271108,18.468976]}},
{ "type": "Feature", "properties": {"Name":"Duque comunidad","State":"Puerto Rico","State_Abbrev":"PR"},
"geometry":{ "type": "Point", "coordinates": [-65.742358,18.237407]}},
{ "type": "Feature", "properties": {"Name":"El Combate comunidad","State":"Puerto Rico","State_Abbrev":"PR"},
"geometry":{ "type": "Point", "coordinates": [-67.208935,17.983103]}},
{ "type": "Feature", "properties": {"Name":"El Mangó comunidad","State":"Puerto Rico","State_Abbrev":"PR"},
"geometry":{ "type": "Point", "coordinates": [-65.875112,18.23446]}},
{ "type": "Feature", "properties": {"Name":"El Negro comunidad","State":"Puerto Rico","State_Abbrev":"PR"},
"geometry":{ "type": "Point", "coordinates": [-65.849446,18.036932]}},
{ "type": "Feature", "properties": {"Name":"El Ojo comunidad","State":"Puerto Rico","State_Abbrev":"PR"},
"geometry":{ "type": "Point", "coordinates": [-66.391842,18.003807]}},
{ "type": "Feature", "properties": {"Name":"El Paraiso comunidad","State":"Puerto Rico","State_Abbrev":"PR"},
"geometry":{ "type": "Point", "coordinates": [-66.602092,18.064841]}},
{ "type": "Feature", "properties": {"Name":"El Tumbao comunidad","State":"Puerto Rico","State_Abbrev":"PR"},
"geometry":{ "type": "Point", "coordinates": [-66.902147,18.000925]}},
{ "type": "Feature", "properties": {"Name":"El Veintiséis comunidad","State":"Puerto Rico","State_Abbrev":"PR"},
"geometry":{ "type": "Point", "coordinates": [-66.203439,18.439347]}},
{ "type": "Feature", "properties": {"Name":"Emajagua comunidad","State":"Puerto Rico","State_Abbrev":"PR"},
"geometry":{ "type": "Point", "coordinates": [-65.882959,18.001517]}},
{ "type": "Feature", "properties": {"Name":"Esperanza comunidad","State":"Puerto Rico","State_Abbrev":"PR"},
"geometry":{ "type": "Point", "coordinates": [-65.479735,18.102317]}},
{ "type": "Feature", "properties": {"Name":"Espino comunidad","State":"Puerto Rico","State_Abbrev":"PR"},
"geometry":{ "type": "Point", "coordinates": [-67.119838,18.279328]}},
{ "type": "Feature", "properties": {"Name":"Fajardo zona urbana","State":"Puerto Rico","State_Abbrev":"PR"},
"geometry":{ "type": "Point", "coordinates": [-65.657626,18.333339]}},
{ "type": "Feature", "properties": {"Name":"Ferrer comunidad","State":"Puerto Rico","State_Abbrev":"PR"},
"geometry":{ "type": "Point", "coordinates": [-67.067185,18.405378]}},
{ "type": "Feature", "properties": {"Name":"Florida zona urbana","State":"Puerto Rico","State_Abbrev":"PR"},
"geometry":{ "type": "Point", "coordinates": [-66.561275,18.364524]}},
{ "type": "Feature", "properties": {"Name":"Fránquez comunidad","State":"Puerto Rico","State_Abbrev":"PR"},
"geometry":{ "type": "Point", "coordinates": [-66.42764,18.340069]}},
{ "type": "Feature", "properties": {"Name":"Frontón comunidad","State":"Puerto Rico","State_Abbrev":"PR"},
"geometry":{ "type": "Point", "coordinates": [-66.560254,18.309652]}},
{ "type": "Feature", "properties": {"Name":"Fuig comunidad","State":"Puerto Rico","State_Abbrev":"PR"},
"geometry":{ "type": "Point", "coordinates": [-66.91711,17.986287]}},
{ "type": "Feature", "properties": {"Name":"Galateo comunidad","State":"Puerto Rico","State_Abbrev":"PR"},
"geometry":{ "type": "Point", "coordinates": [-66.261809,18.364048]}},
{ "type": "Feature", "properties": {"Name":"Garrochales comunidad","State":"Puerto Rico","State_Abbrev":"PR"},
"geometry":{ "type": "Point", "coordinates": [-66.567551,18.457199]}},
{ "type": "Feature", "properties": {"Name":"G. L. García comunidad","State":"Puerto Rico","State_Abbrev":"PR"},
"geometry":{ "type": "Point", "coordinates": [-66.102608,18.125902]}},
{ "type": "Feature", "properties": {"Name":"Guánica zona urbana","State":"Puerto Rico","State_Abbrev":"PR"},
"geometry":{ "type": "Point", "coordinates": [-66.929167,17.968376]}},
{ "type": "Feature", "properties": {"Name":"Guayabal comunidad","State":"Puerto Rico","State_Abbrev":"PR"},
"geometry":{ "type": "Point", "coordinates": [-66.501662,18.076043]}},
{ "type": "Feature", "properties": {"Name":"Guayama zona urbana","State":"Puerto Rico","State_Abbrev":"PR"},
"geometry":{ "type": "Point", "coordinates": [-66.111498,17.973819]}},
{ "type": "Feature", "properties": {"Name":"Guayanilla zona urbana","State":"Puerto Rico","State_Abbrev":"PR"},
"geometry":{ "type": "Point", "coordinates": [-66.791046,18.021827]}},
{ "type": "Feature", "properties": {"Name":"Guaynabo zona urbana","State":"Puerto Rico","State_Abbrev":"PR"},
"geometry":{ "type": "Point", "coordinates": [-66.114942,18.38399]}},
{ "type": "Feature", "properties": {"Name":"Gurabo zona urbana","State":"Puerto Rico","State_Abbrev":"PR"},
"geometry":{ "type": "Point", "coordinates": [-65.978641,18.252607]}},
{ "type": "Feature", "properties": {"Name":"Hacienda San José comunidad","State":"Puerto Rico","State_Abbrev":"PR"},
"geometry":{ "type": "Point", "coordinates": [-66.071847,18.240611]}},
{ "type": "Feature", "properties": {"Name":"Hatillo zona urbana","State":"Puerto Rico","State_Abbrev":"PR"},
"geometry":{ "type": "Point", "coordinates": [-66.822157,18.483817]}},
{ "type": "Feature", "properties": {"Name":"Hato Arriba comunidad","State":"Puerto Rico","State_Abbrev":"PR"},
"geometry":{ "type": "Point", "coordinates": [-67.033598,18.351982]}},
{ "type": "Feature", "properties": {"Name":"Hato Candal comunidad","State":"Puerto Rico","State_Abbrev":"PR"},
"geometry":{ "type": "Point", "coordinates": [-65.790598,18.37318]}},
{ "type": "Feature", "properties": {"Name":"Hato Viejo comunidad","State":"Puerto Rico","State_Abbrev":"PR"},
"geometry":{ "type": "Point", "coordinates": [-66.481138,18.35978]}},
{ "type": "Feature", "properties": {"Name":"Honduras comunidad","State":"Puerto Rico","State_Abbrev":"PR"},
"geometry":{ "type": "Point", "coordinates": [-66.200504,18.141188]}},
{ "type": "Feature", "properties": {"Name":"Hormigueros zona urbana","State":"Puerto Rico","State_Abbrev":"PR"},
"geometry":{ "type": "Point", "coordinates": [-67.120577,18.143559]}},
{ "type": "Feature", "properties": {"Name":"H. Rivera Colón comunidad","State":"Puerto Rico","State_Abbrev":"PR"},
"geometry":{ "type": "Point", "coordinates": [-66.276327,18.34925]}},
{ "type": "Feature", "properties": {"Name":"Humacao zona urbana","State":"Puerto Rico","State_Abbrev":"PR"},
"geometry":{ "type": "Point", "coordinates": [-65.820599,18.151768]}},
{ "type": "Feature", "properties": {"Name":"Imbéry comunidad","State":"Puerto Rico","State_Abbrev":"PR"},
"geometry":{ "type": "Point", "coordinates": [-66.556498,18.437106]}},
{ "type": "Feature", "properties": {"Name":"Indios comunidad","State":"Puerto Rico","State_Abbrev":"PR"},
"geometry":{ "type": "Point", "coordinates": [-66.81937,17.997254]}},
{ "type": "Feature", "properties": {"Name":"Ingenio comunidad","State":"Puerto Rico","State_Abbrev":"PR"},
"geometry":{ "type": "Point", "coordinates": [-66.22389,18.445238]}},
{ "type": "Feature", "properties": {"Name":"Isabela zona urbana","State":"Puerto Rico","State_Abbrev":"PR"},
"geometry":{ "type": "Point", "coordinates": [-67.023722,18.501749]}},
{ "type": "Feature", "properties": {"Name":"Isleta comunidad","State":"Puerto Rico","State_Abbrev":"PR"},
"geometry":{ "type": "Point", "coordinates": [-67.112322,18.375818]}},
{ "type": "Feature", "properties": {"Name":"Jagual comunidad","State":"Puerto Rico","State_Abbrev":"PR"},
"geometry":{ "type": "Point", "coordinates": [-65.999119,18.161046]}},
{ "type": "Feature", "properties": {"Name":"Jaguas comunidad","State":"Puerto Rico","State_Abbrev":"PR"},
"geometry":{ "type": "Point", "coordinates": [-66.477703,18.307374]}},
{ "type": "Feature", "properties": {"Name":"Jauca comunidad","State":"Puerto Rico","State_Abbrev":"PR"},
"geometry":{ "type": "Point", "coordinates": [-66.366984,17.96257]}},
{ "type": "Feature", "properties": {"Name":"Jayuya zona urbana","State":"Puerto Rico","State_Abbrev":"PR"},
"geometry":{ "type": "Point", "coordinates": [-66.598311,18.219801]}},
{ "type": "Feature", "properties": {"Name":"Jobos comunidad","State":"Puerto Rico","State_Abbrev":"PR"},
"geometry":{ "type": "Point", "coordinates": [-66.165519,17.960716]}},
{ "type": "Feature", "properties": {"Name":"Juana Díaz zona urbana","State":"Puerto Rico","State_Abbrev":"PR"},
"geometry":{ "type": "Point", "coordinates": [-66.504319,18.053257]}},
{ "type": "Feature", "properties": {"Name":"Juncal comunidad","State":"Puerto Rico","State_Abbrev":"PR"},
"geometry":{ "type": "Point", "coordinates": [-66.921834,18.312385]}},
{ "type": "Feature", "properties": {"Name":"Juncos zona urbana","State":"Puerto Rico","State_Abbrev":"PR"},
"geometry":{ "type": "Point", "coordinates": [-65.915876,18.225798]}},
{ "type": "Feature", "properties": {"Name":"La Alianza comunidad","State":"Puerto Rico","State_Abbrev":"PR"},
"geometry":{ "type": "Point", "coordinates": [-66.597489,18.395048]}},
{ "type": "Feature", "properties": {"Name":"La Dolores comunidad","State":"Puerto Rico","State_Abbrev":"PR"},
"geometry":{ "type": "Point", "coordinates": [-65.854682,18.372611]}},
{ "type": "Feature", "properties": {"Name":"La Fermina comunidad","State":"Puerto Rico","State_Abbrev":"PR"},
"geometry":{ "type": "Point", "coordinates": [-65.851922,18.173372]}},
{ "type": "Feature", "properties": {"Name":"Lajas zona urbana","State":"Puerto Rico","State_Abbrev":"PR"},
"geometry":{ "type": "Point", "coordinates": [-67.057126,18.042876]}},
{ "type": "Feature", "properties": {"Name":"La Liga comunidad","State":"Puerto Rico","State_Abbrev":"PR"},
"geometry":{ "type": "Point", "coordinates": [-66.050756,18.289316]}},
{ "type": "Feature", "properties": {"Name":"La Luisa comunidad","State":"Puerto Rico","State_Abbrev":"PR"},
"geometry":{ "type": "Point", "coordinates": [-66.507839,18.448833]}},
{ "type": "Feature", "properties": {"Name":"Lamboglia comunidad","State":"Puerto Rico","State_Abbrev":"PR"},
"geometry":{ "type": "Point", "coordinates": [-65.985828,17.98476]}},
{ "type": "Feature", "properties": {"Name":"La Parguera comunidad","State":"Puerto Rico","State_Abbrev":"PR"},
"geometry":{ "type": "Point", "coordinates": [-67.045919,17.974853]}},
{ "type": "Feature", "properties": {"Name":"La Pica comunidad","State":"Puerto Rico","State_Abbrev":"PR"},
"geometry":{ "type": "Point", "coordinates": [-66.861947,18.465222]}},
{ "type": "Feature", "properties": {"Name":"La Playa comunidad","State":"Puerto Rico","State_Abbrev":"PR"},
"geometry":{ "type": "Point", "coordinates": [-67.188791,18.285582]}},
{ "type": "Feature", "properties": {"Name":"La Plena comunidad","State":"Puerto Rico","State_Abbrev":"PR"},
"geometry":{ "type": "Point", "coordinates": [-66.206306,18.041189]}},
{ "type": "Feature", "properties": {"Name":"Lares zona urbana","State":"Puerto Rico","State_Abbrev":"PR"},
"geometry":{ "type": "Point", "coordinates": [-66.883392,18.296758]}},
{ "type": "Feature", "properties": {"Name":"Las Carolinas comunidad","State":"Puerto Rico","State_Abbrev":"PR"},
"geometry":{ "type": "Point", "coordinates": [-66.064316,18.253768]}},
{ "type": "Feature", "properties": {"Name":"Las Croabas comunidad","State":"Puerto Rico","State_Abbrev":"PR"},
"geometry":{ "type": "Point", "coordinates": [-65.631596,18.368748]}},
{ "type": "Feature", "properties": {"Name":"Las Gaviotas comunidad","State":"Puerto Rico","State_Abbrev":"PR"},
"geometry":{ "type": "Point", "coordinates": [-66.190702,18.436804]}},
{ "type": "Feature", "properties": {"Name":"Las Marías comunidad","State":"Puerto Rico","State_Abbrev":"PR"},
"geometry":{ "type": "Point", "coordinates": [-67.144542,18.292696]}},
{ "type": "Feature", "properties": {"Name":"Las Marías zona urbana","State":"Puerto Rico","State_Abbrev":"PR"},
"geometry":{ "type": "Point", "coordinates": [-66.986945,18.254593]}},
{ "type": "Feature", "properties": {"Name":"Las Ochenta comunidad","State":"Puerto Rico","State_Abbrev":"PR"},
"geometry":{ "type": "Point", "coordinates": [-66.317691,17.983895]}},
{ "type": "Feature", "properties": {"Name":"Las Ollas comunidad","State":"Puerto Rico","State_Abbrev":"PR"},
"geometry":{ "type": "Point", "coordinates": [-66.42116,18.014654]}},
{ "type": "Feature", "properties": {"Name":"Las Piedras zona urbana","State":"Puerto Rico","State_Abbrev":"PR"},
"geometry":{ "type": "Point", "coordinates": [-65.871079,18.17867]}},
{ "type": "Feature", "properties": {"Name":"Lassalle comunidad","State":"Puerto Rico","State_Abbrev":"PR"},
"geometry":{ "type": "Point", "coordinates": [-67.061621,18.385599]}},
{ "type": "Feature", "properties": {"Name":"La Yuca comunidad","State":"Puerto Rico","State_Abbrev":"PR"},
"geometry":{ "type": "Point", "coordinates": [-66.607733,18.072734]}},
{ "type": "Feature", "properties": {"Name":"Liborio Negrón Torres comunidad","State":"Puerto Rico","State_Abbrev":"PR"},
"geometry":{ "type": "Point", "coordinates": [-66.942801,18.043095]}},
{ "type": "Feature", "properties": {"Name":"Lluveras comunidad","State":"Puerto Rico","State_Abbrev":"PR"},
"geometry":{ "type": "Point", "coordinates": [-66.90376,18.038008]}},
{ "type": "Feature", "properties": {"Name":"Loíza zona urbana","State":"Puerto Rico","State_Abbrev":"PR"},
"geometry":{ "type": "Point", "coordinates": [-65.878011,18.433056]}},
{ "type": "Feature", "properties": {"Name":"Lomas comunidad","State":"Puerto Rico","State_Abbrev":"PR"},
"geometry":{ "type": "Point", "coordinates": [-65.909583,18.268759]}},
{ "type": "Feature", "properties": {"Name":"Lomas Verdes comunidad","State":"Puerto Rico","State_Abbrev":"PR"},
"geometry":{ "type": "Point", "coordinates": [-67.120054,18.38226]}},
{ "type": "Feature", "properties": {"Name":"Los Héroes comunidad","State":"Puerto Rico","State_Abbrev":"PR"},
"geometry":{ "type": "Point", "coordinates": [-67.118732,18.391074]}},
{ "type": "Feature", "properties": {"Name":"Los Llanos comunidad","State":"Puerto Rico","State_Abbrev":"PR"},
"geometry":{ "type": "Point", "coordinates": [-66.409135,18.057963]}},
{ "type": "Feature", "properties": {"Name":"Los Panes comunidad","State":"Puerto Rico","State_Abbrev":"PR"},
"geometry":{ "type": "Point", "coordinates": [-66.076127,18.184869]}},
{ "type": "Feature", "properties": {"Name":"Los Prados comunidad","State":"Puerto Rico","State_Abbrev":"PR"},
"geometry":{ "type": "Point", "coordinates": [-66.062138,18.23301]}},
{ "type": "Feature", "properties": {"Name":"Luis Lloréns Torres comunidad","State":"Puerto Rico","State_Abbrev":"PR"},
"geometry":{ "type": "Point", "coordinates": [-66.526735,18.056544]}},
{ "type": "Feature", "properties": {"Name":"Luis M. Cintrón comunidad","State":"Puerto Rico","State_Abbrev":"PR"},
"geometry":{ "type": "Point", "coordinates": [-65.637833,18.301384]}},
{ "type": "Feature", "properties": {"Name":"Luquillo zona urbana","State":"Puerto Rico","State_Abbrev":"PR"},
"geometry":{ "type": "Point", "coordinates": [-65.72092,18.375668]}},
{ "type": "Feature", "properties": {"Name":"Luyando comunidad","State":"Puerto Rico","State_Abbrev":"PR"},
"geometry":{ "type": "Point", "coordinates": [-67.155343,18.357471]}},
{ "type": "Feature", "properties": {"Name":"Magas Arriba comunidad","State":"Puerto Rico","State_Abbrev":"PR"},
"geometry":{ "type": "Point", "coordinates": [-66.766443,18.023424]}},
{ "type": "Feature", "properties": {"Name":"Maguayo comunidad","State":"Puerto Rico","State_Abbrev":"PR"},
"geometry":{ "type": "Point", "coordinates": [-67.085439,18.009988]}},
{ "type": "Feature", "properties": {"Name":"Manatí zona urbana","State":"Puerto Rico","State_Abbrev":"PR"},
"geometry":{ "type": "Point", "coordinates": [-66.477145,18.431295]}},
{ "type": "Feature", "properties": {"Name":"Mansión del Mar comunidad","State":"Puerto Rico","State_Abbrev":"PR"},
"geometry":{ "type": "Point", "coordinates": [-66.178596,18.446857]}},
{ "type": "Feature", "properties": {"Name":"Mansión del Sol comunidad","State":"Puerto Rico","State_Abbrev":"PR"},
"geometry":{ "type": "Point", "coordinates": [-66.193697,18.437018]}},
{ "type": "Feature", "properties": {"Name":"María Antonia comunidad","State":"Puerto Rico","State_Abbrev":"PR"},
"geometry":{ "type": "Point", "coordinates": [-66.889853,17.978262]}},
{ "type": "Feature", "properties": {"Name":"Mariano Colón comunidad","State":"Puerto Rico","State_Abbrev":"PR"},
"geometry":{ "type": "Point", "coordinates": [-66.33563,18.028675]}},
{ "type": "Feature", "properties": {"Name":"Maricao zona urbana","State":"Puerto Rico","State_Abbrev":"PR"},
"geometry":{ "type": "Point", "coordinates": [-66.977403,18.181836]}},
{ "type": "Feature", "properties": {"Name":"Martorell comunidad","State":"Puerto Rico","State_Abbrev":"PR"},
"geometry":{ "type": "Point", "coordinates": [-65.897671,18.07304]}},
{ "type": "Feature", "properties": {"Name":"Marueño comunidad","State":"Puerto Rico","State_Abbrev":"PR"},
"geometry":{ "type": "Point", "coordinates": [-66.656864,18.05842]}},
{ "type": "Feature", "properties": {"Name":"Maunabo zona urbana","State":"Puerto Rico","State_Abbrev":"PR"},
"geometry":{ "type": "Point", "coordinates": [-65.90122,18.006268]}},
{ "type": "Feature", "properties": {"Name":"Mayagüez zona urbana","State":"Puerto Rico","State_Abbrev":"PR"},
"geometry":{ "type": "Point", "coordinates": [-67.14178,18.201221]}},
{ "type": "Feature", "properties": {"Name":"Miranda comunidad","State":"Puerto Rico","State_Abbrev":"PR"},
"geometry":{ "type": "Point", "coordinates": [-66.372629,18.387052]}},
{ "type": "Feature", "properties": {"Name":"Moca zona urbana","State":"Puerto Rico","State_Abbrev":"PR"},
"geometry":{ "type": "Point", "coordinates": [-67.113821,18.394248]}},
{ "type": "Feature", "properties": {"Name":"Monserrate comunidad","State":"Puerto Rico","State_Abbrev":"PR"},
"geometry":{ "type": "Point", "coordinates": [-66.356638,18.43711]}},
{ "type": "Feature", "properties": {"Name":"Monte Grande comunidad","State":"Puerto Rico","State_Abbrev":"PR"},
"geometry":{ "type": "Point", "coordinates": [-67.120036,18.089403]}},
{ "type": "Feature", "properties": {"Name":"Monte Verde comunidad","State":"Puerto Rico","State_Abbrev":"PR"},
"geometry":{ "type": "Point", "coordinates": [-66.619961,18.098242]}},
{ "type": "Feature", "properties": {"Name":"Mora comunidad","State":"Puerto Rico","State_Abbrev":"PR"},
"geometry":{ "type": "Point", "coordinates": [-67.032097,18.462709]}},
{ "type": "Feature", "properties": {"Name":"Morovis zona urbana","State":"Puerto Rico","State_Abbrev":"PR"},
"geometry":{ "type": "Point", "coordinates": [-66.406065,18.326856]}},
{ "type": "Feature", "properties": {"Name":"Mucarabones comunidad","State":"Puerto Rico","State_Abbrev":"PR"},
"geometry":{ "type": "Point", "coordinates": [-66.21773,18.390653]}},
{ "type": "Feature", "properties": {"Name":"Naguabo zona urbana","State":"Puerto Rico","State_Abbrev":"PR"},
"geometry":{ "type": "Point", "coordinates": [-65.737047,18.211673]}},
{ "type": "Feature", "properties": {"Name":"Naranjito zona urbana","State":"Puerto Rico","State_Abbrev":"PR"},
"geometry":{ "type": "Point", "coordinates": [-66.249638,18.302821]}},
{ "type": "Feature", "properties": {"Name":"Olimpo comunidad","State":"Puerto Rico","State_Abbrev":"PR"},
"geometry":{ "type": "Point", "coordinates": [-66.110063,18.003243]}},
{ "type": "Feature", "properties": {"Name":"Orocovis zona urbana","State":"Puerto Rico","State_Abbrev":"PR"},
"geometry":{ "type": "Point", "coordinates": [-66.390193,18.225851]}},
{ "type": "Feature", "properties": {"Name":"Pabellones comunidad","State":"Puerto Rico","State_Abbrev":"PR"},
"geometry":{ "type": "Point", "coordinates": [-66.215608,18.441212]}},
{ "type": "Feature", "properties": {"Name":"Pájaros comunidad","State":"Puerto Rico","State_Abbrev":"PR"},
"geometry":{ "type": "Point", "coordinates": [-66.218414,18.360935]}},
{ "type": "Feature", "properties": {"Name":"Pajonal comunidad","State":"Puerto Rico","State_Abbrev":"PR"},
"geometry":{ "type": "Point", "coordinates": [-66.555982,18.384657]}},
{ "type": "Feature", "properties": {"Name":"Palmarejo comunidad","State":"Puerto Rico","State_Abbrev":"PR"},
"geometry":{ "type": "Point", "coordinates": [-66.326629,18.068197]}},
{ "type": "Feature", "properties": {"Name":"Palmarejo comunidad","State":"Puerto Rico","State_Abbrev":"PR"},
"geometry":{ "type": "Point", "coordinates": [-66.292326,18.31481]}},
{ "type": "Feature", "properties": {"Name":"Palmarejo comunidad","State":"Puerto Rico","State_Abbrev":"PR"},
"geometry":{ "type": "Point", "coordinates": [-67.076486,18.040914]}},
{ "type": "Feature", "properties": {"Name":"Palmas comunidad","State":"Puerto Rico","State_Abbrev":"PR"},
"geometry":{ "type": "Point", "coordinates": [-66.025126,17.988396]}},
{ "type": "Feature", "properties": {"Name":"Palmas del Mar comunidad","State":"Puerto Rico","State_Abbrev":"PR"},
"geometry":{ "type": "Point", "coordinates": [-65.801639,18.090916]}},
{ "type": "Feature", "properties": {"Name":"Palma Sola comunidad","State":"Puerto Rico","State_Abbrev":"PR"},
"geometry":{ "type": "Point", "coordinates": [-65.87151,18.323943]}},
{ "type": "Feature", "properties": {"Name":"Palmer comunidad","State":"Puerto Rico","State_Abbrev":"PR"},
"geometry":{ "type": "Point", "coordinates": [-65.773386,18.370372]}},
{ "type": "Feature", "properties": {"Name":"Palomas comunidad","State":"Puerto Rico","State_Abbrev":"PR"},
"geometry":{ "type": "Point", "coordinates": [-66.253439,18.235272]}},
{ "type": "Feature", "properties": {"Name":"Palomas comunidad","State":"Puerto Rico","State_Abbrev":"PR"},
"geometry":{ "type": "Point", "coordinates": [-66.868796,18.013473]}},
{ "type": "Feature", "properties": {"Name":"Palo Seco comunidad","State":"Puerto Rico","State_Abbrev":"PR"},
"geometry":{ "type": "Point", "coordinates": [-65.936985,18.009288]}},
{ "type": "Feature", "properties": {"Name":"Parcelas de Navarro comunidad","State":"Puerto Rico","State_Abbrev":"PR"},
"geometry":{ "type": "Point", "coordinates": [-66.004162,18.230106]}},
{ "type": "Feature", "properties": {"Name":"Parcelas La Milagrosa comunidad","State":"Puerto Rico","State_Abbrev":"PR"},
"geometry":{ "type": "Point", "coordinates": [-66.186848,18.171508]}},
{ "type": "Feature", "properties": {"Name":"Parcelas Mandry comunidad","State":"Puerto Rico","State_Abbrev":"PR"},
"geometry":{ "type": "Point", "coordinates": [-66.562711,18.081023]}},
{ "type": "Feature", "properties": {"Name":"Parcelas Nuevas comunidad","State":"Puerto Rico","State_Abbrev":"PR"},
"geometry":{ "type": "Point", "coordinates": [-66.170236,18.139985]}},
{ "type": "Feature", "properties": {"Name":"Parcelas Peñuelas comunidad","State":"Puerto Rico","State_Abbrev":"PR"},
"geometry":{ "type": "Point", "coordinates": [-66.353437,18.009007]}},
{ "type": "Feature", "properties": {"Name":"Parcelas Viejas Borinquen comunidad","State":"Puerto Rico","State_Abbrev":"PR"},
"geometry":{ "type": "Point", "coordinates": [-66.04062,18.173854]}},
{ "type": "Feature", "properties": {"Name":"Pastos comunidad","State":"Puerto Rico","State_Abbrev":"PR"},
"geometry":{ "type": "Point", "coordinates": [-66.26009,18.119292]}},
{ "type": "Feature", "properties": {"Name":"Patillas zona urbana","State":"Puerto Rico","State_Abbrev":"PR"},
"geometry":{ "type": "Point", "coordinates": [-66.013453,18.006914]}},
{ "type": "Feature", "properties": {"Name":"Peña Pobre comunidad","State":"Puerto Rico","State_Abbrev":"PR"},
"geometry":{ "type": "Point", "coordinates": [-65.822196,18.217437]}},
{ "type": "Feature", "properties": {"Name":"Peñuelas zona urbana","State":"Puerto Rico","State_Abbrev":"PR"},
"geometry":{ "type": "Point", "coordinates": [-66.72114,18.059634]}},
{ "type": "Feature", "properties": {"Name":"Piedra Aguza comunidad","State":"Puerto Rico","State_Abbrev":"PR"},
"geometry":{ "type": "Point", "coordinates": [-66.494389,18.035105]}},
{ "type": "Feature", "properties": {"Name":"Piedra Gorda comunidad","State":"Puerto Rico","State_Abbrev":"PR"},
"geometry":{ "type": "Point", "coordinates": [-66.886085,18.434194]}},
{ "type": "Feature", "properties": {"Name":"Piñas comunidad","State":"Puerto Rico","State_Abbrev":"PR"},
"geometry":{ "type": "Point", "coordinates": [-66.233168,18.190153]}},
{ "type": "Feature", "properties": {"Name":"Playa Fortuna comunidad","State":"Puerto Rico","State_Abbrev":"PR"},
"geometry":{ "type": "Point", "coordinates": [-65.743837,18.378224]}},
{ "type": "Feature", "properties": {"Name":"Playita comunidad","State":"Puerto Rico","State_Abbrev":"PR"},
"geometry":{ "type": "Point", "coordinates": [-66.288982,17.961086]}},
{ "type": "Feature", "properties": {"Name":"Playita comunidad","State":"Puerto Rico","State_Abbrev":"PR"},
"geometry":{ "type": "Point", "coordinates": [-65.907109,18.040482]}},
{ "type": "Feature", "properties": {"Name":"Playita Cortada comunidad","State":"Puerto Rico","State_Abbrev":"PR"},
"geometry":{ "type": "Point", "coordinates": [-66.438989,17.973425]}},
{ "type": "Feature", "properties": {"Name":"Pole Ojea comunidad","State":"Puerto Rico","State_Abbrev":"PR"},
"geometry":{ "type": "Point", "coordinates": [-67.181189,17.97471]}},
{ "type": "Feature", "properties": {"Name":"Ponce zona urbana","State":"Puerto Rico","State_Abbrev":"PR"},
"geometry":{ "type": "Point", "coordinates": [-66.62368,17.999711]}},
{ "type": "Feature", "properties": {"Name":"Potala Pastillo comunidad","State":"Puerto Rico","State_Abbrev":"PR"},
"geometry":{ "type": "Point", "coordinates": [-66.496718,17.992035]}},
{ "type": "Feature", "properties": {"Name":"Pueblito del Carmen comunidad","State":"Puerto Rico","State_Abbrev":"PR"},
"geometry":{ "type": "Point", "coordinates": [-66.165577,18.031545]}},
{ "type": "Feature", "properties": {"Name":"Pueblito del Río comunidad","State":"Puerto Rico","State_Abbrev":"PR"},
"geometry":{ "type": "Point", "coordinates": [-65.861538,18.227979]}},
{ "type": "Feature", "properties": {"Name":"Puerto Real comunidad","State":"Puerto Rico","State_Abbrev":"PR"},
"geometry":{ "type": "Point", "coordinates": [-67.18733,18.076433]}},
{ "type": "Feature", "properties": {"Name":"Punta Santiago comunidad","State":"Puerto Rico","State_Abbrev":"PR"},
"geometry":{ "type": "Point", "coordinates": [-65.758798,18.16093]}},
{ "type": "Feature", "properties": {"Name":"Quebrada comunidad","State":"Puerto Rico","State_Abbrev":"PR"},
"geometry":{ "type": "Point", "coordinates": [-66.835453,18.360396]}},
{ "type": "Feature", "properties": {"Name":"Quebrada del Agua comunidad","State":"Puerto Rico","State_Abbrev":"PR"},
"geometry":{ "type": "Point", "coordinates": [-66.683928,18.038629]}},
{ "type": "Feature", "properties": {"Name":"Quebrada Prieta comunidad","State":"Puerto Rico","State_Abbrev":"PR"},
"geometry":{ "type": "Point", "coordinates": [-65.903756,18.294274]}},
{ "type": "Feature", "properties": {"Name":"Quebradillas zona urbana","State":"Puerto Rico","State_Abbrev":"PR"},
"geometry":{ "type": "Point", "coordinates": [-66.934902,18.471343]}},
{ "type": "Feature", "properties": {"Name":"Rafael Capó comunidad","State":"Puerto Rico","State_Abbrev":"PR"},
"geometry":{ "type": "Point", "coordinates": [-66.793978,18.398508]}},
{ "type": "Feature", "properties": {"Name":"Rafael González comunidad","State":"Puerto Rico","State_Abbrev":"PR"},
"geometry":{ "type": "Point", "coordinates": [-66.78436,18.425379]}},
{ "type": "Feature", "properties": {"Name":"Rafael Hernández comunidad","State":"Puerto Rico","State_Abbrev":"PR"},
"geometry":{ "type": "Point", "coordinates": [-67.078583,18.471859]}},
{ "type": "Feature", "properties": {"Name":"Ramos comunidad","State":"Puerto Rico","State_Abbrev":"PR"},
"geometry":{ "type": "Point", "coordinates": [-65.711101,18.33891]}},
{ "type": "Feature", "properties": {"Name":"Rincón comunidad","State":"Puerto Rico","State_Abbrev":"PR"},
"geometry":{ "type": "Point", "coordinates": [-66.156897,18.14991]}},
{ "type": "Feature", "properties": {"Name":"Rincón zona urbana","State":"Puerto Rico","State_Abbrev":"PR"},
"geometry":{ "type": "Point", "coordinates": [-67.251634,18.338814]}},
{ "type": "Feature", "properties": {"Name":"Río Blanco comunidad","State":"Puerto Rico","State_Abbrev":"PR"},
"geometry":{ "type": "Point", "coordinates": [-65.792979,18.212326]}},
{ "type": "Feature", "properties": {"Name":"Río Cañas Abajo comunidad","State":"Puerto Rico","State_Abbrev":"PR"},
"geometry":{ "type": "Point", "coordinates": [-66.468243,18.039737]}},
{ "type": "Feature", "properties": {"Name":"Río Grande zona urbana","State":"Puerto Rico","State_Abbrev":"PR"},
"geometry":{ "type": "Point", "coordinates": [-65.838892,18.378897]}},
{ "type": "Feature", "properties": {"Name":"Río Lajas comunidad","State":"Puerto Rico","State_Abbrev":"PR"},
"geometry":{ "type": "Point", "coordinates": [-66.263465,18.396452]}},
{ "type": "Feature", "properties": {"Name":"Rodríguez Hevia comunidad","State":"Puerto Rico","State_Abbrev":"PR"},
"geometry":{ "type": "Point", "coordinates": [-66.182221,18.202034]}},
{ "type": "Feature", "properties": {"Name":"Rosa Sánchez comunidad","State":"Puerto Rico","State_Abbrev":"PR"},
"geometry":{ "type": "Point", "coordinates": [-65.913635,18.061788]}},
{ "type": "Feature", "properties": {"Name":"Sabana comunidad","State":"Puerto Rico","State_Abbrev":"PR"},
"geometry":{ "type": "Point", "coordinates": [-66.351671,18.464311]}},
{ "type": "Feature", "properties": {"Name":"Sabana Eneas comunidad","State":"Puerto Rico","State_Abbrev":"PR"},
"geometry":{ "type": "Point", "coordinates": [-67.085196,18.080974]}},
{ "type": "Feature", "properties": {"Name":"Sabana Grande zona urbana","State":"Puerto Rico","State_Abbrev":"PR"},
"geometry":{ "type": "Point", "coordinates": [-66.964025,18.082648]}},
{ "type": "Feature", "properties": {"Name":"Sabana Hoyos comunidad","State":"Puerto Rico","State_Abbrev":"PR"},
"geometry":{ "type": "Point", "coordinates": [-66.608386,18.421309]}},
{ "type": "Feature", "properties": {"Name":"Sabana Seca comunidad","State":"Puerto Rico","State_Abbrev":"PR"},
"geometry":{ "type": "Point", "coordinates": [-66.180888,18.427287]}},
{ "type": "Feature", "properties": {"Name":"Salinas zona urbana","State":"Puerto Rico","State_Abbrev":"PR"},
"geometry":{ "type": "Point", "coordinates": [-66.296187,17.977857]}},
{ "type": "Feature", "properties": {"Name":"San Antonio comunidad","State":"Puerto Rico","State_Abbrev":"PR"},
"geometry":{ "type": "Point", "coordinates": [-67.100851,18.492693]}},
{ "type": "Feature", "properties": {"Name":"San Antonio comunidad","State":"Puerto Rico","State_Abbrev":"PR"},
"geometry":{ "type": "Point", "coordinates": [-66.299399,18.447078]}},
{ "type": "Feature", "properties": {"Name":"San Antonio comunidad","State":"Puerto Rico","State_Abbrev":"PR"},
"geometry":{ "type": "Point", "coordinates": [-66.934719,18.437042]}},
{ "type": "Feature", "properties": {"Name":"San Germán zona urbana","State":"Puerto Rico","State_Abbrev":"PR"},
"geometry":{ "type": "Point", "coordinates": [-67.045999,18.082963]}},
{ "type": "Feature", "properties": {"Name":"San Isidro comunidad","State":"Puerto Rico","State_Abbrev":"PR"},
"geometry":{ "type": "Point", "coordinates": [-65.884329,18.392138]}},
{ "type": "Feature", "properties": {"Name":"San José comunidad","State":"Puerto Rico","State_Abbrev":"PR"},
"geometry":{ "type": "Point", "coordinates": [-66.249038,18.403919]}},
{ "type": "Feature", "properties": {"Name":"San Juan zona urbana","State":"Puerto Rico","State_Abbrev":"PR"},
"geometry":{ "type": "Point", "coordinates": [-66.063746,18.404559]}},
{ "type": "Feature", "properties": {"Name":"San Lorenzo zona urbana","State":"Puerto Rico","State_Abbrev":"PR"},
"geometry":{ "type": "Point", "coordinates": [-65.967354,18.187061]}},
{ "type": "Feature", "properties": {"Name":"San Sebastián zona urbana","State":"Puerto Rico","State_Abbrev":"PR"},
"geometry":{ "type": "Point", "coordinates": [-66.994756,18.335498]}},
{ "type": "Feature", "properties": {"Name":"Santa Bárbara comunidad","State":"Puerto Rico","State_Abbrev":"PR"},
"geometry":{ "type": "Point", "coordinates": [-65.917584,18.395494]}},
{ "type": "Feature", "properties": {"Name":"Santa Clara comunidad","State":"Puerto Rico","State_Abbrev":"PR"},
"geometry":{ "type": "Point", "coordinates": [-66.133428,18.209339]}},
{ "type": "Feature", "properties": {"Name":"Santa Isabel zona urbana","State":"Puerto Rico","State_Abbrev":"PR"},
"geometry":{ "type": "Point", "coordinates": [-66.405052,17.969149]}},
{ "type": "Feature", "properties": {"Name":"Santa María comunidad","State":"Puerto Rico","State_Abbrev":"PR"},
"geometry":{ "type": "Point", "coordinates": [-65.66168,18.270899]}},
{ "type": "Feature", "properties": {"Name":"Santo Domingo comunidad","State":"Puerto Rico","State_Abbrev":"PR"},
"geometry":{ "type": "Point", "coordinates": [-66.744901,18.074159]}},
{ "type": "Feature", "properties": {"Name":"Stella comunidad","State":"Puerto Rico","State_Abbrev":"PR"},
"geometry":{ "type": "Point", "coordinates": [-67.246448,18.323631]}},
{ "type": "Feature", "properties": {"Name":"Suárez comunidad","State":"Puerto Rico","State_Abbrev":"PR"},
"geometry":{ "type": "Point", "coordinates": [-65.852355,18.431752]}},
{ "type": "Feature", "properties": {"Name":"Tallaboa comunidad","State":"Puerto Rico","State_Abbrev":"PR"},
"geometry":{ "type": "Point", "coordinates": [-66.706733,17.993515]}},
{ "type": "Feature", "properties": {"Name":"Tallaboa Alta comunidad","State":"Puerto Rico","State_Abbrev":"PR"},
"geometry":{ "type": "Point", "coordinates": [-66.702397,18.050106]}},
{ "type": "Feature", "properties": {"Name":"Tibes comunidad","State":"Puerto Rico","State_Abbrev":"PR"},
"geometry":{ "type": "Point", "coordinates": [-66.63327,18.088649]}},
{ "type": "Feature", "properties": {"Name":"Tiburones comunidad","State":"Puerto Rico","State_Abbrev":"PR"},
"geometry":{ "type": "Point", "coordinates": [-66.580727,18.43805]}},
{ "type": "Feature", "properties": {"Name":"Tierras Nuevas Poniente comunidad","State":"Puerto Rico","State_Abbrev":"PR"},
"geometry":{ "type": "Point", "coordinates": [-66.488494,18.463632]}},
{ "type": "Feature", "properties": {"Name":"Toa Alta zona urbana","State":"Puerto Rico","State_Abbrev":"PR"},
"geometry":{ "type": "Point", "coordinates": [-66.251248,18.388117]}},
{ "type": "Feature", "properties": {"Name":"Toa Baja zona urbana","State":"Puerto Rico","State_Abbrev":"PR"},
"geometry":{ "type": "Point", "coordinates": [-66.254854,18.443934]}},
{ "type": "Feature", "properties": {"Name":"Toaville comunidad","State":"Puerto Rico","State_Abbrev":"PR"},
"geometry":{ "type": "Point", "coordinates": [-66.243083,18.44373]}},
{ "type": "Feature", "properties": {"Name":"Tomás de Castro comunidad","State":"Puerto Rico","State_Abbrev":"PR"},
"geometry":{ "type": "Point", "coordinates": [-66.018585,18.184066]}},
{ "type": "Feature", "properties": {"Name":"Trujillo Alto zona urbana","State":"Puerto Rico","State_Abbrev":"PR"},
"geometry":{ "type": "Point", "coordinates": [-66.010765,18.358823]}},
{ "type": "Feature", "properties": {"Name":"Utuado zona urbana","State":"Puerto Rico","State_Abbrev":"PR"},
"geometry":{ "type": "Point", "coordinates": [-66.706317,18.26913]}},
{ "type": "Feature", "properties": {"Name":"Valle Hill comunidad","State":"Puerto Rico","State_Abbrev":"PR"},
"geometry":{ "type": "Point", "coordinates": [-65.894001,18.395265]}},
{ "type": "Feature", "properties": {"Name":"Vayas comunidad","State":"Puerto Rico","State_Abbrev":"PR"},
"geometry":{ "type": "Point", "coordinates": [-66.585737,18.054008]}},
{ "type": "Feature", "properties": {"Name":"Vázquez comunidad","State":"Puerto Rico","State_Abbrev":"PR"},
"geometry":{ "type": "Point", "coordinates": [-66.233161,18.068363]}},
{ "type": "Feature", "properties": {"Name":"Vega Alta zona urbana","State":"Puerto Rico","State_Abbrev":"PR"},
"geometry":{ "type": "Point", "coordinates": [-66.321158,18.415176]}},
{ "type": "Feature", "properties": {"Name":"Vega Baja zona urbana","State":"Puerto Rico","State_Abbrev":"PR"},
"geometry":{ "type": "Point", "coordinates": [-66.399017,18.44105]}},
{ "type": "Feature", "properties": {"Name":"Vieques comunidad","State":"Puerto Rico","State_Abbrev":"PR"},
"geometry":{ "type": "Point", "coordinates": [-65.832287,18.426149]}},
{ "type": "Feature", "properties": {"Name":"Vieques zona urbana","State":"Puerto Rico","State_Abbrev":"PR"},
"geometry":{ "type": "Point", "coordinates": [-65.443951,18.148491]}},
{ "type": "Feature", "properties": {"Name":"Villa Calma comunidad","State":"Puerto Rico","State_Abbrev":"PR"},
"geometry":{ "type": "Point", "coordinates": [-66.232201,18.442775]}},
{ "type": "Feature", "properties": {"Name":"Villa de Sabana comunidad","State":"Puerto Rico","State_Abbrev":"PR"},
"geometry":{ "type": "Point", "coordinates": [-66.190068,18.434558]}},
{ "type": "Feature", "properties": {"Name":"Villa Esperanza comunidad","State":"Puerto Rico","State_Abbrev":"PR"},
"geometry":{ "type": "Point", "coordinates": [-66.231151,18.426151]}},
{ "type": "Feature", "properties": {"Name":"Villa Hugo I comunidad","State":"Puerto Rico","State_Abbrev":"PR"},
"geometry":{ "type": "Point", "coordinates": [-65.890841,18.397565]}},
{ "type": "Feature", "properties": {"Name":"Villa Hugo II comunidad","State":"Puerto Rico","State_Abbrev":"PR"},
"geometry":{ "type": "Point", "coordinates": [-65.893157,18.399862]}},
{ "type": "Feature", "properties": {"Name":"Villalba zona urbana","State":"Puerto Rico","State_Abbrev":"PR"},
"geometry":{ "type": "Point", "coordinates": [-66.481897,18.127809]}},
{ "type": "Feature", "properties": {"Name":"Villa Quintero comunidad","State":"Puerto Rico","State_Abbrev":"PR"},
"geometry":{ "type": "Point", "coordinates": [-66.235011,18.425443]}},
{ "type": "Feature", "properties": {"Name":"Villas del Sol comunidad","State":"Puerto Rico","State_Abbrev":"PR"},
"geometry":{ "type": "Point", "coordinates": [-66.229878,18.448851]}},
{ "type": "Feature", "properties": {"Name":"Villa Sin Miedo comunidad","State":"Puerto Rico","State_Abbrev":"PR"},
"geometry":{ "type": "Point", "coordinates": [-65.872862,18.256497]}},
{ "type": "Feature", "properties": {"Name":"Voladoras comunidad","State":"Puerto Rico","State_Abbrev":"PR"},
"geometry":{ "type": "Point", "coordinates": [-67.086066,18.378634]}},
{ "type": "Feature", "properties": {"Name":"Yabucoa zona urbana","State":"Puerto Rico","State_Abbrev":"PR"},
"geometry":{ "type": "Point", "coordinates": [-65.88298,18.046318]}},
{ "type": "Feature", "properties": {"Name":"Yauco zona urbana","State":"Puerto Rico","State_Abbrev":"PR"},
"geometry":{ "type": "Point", "coordinates": [-66.86213,18.034793]}},
{ "type": "Feature", "properties": {"Name":"Yaurel comunidad","State":"Puerto Rico","State_Abbrev":"PR"},
"geometry":{ "type": "Point", "coordinates": [-66.056034,18.030065]}},
{ "type": "Feature", "properties": {"Name":"Yeguada comunidad","State":"Puerto Rico","State_Abbrev":"PR"},
"geometry":{ "type": "Point", "coordinates": [-66.880245,18.483882]}}]}
