{"type":"FeatureCollection","features":[
{ "type": "Feature", "properties": {"Name":"Ashaway CDP","State":"Rhode Island","State_Abbrev":"RI"},
"geometry":{ "type": "Point", "coordinates": [-71.786214,41.428019]}},
{ "type": "Feature", "properties": {"Name":"Bradford CDP","State":"Rhode Island","State_Abbrev":"RI"},
"geometry":{ "type": "Point", "coordinates": [-71.764416,41.388997]}},
{ "type": "Feature", "properties": {"Name":"Carolina CDP","State":"Rhode Island","State_Abbrev":"RI"},
"geometry":{ "type": "Point", "coordinates": [-71.654223,41.459421]}},
{ "type": "Feature", "properties": {"Name":"Central Falls city","State":"Rhode Island","State_Abbrev":"RI"},
"geometry":{ "type": "Point", "coordinates": [-71.393481,41.890064]}},
{ "type": "Feature", "properties": {"Name":"Charlestown CDP","State":"Rhode Island","State_Abbrev":"RI"},
"geometry":{ "type": "Point", "coordinates": [-71.626563,41.378069]}},
{ "type": "Feature", "properties": {"Name":"Chepachet CDP","State":"Rhode Island","State_Abbrev":"RI"},
"geometry":{ "type": "Point", "coordinates": [-71.662087,41.910845]}},
{ "type": "Feature", "properties": {"Name":"Clayville CDP","State":"Rhode Island","State_Abbrev":"RI"},
"geometry":{ "type": "Point", "coordinates": [-71.692106,41.769165]}},
{ "type": "Feature", "properties": {"Name":"Cranston city","State":"Rhode Island","State_Abbrev":"RI"},
"geometry":{ "type": "Point", "coordinates": [-71.485049,41.769734]}},
{ "type": "Feature", "properties": {"Name":"Cumberland Hill CDP","State":"Rhode Island","State_Abbrev":"RI"},
"geometry":{ "type": "Point", "coordinates": [-71.46003,41.97496]}},
{ "type": "Feature", "properties": {"Name":"East Providence city","State":"Rhode Island","State_Abbrev":"RI"},
"geometry":{ "type": "Point", "coordinates": [-71.359258,41.800433]}},
{ "type": "Feature", "properties": {"Name":"Foster Center CDP","State":"Rhode Island","State_Abbrev":"RI"},
"geometry":{ "type": "Point", "coordinates": [-71.731589,41.789961]}},
{ "type": "Feature", "properties": {"Name":"Greene CDP","State":"Rhode Island","State_Abbrev":"RI"},
"geometry":{ "type": "Point", "coordinates": [-71.728067,41.704727]}},
{ "type": "Feature", "properties": {"Name":"Greenville CDP","State":"Rhode Island","State_Abbrev":"RI"},
"geometry":{ "type": "Point", "coordinates": [-71.552415,41.879933]}},
{ "type": "Feature", "properties": {"Name":"Harmony CDP","State":"Rhode Island","State_Abbrev":"RI"},
"geometry":{ "type": "Point", "coordinates": [-71.609131,41.899366]}},
{ "type": "Feature", "properties": {"Name":"Harrisville CDP","State":"Rhode Island","State_Abbrev":"RI"},
"geometry":{ "type": "Point", "coordinates": [-71.677124,41.967496]}},
{ "type": "Feature", "properties": {"Name":"Hope Valley CDP","State":"Rhode Island","State_Abbrev":"RI"},
"geometry":{ "type": "Point", "coordinates": [-71.72056,41.514055]}},
{ "type": "Feature", "properties": {"Name":"Hopkinton CDP","State":"Rhode Island","State_Abbrev":"RI"},
"geometry":{ "type": "Point", "coordinates": [-71.781088,41.466945]}},
{ "type": "Feature", "properties": {"Name":"Kingston CDP","State":"Rhode Island","State_Abbrev":"RI"},
"geometry":{ "type": "Point", "coordinates": [-71.524124,41.473179]}},
{ "type": "Feature", "properties": {"Name":"Melville CDP","State":"Rhode Island","State_Abbrev":"RI"},
"geometry":{ "type": "Point", "coordinates": [-71.301933,41.559549]}},
{ "type": "Feature", "properties": {"Name":"Misquamicut CDP","State":"Rhode Island","State_Abbrev":"RI"},
"geometry":{ "type": "Point", "coordinates": [-71.827067,41.320087]}},
{ "type": "Feature", "properties": {"Name":"Narragansett Pier CDP","State":"Rhode Island","State_Abbrev":"RI"},
"geometry":{ "type": "Point", "coordinates": [-71.466525,41.426994]}},
{ "type": "Feature", "properties": {"Name":"Newport city","State":"Rhode Island","State_Abbrev":"RI"},
"geometry":{ "type": "Point", "coordinates": [-71.319627,41.476681]}},
{ "type": "Feature", "properties": {"Name":"Newport East CDP","State":"Rhode Island","State_Abbrev":"RI"},
"geometry":{ "type": "Point", "coordinates": [-71.286553,41.515892]}},
{ "type": "Feature", "properties": {"Name":"Pascoag CDP","State":"Rhode Island","State_Abbrev":"RI"},
"geometry":{ "type": "Point", "coordinates": [-71.704381,41.953752]}},
{ "type": "Feature", "properties": {"Name":"Pawtucket city","State":"Rhode Island","State_Abbrev":"RI"},
"geometry":{ "type": "Point", "coordinates": [-71.373323,41.874824]}},
{ "type": "Feature", "properties": {"Name":"Providence city","State":"Rhode Island","State_Abbrev":"RI"},
"geometry":{ "type": "Point", "coordinates": [-71.418784,41.823056]}},
{ "type": "Feature", "properties": {"Name":"Quonochontaug CDP","State":"Rhode Island","State_Abbrev":"RI"},
"geometry":{ "type": "Point", "coordinates": [-71.704659,41.345082]}},
{ "type": "Feature", "properties": {"Name":"Tiverton CDP","State":"Rhode Island","State_Abbrev":"RI"},
"geometry":{ "type": "Point", "coordinates": [-71.200391,41.654015]}},
{ "type": "Feature", "properties": {"Name":"Valley Falls CDP","State":"Rhode Island","State_Abbrev":"RI"},
"geometry":{ "type": "Point", "coordinates": [-71.390498,41.9235]}},
{ "type": "Feature", "properties": {"Name":"Wakefield-Peace Dale CDP","State":"Rhode Island","State_Abbrev":"RI"},
"geometry":{ "type": "Point", "coordinates": [-71.500318,41.446096]}},
{ "type": "Feature", "properties": {"Name":"Warwick city","State":"Rhode Island","State_Abbrev":"RI"},
"geometry":{ "type": "Point", "coordinates": [-71.42031,41.703085]}},
{ "type": "Feature", "properties": {"Name":"Watch Hill CDP","State":"Rhode Island","State_Abbrev":"RI"},
"geometry":{ "type": "Point", "coordinates": [-71.846809,41.315381]}},
{ "type": "Feature", "properties": {"Name":"Weekapaug CDP","State":"Rhode Island","State_Abbrev":"RI"},
"geometry":{ "type": "Point", "coordinates": [-71.761921,41.337424]}},
{ "type": "Feature", "properties": {"Name":"Westerly CDP","State":"Rhode Island","State_Abbrev":"RI"},
"geometry":{ "type": "Point", "coordinates": [-71.806783,41.373301]}},
{ "type": "Feature", "properties": {"Name":"Woonsocket city","State":"Rhode Island","State_Abbrev":"RI"},
"geometry":{ "type": "Point", "coordinates": [-71.499947,42.001708]}},
{ "type": "Feature", "properties": {"Name":"Wyoming CDP","State":"Rhode Island","State_Abbrev":"RI"},
"geometry":{ "type": "Point", "coordinates": [-71.689088,41.513472]}}]}
