{"type":"FeatureCollection","features":[
{ "type": "Feature", "properties": {"Abbeville city":"Abney Crossroads CDP","South Carolina":"South Carolina","SC":"SC"},
"geometry":{ "type": "Point", "coordinates": [-80.510697,34.506352]}},
{ "type": "Feature", "properties": {"Abbeville city":"Adams Run CDP","South Carolina":"South Carolina","SC":"SC"},
"geometry":{ "type": "Point", "coordinates": [-80.346499,32.721864]}},
{ "type": "Feature", "properties": {"Abbeville city":"Aiken city","South Carolina":"South Carolina","SC":"SC"},
"geometry":{ "type": "Point", "coordinates": [-81.725073,33.531594]}},
{ "type": "Feature", "properties": {"Abbeville city":"Alcolu CDP","South Carolina":"South Carolina","SC":"SC"},
"geometry":{ "type": "Point", "coordinates": [-80.224889,33.759106]}},
{ "type": "Feature", "properties": {"Abbeville city":"Allendale town","South Carolina":"South Carolina","SC":"SC"},
"geometry":{ "type": "Point", "coordinates": [-81.309164,33.008047]}},
{ "type": "Feature", "properties": {"Abbeville city":"Anderson city","South Carolina":"South Carolina","SC":"SC"},
"geometry":{ "type": "Point", "coordinates": [-82.647326,34.521166]}},
{ "type": "Feature", "properties": {"Abbeville city":"Andrews town","South Carolina":"South Carolina","SC":"SC"},
"geometry":{ "type": "Point", "coordinates": [-79.565984,33.44946]}},
{ "type": "Feature", "properties": {"Abbeville city":"Antreville CDP","South Carolina":"South Carolina","SC":"SC"},
"geometry":{ "type": "Point", "coordinates": [-82.560347,34.296213]}},
{ "type": "Feature", "properties": {"Abbeville city":"Arcadia CDP","South Carolina":"South Carolina","SC":"SC"},
"geometry":{ "type": "Point", "coordinates": [-81.993118,34.961075]}},
{ "type": "Feature", "properties": {"Abbeville city":"Arcadia Lakes town","South Carolina":"South Carolina","SC":"SC"},
"geometry":{ "type": "Point", "coordinates": [-80.963108,34.051617]}},
{ "type": "Feature", "properties": {"Abbeville city":"Arial CDP","South Carolina":"South Carolina","SC":"SC"},
"geometry":{ "type": "Point", "coordinates": [-82.64062,34.846076]}},
{ "type": "Feature", "properties": {"Abbeville city":"Arkwright CDP","South Carolina":"South Carolina","SC":"SC"},
"geometry":{ "type": "Point", "coordinates": [-81.938733,34.914961]}},
{ "type": "Feature", "properties": {"Abbeville city":"Arthurtown CDP","South Carolina":"South Carolina","SC":"SC"},
"geometry":{ "type": "Point", "coordinates": [-81.00115,33.965357]}},
{ "type": "Feature", "properties": {"Abbeville city":"Ashwood CDP","South Carolina":"South Carolina","SC":"SC"},
"geometry":{ "type": "Point", "coordinates": [-80.296802,34.123013]}},
{ "type": "Feature", "properties": {"Abbeville city":"Atlantic Beach town","South Carolina":"South Carolina","SC":"SC"},
"geometry":{ "type": "Point", "coordinates": [-78.717742,33.803553]}},
{ "type": "Feature", "properties": {"Abbeville city":"Awendaw town","South Carolina":"South Carolina","SC":"SC"},
"geometry":{ "type": "Point", "coordinates": [-79.654755,32.967885]}},
{ "type": "Feature", "properties": {"Abbeville city":"Aynor town","South Carolina":"South Carolina","SC":"SC"},
"geometry":{ "type": "Point", "coordinates": [-79.207117,34.00023]}},
{ "type": "Feature", "properties": {"Abbeville city":"Bamberg town","South Carolina":"South Carolina","SC":"SC"},
"geometry":{ "type": "Point", "coordinates": [-81.031222,33.300136]}},
{ "type": "Feature", "properties": {"Abbeville city":"Barnwell city","South Carolina":"South Carolina","SC":"SC"},
"geometry":{ "type": "Point", "coordinates": [-81.366143,33.241633]}},
{ "type": "Feature", "properties": {"Abbeville city":"Batesburg-Leesville town","South Carolina":"South Carolina","SC":"SC"},
"geometry":{ "type": "Point", "coordinates": [-81.528079,33.913306]}},
{ "type": "Feature", "properties": {"Abbeville city":"Baxter Village CDP","South Carolina":"South Carolina","SC":"SC"},
"geometry":{ "type": "Point", "coordinates": [-80.977908,35.027211]}},
{ "type": "Feature", "properties": {"Abbeville city":"Beaufort city","South Carolina":"South Carolina","SC":"SC"},
"geometry":{ "type": "Point", "coordinates": [-80.722543,32.458085]}},
{ "type": "Feature", "properties": {"Abbeville city":"Beech Island CDP","South Carolina":"South Carolina","SC":"SC"},
"geometry":{ "type": "Point", "coordinates": [-81.890318,33.428596]}},
{ "type": "Feature", "properties": {"Abbeville city":"Belton city","South Carolina":"South Carolina","SC":"SC"},
"geometry":{ "type": "Point", "coordinates": [-82.493618,34.523365]}},
{ "type": "Feature", "properties": {"Abbeville city":"Belvedere CDP","South Carolina":"South Carolina","SC":"SC"},
"geometry":{ "type": "Point", "coordinates": [-81.933646,33.539348]}},
{ "type": "Feature", "properties": {"Abbeville city":"Ben Avon CDP","South Carolina":"South Carolina","SC":"SC"},
"geometry":{ "type": "Point", "coordinates": [-81.875366,34.934614]}},
{ "type": "Feature", "properties": {"Abbeville city":"Bennettsville city","South Carolina":"South Carolina","SC":"SC"},
"geometry":{ "type": "Point", "coordinates": [-79.685958,34.628218]}},
{ "type": "Feature", "properties": {"Abbeville city":"Berea CDP","South Carolina":"South Carolina","SC":"SC"},
"geometry":{ "type": "Point", "coordinates": [-82.466212,34.8785]}},
{ "type": "Feature", "properties": {"Abbeville city":"Bethune town","South Carolina":"South Carolina","SC":"SC"},
"geometry":{ "type": "Point", "coordinates": [-80.348747,34.414181]}},
{ "type": "Feature", "properties": {"Abbeville city":"Bishopville city","South Carolina":"South Carolina","SC":"SC"},
"geometry":{ "type": "Point", "coordinates": [-80.24737,34.22007]}},
{ "type": "Feature", "properties": {"Abbeville city":"Blacksburg town","South Carolina":"South Carolina","SC":"SC"},
"geometry":{ "type": "Point", "coordinates": [-81.518119,35.122088]}},
{ "type": "Feature", "properties": {"Abbeville city":"Blackville town","South Carolina":"South Carolina","SC":"SC"},
"geometry":{ "type": "Point", "coordinates": [-81.294912,33.347767]}},
{ "type": "Feature", "properties": {"Abbeville city":"Blenheim town","South Carolina":"South Carolina","SC":"SC"},
"geometry":{ "type": "Point", "coordinates": [-79.652486,34.509758]}},
{ "type": "Feature", "properties": {"Abbeville city":"Bluffton town","South Carolina":"South Carolina","SC":"SC"},
"geometry":{ "type": "Point", "coordinates": [-80.929528,32.214449]}},
{ "type": "Feature", "properties": {"Abbeville city":"Blythewood town","South Carolina":"South Carolina","SC":"SC"},
"geometry":{ "type": "Point", "coordinates": [-80.995293,34.209247]}},
{ "type": "Feature", "properties": {"Abbeville city":"Boiling Springs CDP","South Carolina":"South Carolina","SC":"SC"},
"geometry":{ "type": "Point", "coordinates": [-81.977929,35.04501]}},
{ "type": "Feature", "properties": {"Abbeville city":"Bonneau town","South Carolina":"South Carolina","SC":"SC"},
"geometry":{ "type": "Point", "coordinates": [-79.953916,33.313636]}},
{ "type": "Feature", "properties": {"Abbeville city":"Bonneau Beach CDP","South Carolina":"South Carolina","SC":"SC"},
"geometry":{ "type": "Point", "coordinates": [-79.988621,33.322081]}},
{ "type": "Feature", "properties": {"Abbeville city":"Bowman town","South Carolina":"South Carolina","SC":"SC"},
"geometry":{ "type": "Point", "coordinates": [-80.684293,33.348302]}},
{ "type": "Feature", "properties": {"Abbeville city":"Boykin CDP","South Carolina":"South Carolina","SC":"SC"},
"geometry":{ "type": "Point", "coordinates": [-80.584438,34.120509]}},
{ "type": "Feature", "properties": {"Abbeville city":"Bradley CDP","South Carolina":"South Carolina","SC":"SC"},
"geometry":{ "type": "Point", "coordinates": [-82.239288,34.02991]}},
{ "type": "Feature", "properties": {"Abbeville city":"Branchville town","South Carolina":"South Carolina","SC":"SC"},
"geometry":{ "type": "Point", "coordinates": [-80.816078,33.251712]}},
{ "type": "Feature", "properties": {"Abbeville city":"Briarcliffe Acres town","South Carolina":"South Carolina","SC":"SC"},
"geometry":{ "type": "Point", "coordinates": [-78.749029,33.790125]}},
{ "type": "Feature", "properties": {"Abbeville city":"Brookdale CDP","South Carolina":"South Carolina","SC":"SC"},
"geometry":{ "type": "Point", "coordinates": [-80.838367,33.520783]}},
{ "type": "Feature", "properties": {"Abbeville city":"Browntown CDP","South Carolina":"South Carolina","SC":"SC"},
"geometry":{ "type": "Point", "coordinates": [-80.316032,34.205285]}},
{ "type": "Feature", "properties": {"Abbeville city":"Brunson town","South Carolina":"South Carolina","SC":"SC"},
"geometry":{ "type": "Point", "coordinates": [-81.188644,32.924256]}},
{ "type": "Feature", "properties": {"Abbeville city":"Bucksport CDP","South Carolina":"South Carolina","SC":"SC"},
"geometry":{ "type": "Point", "coordinates": [-79.115766,33.66518]}},
{ "type": "Feature", "properties": {"Abbeville city":"Buffalo CDP","South Carolina":"South Carolina","SC":"SC"},
"geometry":{ "type": "Point", "coordinates": [-81.684357,34.724439]}},
{ "type": "Feature", "properties": {"Abbeville city":"Buford CDP","South Carolina":"South Carolina","SC":"SC"},
"geometry":{ "type": "Point", "coordinates": [-80.628505,34.748046]}},
{ "type": "Feature", "properties": {"Abbeville city":"Burnettown town","South Carolina":"South Carolina","SC":"SC"},
"geometry":{ "type": "Point", "coordinates": [-81.864655,33.521073]}},
{ "type": "Feature", "properties": {"Abbeville city":"Burton CDP","South Carolina":"South Carolina","SC":"SC"},
"geometry":{ "type": "Point", "coordinates": [-80.740576,32.424802]}},
{ "type": "Feature", "properties": {"Abbeville city":"Caesars Head CDP","South Carolina":"South Carolina","SC":"SC"},
"geometry":{ "type": "Point", "coordinates": [-82.618378,35.107109]}},
{ "type": "Feature", "properties": {"Abbeville city":"Calhoun Falls town","South Carolina":"South Carolina","SC":"SC"},
"geometry":{ "type": "Point", "coordinates": [-82.596496,34.092995]}},
{ "type": "Feature", "properties": {"Abbeville city":"Camden city","South Carolina":"South Carolina","SC":"SC"},
"geometry":{ "type": "Point", "coordinates": [-80.609202,34.25893]}},
{ "type": "Feature", "properties": {"Abbeville city":"Cameron town","South Carolina":"South Carolina","SC":"SC"},
"geometry":{ "type": "Point", "coordinates": [-80.715034,33.557954]}},
{ "type": "Feature", "properties": {"Abbeville city":"Camp Croft CDP","South Carolina":"South Carolina","SC":"SC"},
"geometry":{ "type": "Point", "coordinates": [-81.863582,34.90878]}},
{ "type": "Feature", "properties": {"Abbeville city":"Campobello town","South Carolina":"South Carolina","SC":"SC"},
"geometry":{ "type": "Point", "coordinates": [-82.149276,35.125658]}},
{ "type": "Feature", "properties": {"Abbeville city":"Cane Savannah CDP","South Carolina":"South Carolina","SC":"SC"},
"geometry":{ "type": "Point", "coordinates": [-80.441951,33.892713]}},
{ "type": "Feature", "properties": {"Abbeville city":"Capitol View CDP","South Carolina":"South Carolina","SC":"SC"},
"geometry":{ "type": "Point", "coordinates": [-80.923847,33.967152]}},
{ "type": "Feature", "properties": {"Abbeville city":"Carlisle town","South Carolina":"South Carolina","SC":"SC"},
"geometry":{ "type": "Point", "coordinates": [-81.464513,34.592041]}},
{ "type": "Feature", "properties": {"Abbeville city":"Carolina Forest CDP","South Carolina":"South Carolina","SC":"SC"},
"geometry":{ "type": "Point", "coordinates": [-78.913478,33.76636]}},
{ "type": "Feature", "properties": {"Abbeville city":"Cash CDP","South Carolina":"South Carolina","SC":"SC"},
"geometry":{ "type": "Point", "coordinates": [-79.889498,34.619649]}},
{ "type": "Feature", "properties": {"Abbeville city":"Catawba CDP","South Carolina":"South Carolina","SC":"SC"},
"geometry":{ "type": "Point", "coordinates": [-80.899863,34.839617]}},
{ "type": "Feature", "properties": {"Abbeville city":"Cateechee CDP","South Carolina":"South Carolina","SC":"SC"},
"geometry":{ "type": "Point", "coordinates": [-82.77876,34.766646]}},
{ "type": "Feature", "properties": {"Abbeville city":"Cayce city","South Carolina":"South Carolina","SC":"SC"},
"geometry":{ "type": "Point", "coordinates": [-81.039806,33.950498]}},
{ "type": "Feature", "properties": {"Abbeville city":"Centenary CDP","South Carolina":"South Carolina","SC":"SC"},
"geometry":{ "type": "Point", "coordinates": [-79.352372,34.025711]}},
{ "type": "Feature", "properties": {"Abbeville city":"Centerville CDP","South Carolina":"South Carolina","SC":"SC"},
"geometry":{ "type": "Point", "coordinates": [-82.716733,34.528278]}},
{ "type": "Feature", "properties": {"Abbeville city":"Central town","South Carolina":"South Carolina","SC":"SC"},
"geometry":{ "type": "Point", "coordinates": [-82.777333,34.723298]}},
{ "type": "Feature", "properties": {"Abbeville city":"Central Pacolet town","South Carolina":"South Carolina","SC":"SC"},
"geometry":{ "type": "Point", "coordinates": [-81.752757,34.909598]}},
{ "type": "Feature", "properties": {"Abbeville city":"Chapin town","South Carolina":"South Carolina","SC":"SC"},
"geometry":{ "type": "Point", "coordinates": [-81.339342,34.165251]}},
{ "type": "Feature", "properties": {"Abbeville city":"Charleston city","South Carolina":"South Carolina","SC":"SC"},
"geometry":{ "type": "Point", "coordinates": [-79.972896,32.828017]}},
{ "type": "Feature", "properties": {"Abbeville city":"Cheraw town","South Carolina":"South Carolina","SC":"SC"},
"geometry":{ "type": "Point", "coordinates": [-79.913969,34.697894]}},
{ "type": "Feature", "properties": {"Abbeville city":"Cherokee Falls CDP","South Carolina":"South Carolina","SC":"SC"},
"geometry":{ "type": "Point", "coordinates": [-81.544499,35.063872]}},
{ "type": "Feature", "properties": {"Abbeville city":"Cherryvale CDP","South Carolina":"South Carolina","SC":"SC"},
"geometry":{ "type": "Point", "coordinates": [-80.45932,33.949511]}},
{ "type": "Feature", "properties": {"Abbeville city":"Chesnee city","South Carolina":"South Carolina","SC":"SC"},
"geometry":{ "type": "Point", "coordinates": [-81.862978,35.146247]}},
{ "type": "Feature", "properties": {"Abbeville city":"Chester city","South Carolina":"South Carolina","SC":"SC"},
"geometry":{ "type": "Point", "coordinates": [-81.213208,34.70502]}},
{ "type": "Feature", "properties": {"Abbeville city":"Chesterfield town","South Carolina":"South Carolina","SC":"SC"},
"geometry":{ "type": "Point", "coordinates": [-80.078036,34.732992]}},
{ "type": "Feature", "properties": {"Abbeville city":"Chickasaw Point CDP","South Carolina":"South Carolina","SC":"SC"},
"geometry":{ "type": "Point", "coordinates": [-83.076455,34.535481]}},
{ "type": "Feature", "properties": {"Abbeville city":"City View CDP","South Carolina":"South Carolina","SC":"SC"},
"geometry":{ "type": "Point", "coordinates": [-82.425849,34.862508]}},
{ "type": "Feature", "properties": {"Abbeville city":"Clarks Hill CDP","South Carolina":"South Carolina","SC":"SC"},
"geometry":{ "type": "Point", "coordinates": [-82.165995,33.658175]}},
{ "type": "Feature", "properties": {"Abbeville city":"Clearwater CDP","South Carolina":"South Carolina","SC":"SC"},
"geometry":{ "type": "Point", "coordinates": [-81.911132,33.502756]}},
{ "type": "Feature", "properties": {"Abbeville city":"Clemson city","South Carolina":"South Carolina","SC":"SC"},
"geometry":{ "type": "Point", "coordinates": [-82.811924,34.684122]}},
{ "type": "Feature", "properties": {"Abbeville city":"Clemson University CDP","South Carolina":"South Carolina","SC":"SC"},
"geometry":{ "type": "Point", "coordinates": [-82.835245,34.6756]}},
{ "type": "Feature", "properties": {"Abbeville city":"Clifton CDP","South Carolina":"South Carolina","SC":"SC"},
"geometry":{ "type": "Point", "coordinates": [-81.820395,34.986051]}},
{ "type": "Feature", "properties": {"Abbeville city":"Clinton city","South Carolina":"South Carolina","SC":"SC"},
"geometry":{ "type": "Point", "coordinates": [-81.860899,34.473887]}},
{ "type": "Feature", "properties": {"Abbeville city":"Clio town","South Carolina":"South Carolina","SC":"SC"},
"geometry":{ "type": "Point", "coordinates": [-79.546059,34.579046]}},
{ "type": "Feature", "properties": {"Abbeville city":"Clover town","South Carolina":"South Carolina","SC":"SC"},
"geometry":{ "type": "Point", "coordinates": [-81.220254,35.11162]}},
{ "type": "Feature", "properties": {"Abbeville city":"Cokesbury CDP","South Carolina":"South Carolina","SC":"SC"},
"geometry":{ "type": "Point", "coordinates": [-82.20874,34.290015]}},
{ "type": "Feature", "properties": {"Abbeville city":"Columbia city","South Carolina":"South Carolina","SC":"SC"},
"geometry":{ "type": "Point", "coordinates": [-80.906099,34.040519]}},
{ "type": "Feature", "properties": {"Abbeville city":"Conestee CDP","South Carolina":"South Carolina","SC":"SC"},
"geometry":{ "type": "Point", "coordinates": [-82.351637,34.763806]}},
{ "type": "Feature", "properties": {"Abbeville city":"Converse CDP","South Carolina":"South Carolina","SC":"SC"},
"geometry":{ "type": "Point", "coordinates": [-81.843053,34.995653]}},
{ "type": "Feature", "properties": {"Abbeville city":"Conway city","South Carolina":"South Carolina","SC":"SC"},
"geometry":{ "type": "Point", "coordinates": [-79.045651,33.84193]}},
{ "type": "Feature", "properties": {"Abbeville city":"Coosawhatchie CDP","South Carolina":"South Carolina","SC":"SC"},
"geometry":{ "type": "Point", "coordinates": [-80.933843,32.586261]}},
{ "type": "Feature", "properties": {"Abbeville city":"Cope town","South Carolina":"South Carolina","SC":"SC"},
"geometry":{ "type": "Point", "coordinates": [-81.007941,33.377744]}},
{ "type": "Feature", "properties": {"Abbeville city":"Cordova town","South Carolina":"South Carolina","SC":"SC"},
"geometry":{ "type": "Point", "coordinates": [-80.921034,33.434489]}},
{ "type": "Feature", "properties": {"Abbeville city":"Coronaca CDP","South Carolina":"South Carolina","SC":"SC"},
"geometry":{ "type": "Point", "coordinates": [-82.105315,34.251805]}},
{ "type": "Feature", "properties": {"Abbeville city":"Cottageville town","South Carolina":"South Carolina","SC":"SC"},
"geometry":{ "type": "Point", "coordinates": [-80.480316,32.936197]}},
{ "type": "Feature", "properties": {"Abbeville city":"Coward town","South Carolina":"South Carolina","SC":"SC"},
"geometry":{ "type": "Point", "coordinates": [-79.750088,33.971798]}},
{ "type": "Feature", "properties": {"Abbeville city":"Cowpens town","South Carolina":"South Carolina","SC":"SC"},
"geometry":{ "type": "Point", "coordinates": [-81.804121,35.018617]}},
{ "type": "Feature", "properties": {"Abbeville city":"Cross Anchor CDP","South Carolina":"South Carolina","SC":"SC"},
"geometry":{ "type": "Point", "coordinates": [-81.858033,34.644241]}},
{ "type": "Feature", "properties": {"Abbeville city":"Cross Hill town","South Carolina":"South Carolina","SC":"SC"},
"geometry":{ "type": "Point", "coordinates": [-81.983576,34.30451]}},
{ "type": "Feature", "properties": {"Abbeville city":"Dacusville CDP","South Carolina":"South Carolina","SC":"SC"},
"geometry":{ "type": "Point", "coordinates": [-82.560513,34.934272]}},
{ "type": "Feature", "properties": {"Abbeville city":"Dale CDP","South Carolina":"South Carolina","SC":"SC"},
"geometry":{ "type": "Point", "coordinates": [-80.701559,32.555428]}},
{ "type": "Feature", "properties": {"Abbeville city":"Dalzell CDP","South Carolina":"South Carolina","SC":"SC"},
"geometry":{ "type": "Point", "coordinates": [-80.432897,34.020267]}},
{ "type": "Feature", "properties": {"Abbeville city":"Danwood CDP","South Carolina":"South Carolina","SC":"SC"},
"geometry":{ "type": "Point", "coordinates": [-79.769477,34.090306]}},
{ "type": "Feature", "properties": {"Abbeville city":"Darlington city","South Carolina":"South Carolina","SC":"SC"},
"geometry":{ "type": "Point", "coordinates": [-79.867174,34.301383]}},
{ "type": "Feature", "properties": {"Abbeville city":"Daufuskie Island CDP","South Carolina":"South Carolina","SC":"SC"},
"geometry":{ "type": "Point", "coordinates": [-80.857081,32.110537]}},
{ "type": "Feature", "properties": {"Abbeville city":"Daviston CDP","South Carolina":"South Carolina","SC":"SC"},
"geometry":{ "type": "Point", "coordinates": [-79.371772,33.886173]}},
{ "type": "Feature", "properties": {"Abbeville city":"DeBordieu Colony CDP","South Carolina":"South Carolina","SC":"SC"},
"geometry":{ "type": "Point", "coordinates": [-79.175762,33.370552]}},
{ "type": "Feature", "properties": {"Abbeville city":"Denmark city","South Carolina":"South Carolina","SC":"SC"},
"geometry":{ "type": "Point", "coordinates": [-81.133786,33.313705]}},
{ "type": "Feature", "properties": {"Abbeville city":"Dentsville CDP","South Carolina":"South Carolina","SC":"SC"},
"geometry":{ "type": "Point", "coordinates": [-80.955161,34.07554]}},
{ "type": "Feature", "properties": {"Abbeville city":"Dillon city","South Carolina":"South Carolina","SC":"SC"},
"geometry":{ "type": "Point", "coordinates": [-79.367588,34.424467]}},
{ "type": "Feature", "properties": {"Abbeville city":"Donalds town","South Carolina":"South Carolina","SC":"SC"},
"geometry":{ "type": "Point", "coordinates": [-82.343202,34.374499]}},
{ "type": "Feature", "properties": {"Abbeville city":"Dovesville CDP","South Carolina":"South Carolina","SC":"SC"},
"geometry":{ "type": "Point", "coordinates": [-79.908488,34.403788]}},
{ "type": "Feature", "properties": {"Abbeville city":"Drayton CDP","South Carolina":"South Carolina","SC":"SC"},
"geometry":{ "type": "Point", "coordinates": [-81.902606,34.976171]}},
{ "type": "Feature", "properties": {"Abbeville city":"Due West town","South Carolina":"South Carolina","SC":"SC"},
"geometry":{ "type": "Point", "coordinates": [-82.39033,34.334773]}},
{ "type": "Feature", "properties": {"Abbeville city":"Dunbar CDP","South Carolina":"South Carolina","SC":"SC"},
"geometry":{ "type": "Point", "coordinates": [-79.352291,33.535224]}},
{ "type": "Feature", "properties": {"Abbeville city":"Duncan town","South Carolina":"South Carolina","SC":"SC"},
"geometry":{ "type": "Point", "coordinates": [-82.143688,34.932426]}},
{ "type": "Feature", "properties": {"Abbeville city":"Dunean CDP","South Carolina":"South Carolina","SC":"SC"},
"geometry":{ "type": "Point", "coordinates": [-82.423048,34.819282]}},
{ "type": "Feature", "properties": {"Abbeville city":"Easley city","South Carolina":"South Carolina","SC":"SC"},
"geometry":{ "type": "Point", "coordinates": [-82.582161,34.819805]}},
{ "type": "Feature", "properties": {"Abbeville city":"East Camden CDP","South Carolina":"South Carolina","SC":"SC"},
"geometry":{ "type": "Point", "coordinates": [-80.568123,34.268678]}},
{ "type": "Feature", "properties": {"Abbeville city":"East Gaffney CDP","South Carolina":"South Carolina","SC":"SC"},
"geometry":{ "type": "Point", "coordinates": [-81.624294,35.085377]}},
{ "type": "Feature", "properties": {"Abbeville city":"Eastover town","South Carolina":"South Carolina","SC":"SC"},
"geometry":{ "type": "Point", "coordinates": [-80.694926,33.87789]}},
{ "type": "Feature", "properties": {"Abbeville city":"East Sumter CDP","South Carolina":"South Carolina","SC":"SC"},
"geometry":{ "type": "Point", "coordinates": [-80.2929,33.926946]}},
{ "type": "Feature", "properties": {"Abbeville city":"Edgefield town","South Carolina":"South Carolina","SC":"SC"},
"geometry":{ "type": "Point", "coordinates": [-81.92804,33.78719]}},
{ "type": "Feature", "properties": {"Abbeville city":"Edisto CDP","South Carolina":"South Carolina","SC":"SC"},
"geometry":{ "type": "Point", "coordinates": [-80.899303,33.477913]}},
{ "type": "Feature", "properties": {"Abbeville city":"Edisto Beach town","South Carolina":"South Carolina","SC":"SC"},
"geometry":{ "type": "Point", "coordinates": [-80.313487,32.498719]}},
{ "type": "Feature", "properties": {"Abbeville city":"Edmund CDP","South Carolina":"South Carolina","SC":"SC"},
"geometry":{ "type": "Point", "coordinates": [-81.191848,33.863713]}},
{ "type": "Feature", "properties": {"Abbeville city":"Ehrhardt town","South Carolina":"South Carolina","SC":"SC"},
"geometry":{ "type": "Point", "coordinates": [-81.013822,33.098512]}},
{ "type": "Feature", "properties": {"Abbeville city":"Elgin town","South Carolina":"South Carolina","SC":"SC"},
"geometry":{ "type": "Point", "coordinates": [-80.793111,34.170209]}},
{ "type": "Feature", "properties": {"Abbeville city":"Elgin CDP","South Carolina":"South Carolina","SC":"SC"},
"geometry":{ "type": "Point", "coordinates": [-80.720931,34.665791]}},
{ "type": "Feature", "properties": {"Abbeville city":"Elko town","South Carolina":"South Carolina","SC":"SC"},
"geometry":{ "type": "Point", "coordinates": [-81.380525,33.380745]}},
{ "type": "Feature", "properties": {"Abbeville city":"Elliott CDP","South Carolina":"South Carolina","SC":"SC"},
"geometry":{ "type": "Point", "coordinates": [-80.171028,34.110902]}},
{ "type": "Feature", "properties": {"Abbeville city":"Elloree town","South Carolina":"South Carolina","SC":"SC"},
"geometry":{ "type": "Point", "coordinates": [-80.571204,33.530224]}},
{ "type": "Feature", "properties": {"Abbeville city":"Enoree CDP","South Carolina":"South Carolina","SC":"SC"},
"geometry":{ "type": "Point", "coordinates": [-81.96252,34.660485]}},
{ "type": "Feature", "properties": {"Abbeville city":"Estill town","South Carolina":"South Carolina","SC":"SC"},
"geometry":{ "type": "Point", "coordinates": [-81.241189,32.753861]}},
{ "type": "Feature", "properties": {"Abbeville city":"Eureka Mill CDP","South Carolina":"South Carolina","SC":"SC"},
"geometry":{ "type": "Point", "coordinates": [-81.192913,34.717969]}},
{ "type": "Feature", "properties": {"Abbeville city":"Eutawville town","South Carolina":"South Carolina","SC":"SC"},
"geometry":{ "type": "Point", "coordinates": [-80.342931,33.397735]}},
{ "type": "Feature", "properties": {"Abbeville city":"Fairfax town","South Carolina":"South Carolina","SC":"SC"},
"geometry":{ "type": "Point", "coordinates": [-81.236234,32.959377]}},
{ "type": "Feature", "properties": {"Abbeville city":"Fairforest CDP","South Carolina":"South Carolina","SC":"SC"},
"geometry":{ "type": "Point", "coordinates": [-82.018174,34.94714]}},
{ "type": "Feature", "properties": {"Abbeville city":"Fair Play CDP","South Carolina":"South Carolina","SC":"SC"},
"geometry":{ "type": "Point", "coordinates": [-82.986838,34.50809]}},
{ "type": "Feature", "properties": {"Abbeville city":"Fairview Crossroads CDP","South Carolina":"South Carolina","SC":"SC"},
"geometry":{ "type": "Point", "coordinates": [-81.359474,33.76216]}},
{ "type": "Feature", "properties": {"Abbeville city":"Fingerville CDP","South Carolina":"South Carolina","SC":"SC"},
"geometry":{ "type": "Point", "coordinates": [-82.000409,35.135077]}},
{ "type": "Feature", "properties": {"Abbeville city":"Finklea CDP","South Carolina":"South Carolina","SC":"SC"},
"geometry":{ "type": "Point", "coordinates": [-78.985808,34.098853]}},
{ "type": "Feature", "properties": {"Abbeville city":"Five Forks CDP","South Carolina":"South Carolina","SC":"SC"},
"geometry":{ "type": "Point", "coordinates": [-82.22291,34.809889]}},
{ "type": "Feature", "properties": {"Abbeville city":"Florence city","South Carolina":"South Carolina","SC":"SC"},
"geometry":{ "type": "Point", "coordinates": [-79.790104,34.17791]}},
{ "type": "Feature", "properties": {"Abbeville city":"Floydale CDP","South Carolina":"South Carolina","SC":"SC"},
"geometry":{ "type": "Point", "coordinates": [-79.337032,34.321091]}},
{ "type": "Feature", "properties": {"Abbeville city":"Folly Beach city","South Carolina":"South Carolina","SC":"SC"},
"geometry":{ "type": "Point", "coordinates": [-79.960577,32.669283]}},
{ "type": "Feature", "properties": {"Abbeville city":"Forest Acres city","South Carolina":"South Carolina","SC":"SC"},
"geometry":{ "type": "Point", "coordinates": [-80.97316,34.03312]}},
{ "type": "Feature", "properties": {"Abbeville city":"Forestbrook CDP","South Carolina":"South Carolina","SC":"SC"},
"geometry":{ "type": "Point", "coordinates": [-78.967771,33.724229]}},
{ "type": "Feature", "properties": {"Abbeville city":"Foreston CDP","South Carolina":"South Carolina","SC":"SC"},
"geometry":{ "type": "Point", "coordinates": [-80.060676,33.636788]}},
{ "type": "Feature", "properties": {"Abbeville city":"Fort Lawn town","South Carolina":"South Carolina","SC":"SC"},
"geometry":{ "type": "Point", "coordinates": [-80.899121,34.700233]}},
{ "type": "Feature", "properties": {"Abbeville city":"Fort Mill town","South Carolina":"South Carolina","SC":"SC"},
"geometry":{ "type": "Point", "coordinates": [-80.94,35.005997]}},
{ "type": "Feature", "properties": {"Abbeville city":"Fountain Inn city","South Carolina":"South Carolina","SC":"SC"},
"geometry":{ "type": "Point", "coordinates": [-82.202129,34.69665]}},
{ "type": "Feature", "properties": {"Abbeville city":"Fripp Island CDP","South Carolina":"South Carolina","SC":"SC"},
"geometry":{ "type": "Point", "coordinates": [-80.476028,32.327292]}},
{ "type": "Feature", "properties": {"Abbeville city":"Furman town","South Carolina":"South Carolina","SC":"SC"},
"geometry":{ "type": "Point", "coordinates": [-81.187705,32.681247]}},
{ "type": "Feature", "properties": {"Abbeville city":"Gadsden CDP","South Carolina":"South Carolina","SC":"SC"},
"geometry":{ "type": "Point", "coordinates": [-80.765601,33.847191]}},
{ "type": "Feature", "properties": {"Abbeville city":"Gaffney city","South Carolina":"South Carolina","SC":"SC"},
"geometry":{ "type": "Point", "coordinates": [-81.65765,35.075505]}},
{ "type": "Feature", "properties": {"Abbeville city":"Gantt CDP","South Carolina":"South Carolina","SC":"SC"},
"geometry":{ "type": "Point", "coordinates": [-82.401343,34.787114]}},
{ "type": "Feature", "properties": {"Abbeville city":"Garden City CDP","South Carolina":"South Carolina","SC":"SC"},
"geometry":{ "type": "Point", "coordinates": [-79.006547,33.591754]}},
{ "type": "Feature", "properties": {"Abbeville city":"Gaston town","South Carolina":"South Carolina","SC":"SC"},
"geometry":{ "type": "Point", "coordinates": [-81.099749,33.817968]}},
{ "type": "Feature", "properties": {"Abbeville city":"Gayle Mill CDP","South Carolina":"South Carolina","SC":"SC"},
"geometry":{ "type": "Point", "coordinates": [-81.239229,34.70222]}},
{ "type": "Feature", "properties": {"Abbeville city":"Georgetown city","South Carolina":"South Carolina","SC":"SC"},
"geometry":{ "type": "Point", "coordinates": [-79.280793,33.372432]}},
{ "type": "Feature", "properties": {"Abbeville city":"Gifford town","South Carolina":"South Carolina","SC":"SC"},
"geometry":{ "type": "Point", "coordinates": [-81.238507,32.860035]}},
{ "type": "Feature", "properties": {"Abbeville city":"Gilbert town","South Carolina":"South Carolina","SC":"SC"},
"geometry":{ "type": "Point", "coordinates": [-81.391042,33.924111]}},
{ "type": "Feature", "properties": {"Abbeville city":"Gillisonville CDP","South Carolina":"South Carolina","SC":"SC"},
"geometry":{ "type": "Point", "coordinates": [-81.000179,32.611588]}},
{ "type": "Feature", "properties": {"Abbeville city":"Glendale CDP","South Carolina":"South Carolina","SC":"SC"},
"geometry":{ "type": "Point", "coordinates": [-81.836373,34.945078]}},
{ "type": "Feature", "properties": {"Abbeville city":"Glenn Springs CDP","South Carolina":"South Carolina","SC":"SC"},
"geometry":{ "type": "Point", "coordinates": [-81.850457,34.811956]}},
{ "type": "Feature", "properties": {"Abbeville city":"Gloverville CDP","South Carolina":"South Carolina","SC":"SC"},
"geometry":{ "type": "Point", "coordinates": [-81.813055,33.526845]}},
{ "type": "Feature", "properties": {"Abbeville city":"Golden Grove CDP","South Carolina":"South Carolina","SC":"SC"},
"geometry":{ "type": "Point", "coordinates": [-82.429152,34.71873]}},
{ "type": "Feature", "properties": {"Abbeville city":"Goose Creek city","South Carolina":"South Carolina","SC":"SC"},
"geometry":{ "type": "Point", "coordinates": [-80.006587,32.994286]}},
{ "type": "Feature", "properties": {"Abbeville city":"Govan town","South Carolina":"South Carolina","SC":"SC"},
"geometry":{ "type": "Point", "coordinates": [-81.174834,33.22277]}},
{ "type": "Feature", "properties": {"Abbeville city":"Gramling CDP","South Carolina":"South Carolina","SC":"SC"},
"geometry":{ "type": "Point", "coordinates": [-82.134597,35.077525]}},
{ "type": "Feature", "properties": {"Abbeville city":"Graniteville CDP","South Carolina":"South Carolina","SC":"SC"},
"geometry":{ "type": "Point", "coordinates": [-81.809231,33.564682]}},
{ "type": "Feature", "properties": {"Abbeville city":"Gray Court town","South Carolina":"South Carolina","SC":"SC"},
"geometry":{ "type": "Point", "coordinates": [-82.114327,34.607455]}},
{ "type": "Feature", "properties": {"Abbeville city":"Great Falls town","South Carolina":"South Carolina","SC":"SC"},
"geometry":{ "type": "Point", "coordinates": [-80.905304,34.572131]}},
{ "type": "Feature", "properties": {"Abbeville city":"Greeleyville town","South Carolina":"South Carolina","SC":"SC"},
"geometry":{ "type": "Point", "coordinates": [-79.990022,33.580223]}},
{ "type": "Feature", "properties": {"Abbeville city":"Green Sea CDP","South Carolina":"South Carolina","SC":"SC"},
"geometry":{ "type": "Point", "coordinates": [-78.972048,34.128781]}},
{ "type": "Feature", "properties": {"Abbeville city":"Greenville city","South Carolina":"South Carolina","SC":"SC"},
"geometry":{ "type": "Point", "coordinates": [-82.362997,34.836902]}},
{ "type": "Feature", "properties": {"Abbeville city":"Greenwood city","South Carolina":"South Carolina","SC":"SC"},
"geometry":{ "type": "Point", "coordinates": [-82.153681,34.19475]}},
{ "type": "Feature", "properties": {"Abbeville city":"Greer city","South Carolina":"South Carolina","SC":"SC"},
"geometry":{ "type": "Point", "coordinates": [-82.237586,34.930462]}},
{ "type": "Feature", "properties": {"Abbeville city":"Grover CDP","South Carolina":"South Carolina","SC":"SC"},
"geometry":{ "type": "Point", "coordinates": [-80.591958,33.10918]}},
{ "type": "Feature", "properties": {"Abbeville city":"Hamer CDP","South Carolina":"South Carolina","SC":"SC"},
"geometry":{ "type": "Point", "coordinates": [-79.325403,34.474494]}},
{ "type": "Feature", "properties": {"Abbeville city":"Hampton town","South Carolina":"South Carolina","SC":"SC"},
"geometry":{ "type": "Point", "coordinates": [-81.109405,32.867558]}},
{ "type": "Feature", "properties": {"Abbeville city":"Hanahan city","South Carolina":"South Carolina","SC":"SC"},
"geometry":{ "type": "Point", "coordinates": [-80.001583,32.931084]}},
{ "type": "Feature", "properties": {"Abbeville city":"Harbor Island CDP","South Carolina":"South Carolina","SC":"SC"},
"geometry":{ "type": "Point", "coordinates": [-80.43821,32.408292]}},
{ "type": "Feature", "properties": {"Abbeville city":"Hardeeville city","South Carolina":"South Carolina","SC":"SC"},
"geometry":{ "type": "Point", "coordinates": [-81.040983,32.295308]}},
{ "type": "Feature", "properties": {"Abbeville city":"Harleyville town","South Carolina":"South Carolina","SC":"SC"},
"geometry":{ "type": "Point", "coordinates": [-80.447784,33.213065]}},
{ "type": "Feature", "properties": {"Abbeville city":"Hartsville city","South Carolina":"South Carolina","SC":"SC"},
"geometry":{ "type": "Point", "coordinates": [-80.083261,34.366003]}},
{ "type": "Feature", "properties": {"Abbeville city":"Heath Springs town","South Carolina":"South Carolina","SC":"SC"},
"geometry":{ "type": "Point", "coordinates": [-80.675047,34.593268]}},
{ "type": "Feature", "properties": {"Abbeville city":"Helena CDP","South Carolina":"South Carolina","SC":"SC"},
"geometry":{ "type": "Point", "coordinates": [-81.64449,34.280665]}},
{ "type": "Feature", "properties": {"Abbeville city":"Hemingway town","South Carolina":"South Carolina","SC":"SC"},
"geometry":{ "type": "Point", "coordinates": [-79.446261,33.753319]}},
{ "type": "Feature", "properties": {"Abbeville city":"Hickory Grove town","South Carolina":"South Carolina","SC":"SC"},
"geometry":{ "type": "Point", "coordinates": [-81.418057,34.978464]}},
{ "type": "Feature", "properties": {"Abbeville city":"Hilda town","South Carolina":"South Carolina","SC":"SC"},
"geometry":{ "type": "Point", "coordinates": [-81.244711,33.280538]}},
{ "type": "Feature", "properties": {"Abbeville city":"Hilltop CDP","South Carolina":"South Carolina","SC":"SC"},
"geometry":{ "type": "Point", "coordinates": [-81.958501,34.975486]}},
{ "type": "Feature", "properties": {"Abbeville city":"Hilton Head Island town","South Carolina":"South Carolina","SC":"SC"},
"geometry":{ "type": "Point", "coordinates": [-80.738434,32.190307]}},
{ "type": "Feature", "properties": {"Abbeville city":"Hodges town","South Carolina":"South Carolina","SC":"SC"},
"geometry":{ "type": "Point", "coordinates": [-82.249952,34.288774]}},
{ "type": "Feature", "properties": {"Abbeville city":"Holly Hill town","South Carolina":"South Carolina","SC":"SC"},
"geometry":{ "type": "Point", "coordinates": [-80.413062,33.32444]}},
{ "type": "Feature", "properties": {"Abbeville city":"Hollywood town","South Carolina":"South Carolina","SC":"SC"},
"geometry":{ "type": "Point", "coordinates": [-80.201928,32.751251]}},
{ "type": "Feature", "properties": {"Abbeville city":"Homeland Park CDP","South Carolina":"South Carolina","SC":"SC"},
"geometry":{ "type": "Point", "coordinates": [-82.65876,34.464155]}},
{ "type": "Feature", "properties": {"Abbeville city":"Homewood CDP","South Carolina":"South Carolina","SC":"SC"},
"geometry":{ "type": "Point", "coordinates": [-79.050523,33.890078]}},
{ "type": "Feature", "properties": {"Abbeville city":"Honea Path town","South Carolina":"South Carolina","SC":"SC"},
"geometry":{ "type": "Point", "coordinates": [-82.394957,34.447619]}},
{ "type": "Feature", "properties": {"Abbeville city":"Hopkins CDP","South Carolina":"South Carolina","SC":"SC"},
"geometry":{ "type": "Point", "coordinates": [-80.856751,33.900217]}},
{ "type": "Feature", "properties": {"Abbeville city":"India Hook CDP","South Carolina":"South Carolina","SC":"SC"},
"geometry":{ "type": "Point", "coordinates": [-81.02812,35.014439]}},
{ "type": "Feature", "properties": {"Abbeville city":"Inman city","South Carolina":"South Carolina","SC":"SC"},
"geometry":{ "type": "Point", "coordinates": [-82.089808,35.046134]}},
{ "type": "Feature", "properties": {"Abbeville city":"Inman Mills CDP","South Carolina":"South Carolina","SC":"SC"},
"geometry":{ "type": "Point", "coordinates": [-82.102412,35.040907]}},
{ "type": "Feature", "properties": {"Abbeville city":"Irmo town","South Carolina":"South Carolina","SC":"SC"},
"geometry":{ "type": "Point", "coordinates": [-81.19559,34.10198]}},
{ "type": "Feature", "properties": {"Abbeville city":"Irwin CDP","South Carolina":"South Carolina","SC":"SC"},
"geometry":{ "type": "Point", "coordinates": [-80.822318,34.693897]}},
{ "type": "Feature", "properties": {"Abbeville city":"Islandton CDP","South Carolina":"South Carolina","SC":"SC"},
"geometry":{ "type": "Point", "coordinates": [-80.935949,32.909262]}},
{ "type": "Feature", "properties": {"Abbeville city":"Isle of Palms city","South Carolina":"South Carolina","SC":"SC"},
"geometry":{ "type": "Point", "coordinates": [-79.752353,32.803944]}},
{ "type": "Feature", "properties": {"Abbeville city":"Iva town","South Carolina":"South Carolina","SC":"SC"},
"geometry":{ "type": "Point", "coordinates": [-82.663437,34.308147]}},
{ "type": "Feature", "properties": {"Abbeville city":"Jackson town","South Carolina":"South Carolina","SC":"SC"},
"geometry":{ "type": "Point", "coordinates": [-81.792015,33.328575]}},
{ "type": "Feature", "properties": {"Abbeville city":"Jacksonboro CDP","South Carolina":"South Carolina","SC":"SC"},
"geometry":{ "type": "Point", "coordinates": [-80.476939,32.771756]}},
{ "type": "Feature", "properties": {"Abbeville city":"James Island town","South Carolina":"South Carolina","SC":"SC"},
"geometry":{ "type": "Point", "coordinates": [-79.937184,32.736122]}},
{ "type": "Feature", "properties": {"Abbeville city":"Jamestown town","South Carolina":"South Carolina","SC":"SC"},
"geometry":{ "type": "Point", "coordinates": [-79.694592,33.285876]}},
{ "type": "Feature", "properties": {"Abbeville city":"Jefferson town","South Carolina":"South Carolina","SC":"SC"},
"geometry":{ "type": "Point", "coordinates": [-80.38411,34.65122]}},
{ "type": "Feature", "properties": {"Abbeville city":"Jenkinsville town","South Carolina":"South Carolina","SC":"SC"},
"geometry":{ "type": "Point", "coordinates": [-81.28667,34.311089]}},
{ "type": "Feature", "properties": {"Abbeville city":"Joanna CDP","South Carolina":"South Carolina","SC":"SC"},
"geometry":{ "type": "Point", "coordinates": [-81.800222,34.415926]}},
{ "type": "Feature", "properties": {"Abbeville city":"Johnsonville city","South Carolina":"South Carolina","SC":"SC"},
"geometry":{ "type": "Point", "coordinates": [-79.444288,33.81424]}},
{ "type": "Feature", "properties": {"Abbeville city":"Johnston town","South Carolina":"South Carolina","SC":"SC"},
"geometry":{ "type": "Point", "coordinates": [-81.804823,33.833383]}},
{ "type": "Feature", "properties": {"Abbeville city":"Jonesville town","South Carolina":"South Carolina","SC":"SC"},
"geometry":{ "type": "Point", "coordinates": [-81.68241,34.833949]}},
{ "type": "Feature", "properties": {"Abbeville city":"Judson CDP","South Carolina":"South Carolina","SC":"SC"},
"geometry":{ "type": "Point", "coordinates": [-82.427219,34.833488]}},
{ "type": "Feature", "properties": {"Abbeville city":"Keowee Key CDP","South Carolina":"South Carolina","SC":"SC"},
"geometry":{ "type": "Point", "coordinates": [-82.912341,34.820929]}},
{ "type": "Feature", "properties": {"Abbeville city":"Kershaw town","South Carolina":"South Carolina","SC":"SC"},
"geometry":{ "type": "Point", "coordinates": [-80.58654,34.544363]}},
{ "type": "Feature", "properties": {"Abbeville city":"Ketchuptown CDP","South Carolina":"South Carolina","SC":"SC"},
"geometry":{ "type": "Point", "coordinates": [-79.155697,34.109079]}},
{ "type": "Feature", "properties": {"Abbeville city":"Kiawah Island town","South Carolina":"South Carolina","SC":"SC"},
"geometry":{ "type": "Point", "coordinates": [-80.060594,32.616442]}},
{ "type": "Feature", "properties": {"Abbeville city":"Kingstree town","South Carolina":"South Carolina","SC":"SC"},
"geometry":{ "type": "Point", "coordinates": [-79.828661,33.66723]}},
{ "type": "Feature", "properties": {"Abbeville city":"Kline town","South Carolina":"South Carolina","SC":"SC"},
"geometry":{ "type": "Point", "coordinates": [-81.34254,33.124717]}},
{ "type": "Feature", "properties": {"Abbeville city":"Ladson CDP","South Carolina":"South Carolina","SC":"SC"},
"geometry":{ "type": "Point", "coordinates": [-80.107748,33.009237]}},
{ "type": "Feature", "properties": {"Abbeville city":"La France CDP","South Carolina":"South Carolina","SC":"SC"},
"geometry":{ "type": "Point", "coordinates": [-82.770697,34.616281]}},
{ "type": "Feature", "properties": {"Abbeville city":"Lake City city","South Carolina":"South Carolina","SC":"SC"},
"geometry":{ "type": "Point", "coordinates": [-79.753885,33.867725]}},
{ "type": "Feature", "properties": {"Abbeville city":"Lake Murray of Richland CDP","South Carolina":"South Carolina","SC":"SC"},
"geometry":{ "type": "Point", "coordinates": [-81.265439,34.120742]}},
{ "type": "Feature", "properties": {"Abbeville city":"Lake Secession CDP","South Carolina":"South Carolina","SC":"SC"},
"geometry":{ "type": "Point", "coordinates": [-82.585746,34.289933]}},
{ "type": "Feature", "properties": {"Abbeville city":"Lake View town","South Carolina":"South Carolina","SC":"SC"},
"geometry":{ "type": "Point", "coordinates": [-79.166426,34.340784]}},
{ "type": "Feature", "properties": {"Abbeville city":"Lakewood CDP","South Carolina":"South Carolina","SC":"SC"},
"geometry":{ "type": "Point", "coordinates": [-80.348877,33.834108]}},
{ "type": "Feature", "properties": {"Abbeville city":"Lake Wylie CDP","South Carolina":"South Carolina","SC":"SC"},
"geometry":{ "type": "Point", "coordinates": [-81.072203,35.098536]}},
{ "type": "Feature", "properties": {"Abbeville city":"Lamar town","South Carolina":"South Carolina","SC":"SC"},
"geometry":{ "type": "Point", "coordinates": [-80.065071,34.169469]}},
{ "type": "Feature", "properties": {"Abbeville city":"Lancaster city","South Carolina":"South Carolina","SC":"SC"},
"geometry":{ "type": "Point", "coordinates": [-80.778965,34.726127]}},
{ "type": "Feature", "properties": {"Abbeville city":"Landrum city","South Carolina":"South Carolina","SC":"SC"},
"geometry":{ "type": "Point", "coordinates": [-82.185727,35.175093]}},
{ "type": "Feature", "properties": {"Abbeville city":"Lane town","South Carolina":"South Carolina","SC":"SC"},
"geometry":{ "type": "Point", "coordinates": [-79.87968,33.525094]}},
{ "type": "Feature", "properties": {"Abbeville city":"Langley CDP","South Carolina":"South Carolina","SC":"SC"},
"geometry":{ "type": "Point", "coordinates": [-81.835037,33.515188]}},
{ "type": "Feature", "properties": {"Abbeville city":"Latta town","South Carolina":"South Carolina","SC":"SC"},
"geometry":{ "type": "Point", "coordinates": [-79.433564,34.33894]}},
{ "type": "Feature", "properties": {"Abbeville city":"Laurel Bay CDP","South Carolina":"South Carolina","SC":"SC"},
"geometry":{ "type": "Point", "coordinates": [-80.786541,32.459869]}},
{ "type": "Feature", "properties": {"Abbeville city":"Laurens city","South Carolina":"South Carolina","SC":"SC"},
"geometry":{ "type": "Point", "coordinates": [-82.020704,34.502352]}},
{ "type": "Feature", "properties": {"Abbeville city":"Lesslie CDP","South Carolina":"South Carolina","SC":"SC"},
"geometry":{ "type": "Point", "coordinates": [-80.9486,34.883849]}},
{ "type": "Feature", "properties": {"Abbeville city":"Lexington town","South Carolina":"South Carolina","SC":"SC"},
"geometry":{ "type": "Point", "coordinates": [-81.221797,33.992877]}},
{ "type": "Feature", "properties": {"Abbeville city":"Liberty city","South Carolina":"South Carolina","SC":"SC"},
"geometry":{ "type": "Point", "coordinates": [-82.701439,34.790963]}},
{ "type": "Feature", "properties": {"Abbeville city":"Lincolnville town","South Carolina":"South Carolina","SC":"SC"},
"geometry":{ "type": "Point", "coordinates": [-80.155508,33.007926]}},
{ "type": "Feature", "properties": {"Abbeville city":"Litchfield Beach CDP","South Carolina":"South Carolina","SC":"SC"},
"geometry":{ "type": "Point", "coordinates": [-79.11464,33.474389]}},
{ "type": "Feature", "properties": {"Abbeville city":"Little Mountain town","South Carolina":"South Carolina","SC":"SC"},
"geometry":{ "type": "Point", "coordinates": [-81.412373,34.196898]}},
{ "type": "Feature", "properties": {"Abbeville city":"Little River CDP","South Carolina":"South Carolina","SC":"SC"},
"geometry":{ "type": "Point", "coordinates": [-78.640489,33.880648]}},
{ "type": "Feature", "properties": {"Abbeville city":"Little Rock CDP","South Carolina":"South Carolina","SC":"SC"},
"geometry":{ "type": "Point", "coordinates": [-79.389903,34.46914]}},
{ "type": "Feature", "properties": {"Abbeville city":"Live Oak CDP","South Carolina":"South Carolina","SC":"SC"},
"geometry":{ "type": "Point", "coordinates": [-78.939732,34.056045]}},
{ "type": "Feature", "properties": {"Abbeville city":"Livingston town","South Carolina":"South Carolina","SC":"SC"},
"geometry":{ "type": "Point", "coordinates": [-81.119545,33.553119]}},
{ "type": "Feature", "properties": {"Abbeville city":"Lobeco CDP","South Carolina":"South Carolina","SC":"SC"},
"geometry":{ "type": "Point", "coordinates": [-80.73537,32.55116]}},
{ "type": "Feature", "properties": {"Abbeville city":"Lockhart town","South Carolina":"South Carolina","SC":"SC"},
"geometry":{ "type": "Point", "coordinates": [-81.46698,34.796043]}},
{ "type": "Feature", "properties": {"Abbeville city":"Lodge town","South Carolina":"South Carolina","SC":"SC"},
"geometry":{ "type": "Point", "coordinates": [-80.953698,33.06781]}},
{ "type": "Feature", "properties": {"Abbeville city":"Longcreek CDP","South Carolina":"South Carolina","SC":"SC"},
"geometry":{ "type": "Point", "coordinates": [-83.256383,34.784198]}},
{ "type": "Feature", "properties": {"Abbeville city":"Loris city","South Carolina":"South Carolina","SC":"SC"},
"geometry":{ "type": "Point", "coordinates": [-78.88842,34.057476]}},
{ "type": "Feature", "properties": {"Abbeville city":"Lowndesville town","South Carolina":"South Carolina","SC":"SC"},
"geometry":{ "type": "Point", "coordinates": [-82.647625,34.209909]}},
{ "type": "Feature", "properties": {"Abbeville city":"Lowrys town","South Carolina":"South Carolina","SC":"SC"},
"geometry":{ "type": "Point", "coordinates": [-81.237222,34.804009]}},
{ "type": "Feature", "properties": {"Abbeville city":"Lugoff CDP","South Carolina":"South Carolina","SC":"SC"},
"geometry":{ "type": "Point", "coordinates": [-80.697601,34.211948]}},
{ "type": "Feature", "properties": {"Abbeville city":"Luray town","South Carolina":"South Carolina","SC":"SC"},
"geometry":{ "type": "Point", "coordinates": [-81.240265,32.814208]}},
{ "type": "Feature", "properties": {"Abbeville city":"Lydia CDP","South Carolina":"South Carolina","SC":"SC"},
"geometry":{ "type": "Point", "coordinates": [-80.118514,34.286519]}},
{ "type": "Feature", "properties": {"Abbeville city":"Lyman town","South Carolina":"South Carolina","SC":"SC"},
"geometry":{ "type": "Point", "coordinates": [-82.130212,34.973869]}},
{ "type": "Feature", "properties": {"Abbeville city":"Lynchburg town","South Carolina":"South Carolina","SC":"SC"},
"geometry":{ "type": "Point", "coordinates": [-80.076974,34.060005]}},
{ "type": "Feature", "properties": {"Abbeville city":"McBee town","South Carolina":"South Carolina","SC":"SC"},
"geometry":{ "type": "Point", "coordinates": [-80.257145,34.467026]}},
{ "type": "Feature", "properties": {"Abbeville city":"McClellanville town","South Carolina":"South Carolina","SC":"SC"},
"geometry":{ "type": "Point", "coordinates": [-79.468295,33.086502]}},
{ "type": "Feature", "properties": {"Abbeville city":"McColl town","South Carolina":"South Carolina","SC":"SC"},
"geometry":{ "type": "Point", "coordinates": [-79.544169,34.666518]}},
{ "type": "Feature", "properties": {"Abbeville city":"McConnells town","South Carolina":"South Carolina","SC":"SC"},
"geometry":{ "type": "Point", "coordinates": [-81.231605,34.876957]}},
{ "type": "Feature", "properties": {"Abbeville city":"McCormick town","South Carolina":"South Carolina","SC":"SC"},
"geometry":{ "type": "Point", "coordinates": [-82.287591,33.91284]}},
{ "type": "Feature", "properties": {"Abbeville city":"Manning city","South Carolina":"South Carolina","SC":"SC"},
"geometry":{ "type": "Point", "coordinates": [-80.216761,33.693323]}},
{ "type": "Feature", "properties": {"Abbeville city":"Manville CDP","South Carolina":"South Carolina","SC":"SC"},
"geometry":{ "type": "Point", "coordinates": [-80.297418,34.159769]}},
{ "type": "Feature", "properties": {"Abbeville city":"Marion city","South Carolina":"South Carolina","SC":"SC"},
"geometry":{ "type": "Point", "coordinates": [-79.395659,34.178658]}},
{ "type": "Feature", "properties": {"Abbeville city":"Mauldin city","South Carolina":"South Carolina","SC":"SC"},
"geometry":{ "type": "Point", "coordinates": [-82.304953,34.780647]}},
{ "type": "Feature", "properties": {"Abbeville city":"Mayesville town","South Carolina":"South Carolina","SC":"SC"},
"geometry":{ "type": "Point", "coordinates": [-80.204443,33.984912]}},
{ "type": "Feature", "properties": {"Abbeville city":"Mayo CDP","South Carolina":"South Carolina","SC":"SC"},
"geometry":{ "type": "Point", "coordinates": [-81.853452,35.085704]}},
{ "type": "Feature", "properties": {"Abbeville city":"Meggett town","South Carolina":"South Carolina","SC":"SC"},
"geometry":{ "type": "Point", "coordinates": [-80.257585,32.689659]}},
{ "type": "Feature", "properties": {"Abbeville city":"Modoc CDP","South Carolina":"South Carolina","SC":"SC"},
"geometry":{ "type": "Point", "coordinates": [-82.217422,33.721454]}},
{ "type": "Feature", "properties": {"Abbeville city":"Monarch Mill CDP","South Carolina":"South Carolina","SC":"SC"},
"geometry":{ "type": "Point", "coordinates": [-81.584781,34.716122]}},
{ "type": "Feature", "properties": {"Abbeville city":"Moncks Corner town","South Carolina":"South Carolina","SC":"SC"},
"geometry":{ "type": "Point", "coordinates": [-79.991538,33.20116]}},
{ "type": "Feature", "properties": {"Abbeville city":"Monetta town","South Carolina":"South Carolina","SC":"SC"},
"geometry":{ "type": "Point", "coordinates": [-81.609932,33.849987]}},
{ "type": "Feature", "properties": {"Abbeville city":"Mount Carmel CDP","South Carolina":"South Carolina","SC":"SC"},
"geometry":{ "type": "Point", "coordinates": [-82.504446,34.018453]}},
{ "type": "Feature", "properties": {"Abbeville city":"Mount Croghan town","South Carolina":"South Carolina","SC":"SC"},
"geometry":{ "type": "Point", "coordinates": [-80.226387,34.769746]}},
{ "type": "Feature", "properties": {"Abbeville city":"Mount Pleasant town","South Carolina":"South Carolina","SC":"SC"},
"geometry":{ "type": "Point", "coordinates": [-79.865038,32.808382]}},
{ "type": "Feature", "properties": {"Abbeville city":"Mountville CDP","South Carolina":"South Carolina","SC":"SC"},
"geometry":{ "type": "Point", "coordinates": [-81.977361,34.373026]}},
{ "type": "Feature", "properties": {"Abbeville city":"Mulberry CDP","South Carolina":"South Carolina","SC":"SC"},
"geometry":{ "type": "Point", "coordinates": [-80.329078,33.958874]}},
{ "type": "Feature", "properties": {"Abbeville city":"Mullins city","South Carolina":"South Carolina","SC":"SC"},
"geometry":{ "type": "Point", "coordinates": [-79.253639,34.203976]}},
{ "type": "Feature", "properties": {"Abbeville city":"Murphys Estates CDP","South Carolina":"South Carolina","SC":"SC"},
"geometry":{ "type": "Point", "coordinates": [-81.945963,33.60107]}},
{ "type": "Feature", "properties": {"Abbeville city":"Murrells Inlet CDP","South Carolina":"South Carolina","SC":"SC"},
"geometry":{ "type": "Point", "coordinates": [-79.057165,33.55725]}},
{ "type": "Feature", "properties": {"Abbeville city":"Myrtle Beach city","South Carolina":"South Carolina","SC":"SC"},
"geometry":{ "type": "Point", "coordinates": [-78.886024,33.71039]}},
{ "type": "Feature", "properties": {"Abbeville city":"Neeses town","South Carolina":"South Carolina","SC":"SC"},
"geometry":{ "type": "Point", "coordinates": [-81.123614,33.536437]}},
{ "type": "Feature", "properties": {"Abbeville city":"Newberry city","South Carolina":"South Carolina","SC":"SC"},
"geometry":{ "type": "Point", "coordinates": [-81.601461,34.282254]}},
{ "type": "Feature", "properties": {"Abbeville city":"New Ellenton town","South Carolina":"South Carolina","SC":"SC"},
"geometry":{ "type": "Point", "coordinates": [-81.682414,33.41961]}},
{ "type": "Feature", "properties": {"Abbeville city":"Newport CDP","South Carolina":"South Carolina","SC":"SC"},
"geometry":{ "type": "Point", "coordinates": [-81.08072,34.996324]}},
{ "type": "Feature", "properties": {"Abbeville city":"Newry CDP","South Carolina":"South Carolina","SC":"SC"},
"geometry":{ "type": "Point", "coordinates": [-82.914632,34.724825]}},
{ "type": "Feature", "properties": {"Abbeville city":"Newtown CDP","South Carolina":"South Carolina","SC":"SC"},
"geometry":{ "type": "Point", "coordinates": [-79.356789,34.401246]}},
{ "type": "Feature", "properties": {"Abbeville city":"Nichols town","South Carolina":"South Carolina","SC":"SC"},
"geometry":{ "type": "Point", "coordinates": [-79.149116,34.23518]}},
{ "type": "Feature", "properties": {"Abbeville city":"Ninety Six town","South Carolina":"South Carolina","SC":"SC"},
"geometry":{ "type": "Point", "coordinates": [-82.02385,34.169689]}},
{ "type": "Feature", "properties": {"Abbeville city":"Norris town","South Carolina":"South Carolina","SC":"SC"},
"geometry":{ "type": "Point", "coordinates": [-82.752535,34.766116]}},
{ "type": "Feature", "properties": {"Abbeville city":"North town","South Carolina":"South Carolina","SC":"SC"},
"geometry":{ "type": "Point", "coordinates": [-81.102969,33.616366]}},
{ "type": "Feature", "properties": {"Abbeville city":"North Augusta city","South Carolina":"South Carolina","SC":"SC"},
"geometry":{ "type": "Point", "coordinates": [-81.956566,33.523303]}},
{ "type": "Feature", "properties": {"Abbeville city":"North Charleston city","South Carolina":"South Carolina","SC":"SC"},
"geometry":{ "type": "Point", "coordinates": [-80.065,32.917881]}},
{ "type": "Feature", "properties": {"Abbeville city":"North Hartsville CDP","South Carolina":"South Carolina","SC":"SC"},
"geometry":{ "type": "Point", "coordinates": [-80.072269,34.402582]}},
{ "type": "Feature", "properties": {"Abbeville city":"Northlake CDP","South Carolina":"South Carolina","SC":"SC"},
"geometry":{ "type": "Point", "coordinates": [-82.684299,34.570621]}},
{ "type": "Feature", "properties": {"Abbeville city":"North Myrtle Beach city","South Carolina":"South Carolina","SC":"SC"},
"geometry":{ "type": "Point", "coordinates": [-78.699918,33.822882]}},
{ "type": "Feature", "properties": {"Abbeville city":"North Santee CDP","South Carolina":"South Carolina","SC":"SC"},
"geometry":{ "type": "Point", "coordinates": [-80.41411,33.542156]}},
{ "type": "Feature", "properties": {"Abbeville city":"Norway town","South Carolina":"South Carolina","SC":"SC"},
"geometry":{ "type": "Point", "coordinates": [-81.126672,33.449755]}},
{ "type": "Feature", "properties": {"Abbeville city":"Oak Grove CDP","South Carolina":"South Carolina","SC":"SC"},
"geometry":{ "type": "Point", "coordinates": [-81.151355,33.982989]}},
{ "type": "Feature", "properties": {"Abbeville city":"Oakland CDP","South Carolina":"South Carolina","SC":"SC"},
"geometry":{ "type": "Point", "coordinates": [-80.495936,33.989366]}},
{ "type": "Feature", "properties": {"Abbeville city":"Olanta town","South Carolina":"South Carolina","SC":"SC"},
"geometry":{ "type": "Point", "coordinates": [-79.931789,33.936183]}},
{ "type": "Feature", "properties": {"Abbeville city":"Olar town","South Carolina":"South Carolina","SC":"SC"},
"geometry":{ "type": "Point", "coordinates": [-81.185344,33.179864]}},
{ "type": "Feature", "properties": {"Abbeville city":"Olympia CDP","South Carolina":"South Carolina","SC":"SC"},
"geometry":{ "type": "Point", "coordinates": [-81.036122,33.973879]}},
{ "type": "Feature", "properties": {"Abbeville city":"Orangeburg city","South Carolina":"South Carolina","SC":"SC"},
"geometry":{ "type": "Point", "coordinates": [-80.86688,33.493596]}},
{ "type": "Feature", "properties": {"Abbeville city":"Oswego CDP","South Carolina":"South Carolina","SC":"SC"},
"geometry":{ "type": "Point", "coordinates": [-80.286146,34.005598]}},
{ "type": "Feature", "properties": {"Abbeville city":"Pacolet town","South Carolina":"South Carolina","SC":"SC"},
"geometry":{ "type": "Point", "coordinates": [-81.763712,34.905374]}},
{ "type": "Feature", "properties": {"Abbeville city":"Pageland town","South Carolina":"South Carolina","SC":"SC"},
"geometry":{ "type": "Point", "coordinates": [-80.385705,34.770117]}},
{ "type": "Feature", "properties": {"Abbeville city":"Pamplico town","South Carolina":"South Carolina","SC":"SC"},
"geometry":{ "type": "Point", "coordinates": [-79.570615,33.995021]}},
{ "type": "Feature", "properties": {"Abbeville city":"Parker CDP","South Carolina":"South Carolina","SC":"SC"},
"geometry":{ "type": "Point", "coordinates": [-82.452971,34.849961]}},
{ "type": "Feature", "properties": {"Abbeville city":"Parksville town","South Carolina":"South Carolina","SC":"SC"},
"geometry":{ "type": "Point", "coordinates": [-82.217367,33.786592]}},
{ "type": "Feature", "properties": {"Abbeville city":"Patrick town","South Carolina":"South Carolina","SC":"SC"},
"geometry":{ "type": "Point", "coordinates": [-80.044655,34.575253]}},
{ "type": "Feature", "properties": {"Abbeville city":"Pauline CDP","South Carolina":"South Carolina","SC":"SC"},
"geometry":{ "type": "Point", "coordinates": [-81.866313,34.834255]}},
{ "type": "Feature", "properties": {"Abbeville city":"Pawleys Island town","South Carolina":"South Carolina","SC":"SC"},
"geometry":{ "type": "Point", "coordinates": [-79.124988,33.428093]}},
{ "type": "Feature", "properties": {"Abbeville city":"Paxville town","South Carolina":"South Carolina","SC":"SC"},
"geometry":{ "type": "Point", "coordinates": [-80.358565,33.739027]}},
{ "type": "Feature", "properties": {"Abbeville city":"Peak town","South Carolina":"South Carolina","SC":"SC"},
"geometry":{ "type": "Point", "coordinates": [-81.32884,34.236325]}},
{ "type": "Feature", "properties": {"Abbeville city":"Pelion town","South Carolina":"South Carolina","SC":"SC"},
"geometry":{ "type": "Point", "coordinates": [-81.259679,33.784861]}},
{ "type": "Feature", "properties": {"Abbeville city":"Pelzer town","South Carolina":"South Carolina","SC":"SC"},
"geometry":{ "type": "Point", "coordinates": [-82.460074,34.643648]}},
{ "type": "Feature", "properties": {"Abbeville city":"Pendleton town","South Carolina":"South Carolina","SC":"SC"},
"geometry":{ "type": "Point", "coordinates": [-82.779112,34.642243]}},
{ "type": "Feature", "properties": {"Abbeville city":"Perry town","South Carolina":"South Carolina","SC":"SC"},
"geometry":{ "type": "Point", "coordinates": [-81.308105,33.628319]}},
{ "type": "Feature", "properties": {"Abbeville city":"Pickens city","South Carolina":"South Carolina","SC":"SC"},
"geometry":{ "type": "Point", "coordinates": [-82.710202,34.885741]}},
{ "type": "Feature", "properties": {"Abbeville city":"Piedmont CDP","South Carolina":"South Carolina","SC":"SC"},
"geometry":{ "type": "Point", "coordinates": [-82.466746,34.705617]}},
{ "type": "Feature", "properties": {"Abbeville city":"Pimlico CDP","South Carolina":"South Carolina","SC":"SC"},
"geometry":{ "type": "Point", "coordinates": [-79.959598,33.099194]}},
{ "type": "Feature", "properties": {"Abbeville city":"Pine Ridge CDP","South Carolina":"South Carolina","SC":"SC"},
"geometry":{ "type": "Point", "coordinates": [-80.16842,34.395668]}},
{ "type": "Feature", "properties": {"Abbeville city":"Pine Ridge town","South Carolina":"South Carolina","SC":"SC"},
"geometry":{ "type": "Point", "coordinates": [-81.092591,33.902307]}},
{ "type": "Feature", "properties": {"Abbeville city":"Pinewood town","South Carolina":"South Carolina","SC":"SC"},
"geometry":{ "type": "Point", "coordinates": [-80.462016,33.739585]}},
{ "type": "Feature", "properties": {"Abbeville city":"Pinopolis CDP","South Carolina":"South Carolina","SC":"SC"},
"geometry":{ "type": "Point", "coordinates": [-80.038603,33.228617]}},
{ "type": "Feature", "properties": {"Abbeville city":"Plum Branch town","South Carolina":"South Carolina","SC":"SC"},
"geometry":{ "type": "Point", "coordinates": [-82.258746,33.848166]}},
{ "type": "Feature", "properties": {"Abbeville city":"Pomaria town","South Carolina":"South Carolina","SC":"SC"},
"geometry":{ "type": "Point", "coordinates": [-81.417824,34.268739]}},
{ "type": "Feature", "properties": {"Abbeville city":"Port Royal town","South Carolina":"South Carolina","SC":"SC"},
"geometry":{ "type": "Point", "coordinates": [-80.700252,32.355371]}},
{ "type": "Feature", "properties": {"Abbeville city":"Powdersville CDP","South Carolina":"South Carolina","SC":"SC"},
"geometry":{ "type": "Point", "coordinates": [-82.497593,34.780022]}},
{ "type": "Feature", "properties": {"Abbeville city":"Princeton CDP","South Carolina":"South Carolina","SC":"SC"},
"geometry":{ "type": "Point", "coordinates": [-82.29587,34.491276]}},
{ "type": "Feature", "properties": {"Abbeville city":"Privateer CDP","South Carolina":"South Carolina","SC":"SC"},
"geometry":{ "type": "Point", "coordinates": [-80.391428,33.816845]}},
{ "type": "Feature", "properties": {"Abbeville city":"Promised Land CDP","South Carolina":"South Carolina","SC":"SC"},
"geometry":{ "type": "Point", "coordinates": [-82.230701,34.127675]}},
{ "type": "Feature", "properties": {"Abbeville city":"Prosperity town","South Carolina":"South Carolina","SC":"SC"},
"geometry":{ "type": "Point", "coordinates": [-81.528386,34.213372]}},
{ "type": "Feature", "properties": {"Abbeville city":"Quinby town","South Carolina":"South Carolina","SC":"SC"},
"geometry":{ "type": "Point", "coordinates": [-79.735689,34.228033]}},
{ "type": "Feature", "properties": {"Abbeville city":"Rains CDP","South Carolina":"South Carolina","SC":"SC"},
"geometry":{ "type": "Point", "coordinates": [-79.321393,34.094238]}},
{ "type": "Feature", "properties": {"Abbeville city":"Ravenel town","South Carolina":"South Carolina","SC":"SC"},
"geometry":{ "type": "Point", "coordinates": [-80.231948,32.776278]}},
{ "type": "Feature", "properties": {"Abbeville city":"Red Bank CDP","South Carolina":"South Carolina","SC":"SC"},
"geometry":{ "type": "Point", "coordinates": [-81.233902,33.929544]}},
{ "type": "Feature", "properties": {"Abbeville city":"Red Hill CDP","South Carolina":"South Carolina","SC":"SC"},
"geometry":{ "type": "Point", "coordinates": [-79.015118,33.777957]}},
{ "type": "Feature", "properties": {"Abbeville city":"Reevesville town","South Carolina":"South Carolina","SC":"SC"},
"geometry":{ "type": "Point", "coordinates": [-80.641685,33.197302]}},
{ "type": "Feature", "properties": {"Abbeville city":"Reidville town","South Carolina":"South Carolina","SC":"SC"},
"geometry":{ "type": "Point", "coordinates": [-82.11064,34.865805]}},
{ "type": "Feature", "properties": {"Abbeville city":"Rembert CDP","South Carolina":"South Carolina","SC":"SC"},
"geometry":{ "type": "Point", "coordinates": [-80.530522,34.103737]}},
{ "type": "Feature", "properties": {"Abbeville city":"Richburg town","South Carolina":"South Carolina","SC":"SC"},
"geometry":{ "type": "Point", "coordinates": [-81.019578,34.716622]}},
{ "type": "Feature", "properties": {"Abbeville city":"Ridgeland town","South Carolina":"South Carolina","SC":"SC"},
"geometry":{ "type": "Point", "coordinates": [-80.921125,32.468844]}},
{ "type": "Feature", "properties": {"Abbeville city":"Ridge Spring town","South Carolina":"South Carolina","SC":"SC"},
"geometry":{ "type": "Point", "coordinates": [-81.661212,33.845284]}},
{ "type": "Feature", "properties": {"Abbeville city":"Ridgeville town","South Carolina":"South Carolina","SC":"SC"},
"geometry":{ "type": "Point", "coordinates": [-80.307233,33.090033]}},
{ "type": "Feature", "properties": {"Abbeville city":"Ridgeway town","South Carolina":"South Carolina","SC":"SC"},
"geometry":{ "type": "Point", "coordinates": [-80.960082,34.306542]}},
{ "type": "Feature", "properties": {"Abbeville city":"Riverview CDP","South Carolina":"South Carolina","SC":"SC"},
"geometry":{ "type": "Point", "coordinates": [-80.988933,35.014048]}},
{ "type": "Feature", "properties": {"Abbeville city":"Rock Hill city","South Carolina":"South Carolina","SC":"SC"},
"geometry":{ "type": "Point", "coordinates": [-81.019177,34.938216]}},
{ "type": "Feature", "properties": {"Abbeville city":"Rockville town","South Carolina":"South Carolina","SC":"SC"},
"geometry":{ "type": "Point", "coordinates": [-80.191385,32.602843]}},
{ "type": "Feature", "properties": {"Abbeville city":"Roebuck CDP","South Carolina":"South Carolina","SC":"SC"},
"geometry":{ "type": "Point", "coordinates": [-81.964442,34.878987]}},
{ "type": "Feature", "properties": {"Abbeville city":"Rowesville town","South Carolina":"South Carolina","SC":"SC"},
"geometry":{ "type": "Point", "coordinates": [-80.836165,33.372239]}},
{ "type": "Feature", "properties": {"Abbeville city":"Ruby town","South Carolina":"South Carolina","SC":"SC"},
"geometry":{ "type": "Point", "coordinates": [-80.179137,34.74816]}},
{ "type": "Feature", "properties": {"Abbeville city":"Russellville CDP","South Carolina":"South Carolina","SC":"SC"},
"geometry":{ "type": "Point", "coordinates": [-79.963739,33.397023]}},
{ "type": "Feature", "properties": {"Abbeville city":"St. Andrews CDP","South Carolina":"South Carolina","SC":"SC"},
"geometry":{ "type": "Point", "coordinates": [-81.105613,34.051098]}},
{ "type": "Feature", "properties": {"Abbeville city":"St. Charles CDP","South Carolina":"South Carolina","SC":"SC"},
"geometry":{ "type": "Point", "coordinates": [-80.224938,34.080601]}},
{ "type": "Feature", "properties": {"Abbeville city":"St. George town","South Carolina":"South Carolina","SC":"SC"},
"geometry":{ "type": "Point", "coordinates": [-80.57946,33.186073]}},
{ "type": "Feature", "properties": {"Abbeville city":"St. Matthews town","South Carolina":"South Carolina","SC":"SC"},
"geometry":{ "type": "Point", "coordinates": [-80.778753,33.66464]}},
{ "type": "Feature", "properties": {"Abbeville city":"St. Stephen town","South Carolina":"South Carolina","SC":"SC"},
"geometry":{ "type": "Point", "coordinates": [-79.926406,33.404635]}},
{ "type": "Feature", "properties": {"Abbeville city":"Salem town","South Carolina":"South Carolina","SC":"SC"},
"geometry":{ "type": "Point", "coordinates": [-82.975224,34.887923]}},
{ "type": "Feature", "properties": {"Abbeville city":"Salley town","South Carolina":"South Carolina","SC":"SC"},
"geometry":{ "type": "Point", "coordinates": [-81.303661,33.566896]}},
{ "type": "Feature", "properties": {"Abbeville city":"Saluda town","South Carolina":"South Carolina","SC":"SC"},
"geometry":{ "type": "Point", "coordinates": [-81.771638,34.001172]}},
{ "type": "Feature", "properties": {"Abbeville city":"Sandy Springs CDP","South Carolina":"South Carolina","SC":"SC"},
"geometry":{ "type": "Point", "coordinates": [-82.750927,34.602519]}},
{ "type": "Feature", "properties": {"Abbeville city":"Sangaree CDP","South Carolina":"South Carolina","SC":"SC"},
"geometry":{ "type": "Point", "coordinates": [-80.125292,33.032732]}},
{ "type": "Feature", "properties": {"Abbeville city":"Sans Souci CDP","South Carolina":"South Carolina","SC":"SC"},
"geometry":{ "type": "Point", "coordinates": [-82.422996,34.890783]}},
{ "type": "Feature", "properties": {"Abbeville city":"Santee town","South Carolina":"South Carolina","SC":"SC"},
"geometry":{ "type": "Point", "coordinates": [-80.477921,33.481317]}},
{ "type": "Feature", "properties": {"Abbeville city":"Saxon CDP","South Carolina":"South Carolina","SC":"SC"},
"geometry":{ "type": "Point", "coordinates": [-81.96928,34.961107]}},
{ "type": "Feature", "properties": {"Abbeville city":"Scotia town","South Carolina":"South Carolina","SC":"SC"},
"geometry":{ "type": "Point", "coordinates": [-81.243273,32.680498]}},
{ "type": "Feature", "properties": {"Abbeville city":"Scranton town","South Carolina":"South Carolina","SC":"SC"},
"geometry":{ "type": "Point", "coordinates": [-79.74411,33.917295]}},
{ "type": "Feature", "properties": {"Abbeville city":"Seabrook CDP","South Carolina":"South Carolina","SC":"SC"},
"geometry":{ "type": "Point", "coordinates": [-80.756237,32.534779]}},
{ "type": "Feature", "properties": {"Abbeville city":"Seabrook Island town","South Carolina":"South Carolina","SC":"SC"},
"geometry":{ "type": "Point", "coordinates": [-80.182045,32.575013]}},
{ "type": "Feature", "properties": {"Abbeville city":"Sellers town","South Carolina":"South Carolina","SC":"SC"},
"geometry":{ "type": "Point", "coordinates": [-79.472295,34.282594]}},
{ "type": "Feature", "properties": {"Abbeville city":"Seneca city","South Carolina":"South Carolina","SC":"SC"},
"geometry":{ "type": "Point", "coordinates": [-82.965604,34.681059]}},
{ "type": "Feature", "properties": {"Abbeville city":"Seven Oaks CDP","South Carolina":"South Carolina","SC":"SC"},
"geometry":{ "type": "Point", "coordinates": [-81.14086,34.046248]}},
{ "type": "Feature", "properties": {"Abbeville city":"Sharon town","South Carolina":"South Carolina","SC":"SC"},
"geometry":{ "type": "Point", "coordinates": [-81.343523,34.952023]}},
{ "type": "Feature", "properties": {"Abbeville city":"Sheldon CDP","South Carolina":"South Carolina","SC":"SC"},
"geometry":{ "type": "Point", "coordinates": [-80.79945,32.595532]}},
{ "type": "Feature", "properties": {"Abbeville city":"Shell Point CDP","South Carolina":"South Carolina","SC":"SC"},
"geometry":{ "type": "Point", "coordinates": [-80.753767,32.37564]}},
{ "type": "Feature", "properties": {"Abbeville city":"Shiloh CDP","South Carolina":"South Carolina","SC":"SC"},
"geometry":{ "type": "Point", "coordinates": [-80.018913,33.948159]}},
{ "type": "Feature", "properties": {"Abbeville city":"Silverstreet town","South Carolina":"South Carolina","SC":"SC"},
"geometry":{ "type": "Point", "coordinates": [-81.714608,34.217712]}},
{ "type": "Feature", "properties": {"Abbeville city":"Simpsonville city","South Carolina":"South Carolina","SC":"SC"},
"geometry":{ "type": "Point", "coordinates": [-82.257523,34.729034]}},
{ "type": "Feature", "properties": {"Abbeville city":"Six Mile town","South Carolina":"South Carolina","SC":"SC"},
"geometry":{ "type": "Point", "coordinates": [-82.811643,34.80933]}},
{ "type": "Feature", "properties": {"Abbeville city":"Slater-Marietta CDP","South Carolina":"South Carolina","SC":"SC"},
"geometry":{ "type": "Point", "coordinates": [-82.49094,35.037489]}},
{ "type": "Feature", "properties": {"Abbeville city":"Smoaks town","South Carolina":"South Carolina","SC":"SC"},
"geometry":{ "type": "Point", "coordinates": [-80.81421,33.089453]}},
{ "type": "Feature", "properties": {"Abbeville city":"Smyrna town","South Carolina":"South Carolina","SC":"SC"},
"geometry":{ "type": "Point", "coordinates": [-81.40942,35.042007]}},
{ "type": "Feature", "properties": {"Abbeville city":"Snelling town","South Carolina":"South Carolina","SC":"SC"},
"geometry":{ "type": "Point", "coordinates": [-81.475028,33.244301]}},
{ "type": "Feature", "properties": {"Abbeville city":"Socastee CDP","South Carolina":"South Carolina","SC":"SC"},
"geometry":{ "type": "Point", "coordinates": [-79.00886,33.687395]}},
{ "type": "Feature", "properties": {"Abbeville city":"Society Hill town","South Carolina":"South Carolina","SC":"SC"},
"geometry":{ "type": "Point", "coordinates": [-79.853535,34.509815]}},
{ "type": "Feature", "properties": {"Abbeville city":"South Congaree town","South Carolina":"South Carolina","SC":"SC"},
"geometry":{ "type": "Point", "coordinates": [-81.13754,33.90948]}},
{ "type": "Feature", "properties": {"Abbeville city":"Southern Shops CDP","South Carolina":"South Carolina","SC":"SC"},
"geometry":{ "type": "Point", "coordinates": [-81.990922,34.982149]}},
{ "type": "Feature", "properties": {"Abbeville city":"South Sumter CDP","South Carolina":"South Carolina","SC":"SC"},
"geometry":{ "type": "Point", "coordinates": [-80.337858,33.885452]}},
{ "type": "Feature", "properties": {"Abbeville city":"South Union CDP","South Carolina":"South Carolina","SC":"SC"},
"geometry":{ "type": "Point", "coordinates": [-83.048967,34.559549]}},
{ "type": "Feature", "properties": {"Abbeville city":"Spartanburg city","South Carolina":"South Carolina","SC":"SC"},
"geometry":{ "type": "Point", "coordinates": [-81.925944,34.945627]}},
{ "type": "Feature", "properties": {"Abbeville city":"Springdale CDP","South Carolina":"South Carolina","SC":"SC"},
"geometry":{ "type": "Point", "coordinates": [-80.776328,34.690418]}},
{ "type": "Feature", "properties": {"Abbeville city":"Springdale town","South Carolina":"South Carolina","SC":"SC"},
"geometry":{ "type": "Point", "coordinates": [-81.112059,33.960007]}},
{ "type": "Feature", "properties": {"Abbeville city":"Springfield town","South Carolina":"South Carolina","SC":"SC"},
"geometry":{ "type": "Point", "coordinates": [-81.279493,33.496737]}},
{ "type": "Feature", "properties": {"Abbeville city":"Starr town","South Carolina":"South Carolina","SC":"SC"},
"geometry":{ "type": "Point", "coordinates": [-82.695327,34.37789]}},
{ "type": "Feature", "properties": {"Abbeville city":"Startex CDP","South Carolina":"South Carolina","SC":"SC"},
"geometry":{ "type": "Point", "coordinates": [-82.094717,34.929355]}},
{ "type": "Feature", "properties": {"Abbeville city":"Stateburg CDP","South Carolina":"South Carolina","SC":"SC"},
"geometry":{ "type": "Point", "coordinates": [-80.52594,33.974866]}},
{ "type": "Feature", "properties": {"Abbeville city":"Stuckey town","South Carolina":"South Carolina","SC":"SC"},
"geometry":{ "type": "Point", "coordinates": [-79.513122,33.73219]}},
{ "type": "Feature", "properties": {"Abbeville city":"Sullivan's Island town","South Carolina":"South Carolina","SC":"SC"},
"geometry":{ "type": "Point", "coordinates": [-79.831136,32.770949]}},
{ "type": "Feature", "properties": {"Abbeville city":"Summerton town","South Carolina":"South Carolina","SC":"SC"},
"geometry":{ "type": "Point", "coordinates": [-80.352648,33.601475]}},
{ "type": "Feature", "properties": {"Abbeville city":"Summerville town","South Carolina":"South Carolina","SC":"SC"},
"geometry":{ "type": "Point", "coordinates": [-80.179306,33.005836]}},
{ "type": "Feature", "properties": {"Abbeville city":"Summit town","South Carolina":"South Carolina","SC":"SC"},
"geometry":{ "type": "Point", "coordinates": [-81.422583,33.924636]}},
{ "type": "Feature", "properties": {"Abbeville city":"Sumter city","South Carolina":"South Carolina","SC":"SC"},
"geometry":{ "type": "Point", "coordinates": [-80.395543,33.940848]}},
{ "type": "Feature", "properties": {"Abbeville city":"Surfside Beach town","South Carolina":"South Carolina","SC":"SC"},
"geometry":{ "type": "Point", "coordinates": [-78.97754,33.609651]}},
{ "type": "Feature", "properties": {"Abbeville city":"Swansea town","South Carolina":"South Carolina","SC":"SC"},
"geometry":{ "type": "Point", "coordinates": [-81.104523,33.740016]}},
{ "type": "Feature", "properties": {"Abbeville city":"Sycamore town","South Carolina":"South Carolina","SC":"SC"},
"geometry":{ "type": "Point", "coordinates": [-81.222535,33.034926]}},
{ "type": "Feature", "properties": {"Abbeville city":"Tamassee CDP","South Carolina":"South Carolina","SC":"SC"},
"geometry":{ "type": "Point", "coordinates": [-83.014034,34.879824]}},
{ "type": "Feature", "properties": {"Abbeville city":"Tatum town","South Carolina":"South Carolina","SC":"SC"},
"geometry":{ "type": "Point", "coordinates": [-79.58671,34.64382]}},
{ "type": "Feature", "properties": {"Abbeville city":"Taylors CDP","South Carolina":"South Carolina","SC":"SC"},
"geometry":{ "type": "Point", "coordinates": [-82.313906,34.914312]}},
{ "type": "Feature", "properties": {"Abbeville city":"Tega Cay city","South Carolina":"South Carolina","SC":"SC"},
"geometry":{ "type": "Point", "coordinates": [-81.01672,35.034576]}},
{ "type": "Feature", "properties": {"Abbeville city":"The Cliffs Valley CDP","South Carolina":"South Carolina","SC":"SC"},
"geometry":{ "type": "Point", "coordinates": [-82.436034,35.13951]}},
{ "type": "Feature", "properties": {"Abbeville city":"Tigerville CDP","South Carolina":"South Carolina","SC":"SC"},
"geometry":{ "type": "Point", "coordinates": [-82.369918,35.065051]}},
{ "type": "Feature", "properties": {"Abbeville city":"Timmonsville town","South Carolina":"South Carolina","SC":"SC"},
"geometry":{ "type": "Point", "coordinates": [-79.940811,34.133427]}},
{ "type": "Feature", "properties": {"Abbeville city":"Tradesville CDP","South Carolina":"South Carolina","SC":"SC"},
"geometry":{ "type": "Point", "coordinates": [-80.55022,34.770941]}},
{ "type": "Feature", "properties": {"Abbeville city":"Travelers Rest city","South Carolina":"South Carolina","SC":"SC"},
"geometry":{ "type": "Point", "coordinates": [-82.444972,34.959971]}},
{ "type": "Feature", "properties": {"Abbeville city":"Trenton town","South Carolina":"South Carolina","SC":"SC"},
"geometry":{ "type": "Point", "coordinates": [-81.840937,33.740557]}},
{ "type": "Feature", "properties": {"Abbeville city":"Troy town","South Carolina":"South Carolina","SC":"SC"},
"geometry":{ "type": "Point", "coordinates": [-82.297895,33.991876]}},
{ "type": "Feature", "properties": {"Abbeville city":"Turbeville town","South Carolina":"South Carolina","SC":"SC"},
"geometry":{ "type": "Point", "coordinates": [-80.01615,33.889544]}},
{ "type": "Feature", "properties": {"Abbeville city":"Ulmer town","South Carolina":"South Carolina","SC":"SC"},
"geometry":{ "type": "Point", "coordinates": [-81.209005,33.102145]}},
{ "type": "Feature", "properties": {"Abbeville city":"Union city","South Carolina":"South Carolina","SC":"SC"},
"geometry":{ "type": "Point", "coordinates": [-81.624816,34.723461]}},
{ "type": "Feature", "properties": {"Abbeville city":"Unity CDP","South Carolina":"South Carolina","SC":"SC"},
"geometry":{ "type": "Point", "coordinates": [-80.691777,34.801557]}},
{ "type": "Feature", "properties": {"Abbeville city":"Utica CDP","South Carolina":"South Carolina","SC":"SC"},
"geometry":{ "type": "Point", "coordinates": [-82.922099,34.675985]}},
{ "type": "Feature", "properties": {"Abbeville city":"Valley Falls CDP","South Carolina":"South Carolina","SC":"SC"},
"geometry":{ "type": "Point", "coordinates": [-81.968913,35.00657]}},
{ "type": "Feature", "properties": {"Abbeville city":"Vance town","South Carolina":"South Carolina","SC":"SC"},
"geometry":{ "type": "Point", "coordinates": [-80.420202,33.436403]}},
{ "type": "Feature", "properties": {"Abbeville city":"Van Wyck town","South Carolina":"South Carolina","SC":"SC"},
"geometry":{ "type": "Point", "coordinates": [-80.829313,34.855638]}},
{ "type": "Feature", "properties": {"Abbeville city":"Varnville town","South Carolina":"South Carolina","SC":"SC"},
"geometry":{ "type": "Point", "coordinates": [-81.080228,32.852032]}},
{ "type": "Feature", "properties": {"Abbeville city":"Wade Hampton CDP","South Carolina":"South Carolina","SC":"SC"},
"geometry":{ "type": "Point", "coordinates": [-82.331715,34.882735]}},
{ "type": "Feature", "properties": {"Abbeville city":"Wagener town","South Carolina":"South Carolina","SC":"SC"},
"geometry":{ "type": "Point", "coordinates": [-81.3626,33.651301]}},
{ "type": "Feature", "properties": {"Abbeville city":"Walhalla city","South Carolina":"South Carolina","SC":"SC"},
"geometry":{ "type": "Point", "coordinates": [-83.055469,34.769515]}},
{ "type": "Feature", "properties": {"Abbeville city":"Wallace CDP","South Carolina":"South Carolina","SC":"SC"},
"geometry":{ "type": "Point", "coordinates": [-79.840328,34.723112]}},
{ "type": "Feature", "properties": {"Abbeville city":"Walterboro city","South Carolina":"South Carolina","SC":"SC"},
"geometry":{ "type": "Point", "coordinates": [-80.675944,32.900928]}},
{ "type": "Feature", "properties": {"Abbeville city":"Ward town","South Carolina":"South Carolina","SC":"SC"},
"geometry":{ "type": "Point", "coordinates": [-81.731334,33.857297]}},
{ "type": "Feature", "properties": {"Abbeville city":"Ware Place CDP","South Carolina":"South Carolina","SC":"SC"},
"geometry":{ "type": "Point", "coordinates": [-82.384822,34.624718]}},
{ "type": "Feature", "properties": {"Abbeville city":"Ware Shoals town","South Carolina":"South Carolina","SC":"SC"},
"geometry":{ "type": "Point", "coordinates": [-82.24327,34.387806]}},
{ "type": "Feature", "properties": {"Abbeville city":"Warrenville CDP","South Carolina":"South Carolina","SC":"SC"},
"geometry":{ "type": "Point", "coordinates": [-81.801689,33.547049]}},
{ "type": "Feature", "properties": {"Abbeville city":"Waterloo town","South Carolina":"South Carolina","SC":"SC"},
"geometry":{ "type": "Point", "coordinates": [-82.057213,34.3562]}},
{ "type": "Feature", "properties": {"Abbeville city":"Watts Mills CDP","South Carolina":"South Carolina","SC":"SC"},
"geometry":{ "type": "Point", "coordinates": [-81.985618,34.516356]}},
{ "type": "Feature", "properties": {"Abbeville city":"Wedgefield CDP","South Carolina":"South Carolina","SC":"SC"},
"geometry":{ "type": "Point", "coordinates": [-80.515874,33.880853]}},
{ "type": "Feature", "properties": {"Abbeville city":"Welcome CDP","South Carolina":"South Carolina","SC":"SC"},
"geometry":{ "type": "Point", "coordinates": [-82.471763,34.814308]}},
{ "type": "Feature", "properties": {"Abbeville city":"Wellford city","South Carolina":"South Carolina","SC":"SC"},
"geometry":{ "type": "Point", "coordinates": [-82.095301,34.957955]}},
{ "type": "Feature", "properties": {"Abbeville city":"West Columbia city","South Carolina":"South Carolina","SC":"SC"},
"geometry":{ "type": "Point", "coordinates": [-81.099354,33.99013]}},
{ "type": "Feature", "properties": {"Abbeville city":"Westminster city","South Carolina":"South Carolina","SC":"SC"},
"geometry":{ "type": "Point", "coordinates": [-83.090658,34.666556]}},
{ "type": "Feature", "properties": {"Abbeville city":"West Pelzer town","South Carolina":"South Carolina","SC":"SC"},
"geometry":{ "type": "Point", "coordinates": [-82.471767,34.64466]}},
{ "type": "Feature", "properties": {"Abbeville city":"West Union town","South Carolina":"South Carolina","SC":"SC"},
"geometry":{ "type": "Point", "coordinates": [-83.044142,34.756041]}},
{ "type": "Feature", "properties": {"Abbeville city":"White Knoll CDP","South Carolina":"South Carolina","SC":"SC"},
"geometry":{ "type": "Point", "coordinates": [-81.238637,33.888025]}},
{ "type": "Feature", "properties": {"Abbeville city":"Whitmire town","South Carolina":"South Carolina","SC":"SC"},
"geometry":{ "type": "Point", "coordinates": [-81.614157,34.504069]}},
{ "type": "Feature", "properties": {"Abbeville city":"Whitney CDP","South Carolina":"South Carolina","SC":"SC"},
"geometry":{ "type": "Point", "coordinates": [-81.92237,34.983624]}},
{ "type": "Feature", "properties": {"Abbeville city":"Wilkinson Heights CDP","South Carolina":"South Carolina","SC":"SC"},
"geometry":{ "type": "Point", "coordinates": [-80.828535,33.491877]}},
{ "type": "Feature", "properties": {"Abbeville city":"Williams town","South Carolina":"South Carolina","SC":"SC"},
"geometry":{ "type": "Point", "coordinates": [-80.842844,33.034143]}},
{ "type": "Feature", "properties": {"Abbeville city":"Williamston town","South Carolina":"South Carolina","SC":"SC"},
"geometry":{ "type": "Point", "coordinates": [-82.478418,34.619506]}},
{ "type": "Feature", "properties": {"Abbeville city":"Willington CDP","South Carolina":"South Carolina","SC":"SC"},
"geometry":{ "type": "Point", "coordinates": [-82.450293,33.965101]}},
{ "type": "Feature", "properties": {"Abbeville city":"Williston town","South Carolina":"South Carolina","SC":"SC"},
"geometry":{ "type": "Point", "coordinates": [-81.421899,33.401663]}},
{ "type": "Feature", "properties": {"Abbeville city":"Windsor town","South Carolina":"South Carolina","SC":"SC"},
"geometry":{ "type": "Point", "coordinates": [-81.513652,33.480937]}},
{ "type": "Feature", "properties": {"Abbeville city":"Winnsboro town","South Carolina":"South Carolina","SC":"SC"},
"geometry":{ "type": "Point", "coordinates": [-81.090778,34.370316]}},
{ "type": "Feature", "properties": {"Abbeville city":"Winnsboro Mills CDP","South Carolina":"South Carolina","SC":"SC"},
"geometry":{ "type": "Point", "coordinates": [-81.070557,34.356227]}},
{ "type": "Feature", "properties": {"Abbeville city":"Wisacky CDP","South Carolina":"South Carolina","SC":"SC"},
"geometry":{ "type": "Point", "coordinates": [-80.191409,34.146577]}},
{ "type": "Feature", "properties": {"Abbeville city":"Woodfield CDP","South Carolina":"South Carolina","SC":"SC"},
"geometry":{ "type": "Point", "coordinates": [-80.930611,34.059194]}},
{ "type": "Feature", "properties": {"Abbeville city":"Woodford town","South Carolina":"South Carolina","SC":"SC"},
"geometry":{ "type": "Point", "coordinates": [-81.111955,33.668703]}},
{ "type": "Feature", "properties": {"Abbeville city":"Woodruff city","South Carolina":"South Carolina","SC":"SC"},
"geometry":{ "type": "Point", "coordinates": [-82.037454,34.745097]}},
{ "type": "Feature", "properties": {"Abbeville city":"Wyboo CDP","South Carolina":"South Carolina","SC":"SC"},
"geometry":{ "type": "Point", "coordinates": [-80.215296,33.565715]}},
{ "type": "Feature", "properties": {"Abbeville city":"Yemassee town","South Carolina":"South Carolina","SC":"SC"},
"geometry":{ "type": "Point", "coordinates": [-80.869472,32.708]}},
{ "type": "Feature", "properties": {"Abbeville city":"York city","South Carolina":"South Carolina","SC":"SC"},
"geometry":{ "type": "Point", "coordinates": [-81.233066,34.998347]}},
{ "type": "Feature", "properties": {"Abbeville city":"Zion CDP","South Carolina":"South Carolina","SC":"SC"},
"geometry":{ "type": "Point", "coordinates": [-79.311711,34.258838]}}]}
