{"type":"FeatureCollection","features":[
{ "type": "Feature", "properties": {"Name":"Abbeville city","State":"South Carolina","State_Abbrev":"SC"},
"geometry":{ "type": "Point", "coordinates": [-82.377687,34.178544]}},
{ "type": "Feature", "properties": {"Name":"Abney Crossroads CDP","State":"South Carolina","State_Abbrev":"SC"},
"geometry":{ "type": "Point", "coordinates": [-80.510697,34.506352]}},
{ "type": "Feature", "properties": {"Name":"Adams Run CDP","State":"South Carolina","State_Abbrev":"SC"},
"geometry":{ "type": "Point", "coordinates": [-80.346499,32.721864]}},
{ "type": "Feature", "properties": {"Name":"Aiken city","State":"South Carolina","State_Abbrev":"SC"},
"geometry":{ "type": "Point", "coordinates": [-81.725073,33.531594]}},
{ "type": "Feature", "properties": {"Name":"Alcolu CDP","State":"South Carolina","State_Abbrev":"SC"},
"geometry":{ "type": "Point", "coordinates": [-80.224889,33.759106]}},
{ "type": "Feature", "properties": {"Name":"Allendale town","State":"South Carolina","State_Abbrev":"SC"},
"geometry":{ "type": "Point", "coordinates": [-81.309164,33.008047]}},
{ "type": "Feature", "properties": {"Name":"Anderson city","State":"South Carolina","State_Abbrev":"SC"},
"geometry":{ "type": "Point", "coordinates": [-82.647326,34.521166]}},
{ "type": "Feature", "properties": {"Name":"Andrews town","State":"South Carolina","State_Abbrev":"SC"},
"geometry":{ "type": "Point", "coordinates": [-79.565984,33.44946]}},
{ "type": "Feature", "properties": {"Name":"Antreville CDP","State":"South Carolina","State_Abbrev":"SC"},
"geometry":{ "type": "Point", "coordinates": [-82.560347,34.296213]}},
{ "type": "Feature", "properties": {"Name":"Arcadia CDP","State":"South Carolina","State_Abbrev":"SC"},
"geometry":{ "type": "Point", "coordinates": [-81.993118,34.961075]}},
{ "type": "Feature", "properties": {"Name":"Arcadia Lakes town","State":"South Carolina","State_Abbrev":"SC"},
"geometry":{ "type": "Point", "coordinates": [-80.963108,34.051617]}},
{ "type": "Feature", "properties": {"Name":"Arial CDP","State":"South Carolina","State_Abbrev":"SC"},
"geometry":{ "type": "Point", "coordinates": [-82.64062,34.846076]}},
{ "type": "Feature", "properties": {"Name":"Arkwright CDP","State":"South Carolina","State_Abbrev":"SC"},
"geometry":{ "type": "Point", "coordinates": [-81.938733,34.914961]}},
{ "type": "Feature", "properties": {"Name":"Arthurtown CDP","State":"South Carolina","State_Abbrev":"SC"},
"geometry":{ "type": "Point", "coordinates": [-81.00115,33.965357]}},
{ "type": "Feature", "properties": {"Name":"Ashwood CDP","State":"South Carolina","State_Abbrev":"SC"},
"geometry":{ "type": "Point", "coordinates": [-80.296802,34.123013]}},
{ "type": "Feature", "properties": {"Name":"Atlantic Beach town","State":"South Carolina","State_Abbrev":"SC"},
"geometry":{ "type": "Point", "coordinates": [-78.717742,33.803553]}},
{ "type": "Feature", "properties": {"Name":"Awendaw town","State":"South Carolina","State_Abbrev":"SC"},
"geometry":{ "type": "Point", "coordinates": [-79.654755,32.967885]}},
{ "type": "Feature", "properties": {"Name":"Aynor town","State":"South Carolina","State_Abbrev":"SC"},
"geometry":{ "type": "Point", "coordinates": [-79.207117,34.00023]}},
{ "type": "Feature", "properties": {"Name":"Bamberg town","State":"South Carolina","State_Abbrev":"SC"},
"geometry":{ "type": "Point", "coordinates": [-81.031222,33.300136]}},
{ "type": "Feature", "properties": {"Name":"Barnwell city","State":"South Carolina","State_Abbrev":"SC"},
"geometry":{ "type": "Point", "coordinates": [-81.366143,33.241633]}},
{ "type": "Feature", "properties": {"Name":"Batesburg-Leesville town","State":"South Carolina","State_Abbrev":"SC"},
"geometry":{ "type": "Point", "coordinates": [-81.528079,33.913306]}},
{ "type": "Feature", "properties": {"Name":"Baxter Village CDP","State":"South Carolina","State_Abbrev":"SC"},
"geometry":{ "type": "Point", "coordinates": [-80.977908,35.027211]}},
{ "type": "Feature", "properties": {"Name":"Beaufort city","State":"South Carolina","State_Abbrev":"SC"},
"geometry":{ "type": "Point", "coordinates": [-80.722543,32.458085]}},
{ "type": "Feature", "properties": {"Name":"Beech Island CDP","State":"South Carolina","State_Abbrev":"SC"},
"geometry":{ "type": "Point", "coordinates": [-81.890318,33.428596]}},
{ "type": "Feature", "properties": {"Name":"Belton city","State":"South Carolina","State_Abbrev":"SC"},
"geometry":{ "type": "Point", "coordinates": [-82.493618,34.523365]}},
{ "type": "Feature", "properties": {"Name":"Belvedere CDP","State":"South Carolina","State_Abbrev":"SC"},
"geometry":{ "type": "Point", "coordinates": [-81.933646,33.539348]}},
{ "type": "Feature", "properties": {"Name":"Ben Avon CDP","State":"South Carolina","State_Abbrev":"SC"},
"geometry":{ "type": "Point", "coordinates": [-81.875366,34.934614]}},
{ "type": "Feature", "properties": {"Name":"Bennettsville city","State":"South Carolina","State_Abbrev":"SC"},
"geometry":{ "type": "Point", "coordinates": [-79.685958,34.628218]}},
{ "type": "Feature", "properties": {"Name":"Berea CDP","State":"South Carolina","State_Abbrev":"SC"},
"geometry":{ "type": "Point", "coordinates": [-82.466212,34.8785]}},
{ "type": "Feature", "properties": {"Name":"Bethune town","State":"South Carolina","State_Abbrev":"SC"},
"geometry":{ "type": "Point", "coordinates": [-80.348747,34.414181]}},
{ "type": "Feature", "properties": {"Name":"Bishopville city","State":"South Carolina","State_Abbrev":"SC"},
"geometry":{ "type": "Point", "coordinates": [-80.24737,34.22007]}},
{ "type": "Feature", "properties": {"Name":"Blacksburg town","State":"South Carolina","State_Abbrev":"SC"},
"geometry":{ "type": "Point", "coordinates": [-81.518119,35.122088]}},
{ "type": "Feature", "properties": {"Name":"Blackville town","State":"South Carolina","State_Abbrev":"SC"},
"geometry":{ "type": "Point", "coordinates": [-81.294912,33.347767]}},
{ "type": "Feature", "properties": {"Name":"Blenheim town","State":"South Carolina","State_Abbrev":"SC"},
"geometry":{ "type": "Point", "coordinates": [-79.652486,34.509758]}},
{ "type": "Feature", "properties": {"Name":"Bluffton town","State":"South Carolina","State_Abbrev":"SC"},
"geometry":{ "type": "Point", "coordinates": [-80.929528,32.214449]}},
{ "type": "Feature", "properties": {"Name":"Blythewood town","State":"South Carolina","State_Abbrev":"SC"},
"geometry":{ "type": "Point", "coordinates": [-80.995293,34.209247]}},
{ "type": "Feature", "properties": {"Name":"Boiling Springs CDP","State":"South Carolina","State_Abbrev":"SC"},
"geometry":{ "type": "Point", "coordinates": [-81.977929,35.04501]}},
{ "type": "Feature", "properties": {"Name":"Bonneau town","State":"South Carolina","State_Abbrev":"SC"},
"geometry":{ "type": "Point", "coordinates": [-79.953916,33.313636]}},
{ "type": "Feature", "properties": {"Name":"Bonneau Beach CDP","State":"South Carolina","State_Abbrev":"SC"},
"geometry":{ "type": "Point", "coordinates": [-79.988621,33.322081]}},
{ "type": "Feature", "properties": {"Name":"Bowman town","State":"South Carolina","State_Abbrev":"SC"},
"geometry":{ "type": "Point", "coordinates": [-80.684293,33.348302]}},
{ "type": "Feature", "properties": {"Name":"Boykin CDP","State":"South Carolina","State_Abbrev":"SC"},
"geometry":{ "type": "Point", "coordinates": [-80.584438,34.120509]}},
{ "type": "Feature", "properties": {"Name":"Bradley CDP","State":"South Carolina","State_Abbrev":"SC"},
"geometry":{ "type": "Point", "coordinates": [-82.239288,34.02991]}},
{ "type": "Feature", "properties": {"Name":"Branchville town","State":"South Carolina","State_Abbrev":"SC"},
"geometry":{ "type": "Point", "coordinates": [-80.816078,33.251712]}},
{ "type": "Feature", "properties": {"Name":"Briarcliffe Acres town","State":"South Carolina","State_Abbrev":"SC"},
"geometry":{ "type": "Point", "coordinates": [-78.749029,33.790125]}},
{ "type": "Feature", "properties": {"Name":"Brookdale CDP","State":"South Carolina","State_Abbrev":"SC"},
"geometry":{ "type": "Point", "coordinates": [-80.838367,33.520783]}},
{ "type": "Feature", "properties": {"Name":"Browntown CDP","State":"South Carolina","State_Abbrev":"SC"},
"geometry":{ "type": "Point", "coordinates": [-80.316032,34.205285]}},
{ "type": "Feature", "properties": {"Name":"Brunson town","State":"South Carolina","State_Abbrev":"SC"},
"geometry":{ "type": "Point", "coordinates": [-81.188644,32.924256]}},
{ "type": "Feature", "properties": {"Name":"Bucksport CDP","State":"South Carolina","State_Abbrev":"SC"},
"geometry":{ "type": "Point", "coordinates": [-79.115766,33.66518]}},
{ "type": "Feature", "properties": {"Name":"Buffalo CDP","State":"South Carolina","State_Abbrev":"SC"},
"geometry":{ "type": "Point", "coordinates": [-81.684357,34.724439]}},
{ "type": "Feature", "properties": {"Name":"Buford CDP","State":"South Carolina","State_Abbrev":"SC"},
"geometry":{ "type": "Point", "coordinates": [-80.628505,34.748046]}},
{ "type": "Feature", "properties": {"Name":"Burnettown town","State":"South Carolina","State_Abbrev":"SC"},
"geometry":{ "type": "Point", "coordinates": [-81.864655,33.521073]}},
{ "type": "Feature", "properties": {"Name":"Burton CDP","State":"South Carolina","State_Abbrev":"SC"},
"geometry":{ "type": "Point", "coordinates": [-80.740576,32.424802]}},
{ "type": "Feature", "properties": {"Name":"Caesars Head CDP","State":"South Carolina","State_Abbrev":"SC"},
"geometry":{ "type": "Point", "coordinates": [-82.618378,35.107109]}},
{ "type": "Feature", "properties": {"Name":"Calhoun Falls town","State":"South Carolina","State_Abbrev":"SC"},
"geometry":{ "type": "Point", "coordinates": [-82.596496,34.092995]}},
{ "type": "Feature", "properties": {"Name":"Camden city","State":"South Carolina","State_Abbrev":"SC"},
"geometry":{ "type": "Point", "coordinates": [-80.609202,34.25893]}},
{ "type": "Feature", "properties": {"Name":"Cameron town","State":"South Carolina","State_Abbrev":"SC"},
"geometry":{ "type": "Point", "coordinates": [-80.715034,33.557954]}},
{ "type": "Feature", "properties": {"Name":"Camp Croft CDP","State":"South Carolina","State_Abbrev":"SC"},
"geometry":{ "type": "Point", "coordinates": [-81.863582,34.90878]}},
{ "type": "Feature", "properties": {"Name":"Campobello town","State":"South Carolina","State_Abbrev":"SC"},
"geometry":{ "type": "Point", "coordinates": [-82.149276,35.125658]}},
{ "type": "Feature", "properties": {"Name":"Cane Savannah CDP","State":"South Carolina","State_Abbrev":"SC"},
"geometry":{ "type": "Point", "coordinates": [-80.441951,33.892713]}},
{ "type": "Feature", "properties": {"Name":"Capitol View CDP","State":"South Carolina","State_Abbrev":"SC"},
"geometry":{ "type": "Point", "coordinates": [-80.923847,33.967152]}},
{ "type": "Feature", "properties": {"Name":"Carlisle town","State":"South Carolina","State_Abbrev":"SC"},
"geometry":{ "type": "Point", "coordinates": [-81.464513,34.592041]}},
{ "type": "Feature", "properties": {"Name":"Carolina Forest CDP","State":"South Carolina","State_Abbrev":"SC"},
"geometry":{ "type": "Point", "coordinates": [-78.913478,33.76636]}},
{ "type": "Feature", "properties": {"Name":"Cash CDP","State":"South Carolina","State_Abbrev":"SC"},
"geometry":{ "type": "Point", "coordinates": [-79.889498,34.619649]}},
{ "type": "Feature", "properties": {"Name":"Catawba CDP","State":"South Carolina","State_Abbrev":"SC"},
"geometry":{ "type": "Point", "coordinates": [-80.899863,34.839617]}},
{ "type": "Feature", "properties": {"Name":"Cateechee CDP","State":"South Carolina","State_Abbrev":"SC"},
"geometry":{ "type": "Point", "coordinates": [-82.77876,34.766646]}},
{ "type": "Feature", "properties": {"Name":"Cayce city","State":"South Carolina","State_Abbrev":"SC"},
"geometry":{ "type": "Point", "coordinates": [-81.039806,33.950498]}},
{ "type": "Feature", "properties": {"Name":"Centenary CDP","State":"South Carolina","State_Abbrev":"SC"},
"geometry":{ "type": "Point", "coordinates": [-79.352372,34.025711]}},
{ "type": "Feature", "properties": {"Name":"Centerville CDP","State":"South Carolina","State_Abbrev":"SC"},
"geometry":{ "type": "Point", "coordinates": [-82.716733,34.528278]}},
{ "type": "Feature", "properties": {"Name":"Central town","State":"South Carolina","State_Abbrev":"SC"},
"geometry":{ "type": "Point", "coordinates": [-82.777333,34.723298]}},
{ "type": "Feature", "properties": {"Name":"Central Pacolet town","State":"South Carolina","State_Abbrev":"SC"},
"geometry":{ "type": "Point", "coordinates": [-81.752757,34.909598]}},
{ "type": "Feature", "properties": {"Name":"Chapin town","State":"South Carolina","State_Abbrev":"SC"},
"geometry":{ "type": "Point", "coordinates": [-81.339342,34.165251]}},
{ "type": "Feature", "properties": {"Name":"Charleston city","State":"South Carolina","State_Abbrev":"SC"},
"geometry":{ "type": "Point", "coordinates": [-79.972896,32.828017]}},
{ "type": "Feature", "properties": {"Name":"Cheraw town","State":"South Carolina","State_Abbrev":"SC"},
"geometry":{ "type": "Point", "coordinates": [-79.913969,34.697894]}},
{ "type": "Feature", "properties": {"Name":"Cherokee Falls CDP","State":"South Carolina","State_Abbrev":"SC"},
"geometry":{ "type": "Point", "coordinates": [-81.544499,35.063872]}},
{ "type": "Feature", "properties": {"Name":"Cherryvale CDP","State":"South Carolina","State_Abbrev":"SC"},
"geometry":{ "type": "Point", "coordinates": [-80.45932,33.949511]}},
{ "type": "Feature", "properties": {"Name":"Chesnee city","State":"South Carolina","State_Abbrev":"SC"},
"geometry":{ "type": "Point", "coordinates": [-81.862978,35.146247]}},
{ "type": "Feature", "properties": {"Name":"Chester city","State":"South Carolina","State_Abbrev":"SC"},
"geometry":{ "type": "Point", "coordinates": [-81.213208,34.70502]}},
{ "type": "Feature", "properties": {"Name":"Chesterfield town","State":"South Carolina","State_Abbrev":"SC"},
"geometry":{ "type": "Point", "coordinates": [-80.078036,34.732992]}},
{ "type": "Feature", "properties": {"Name":"Chickasaw Point CDP","State":"South Carolina","State_Abbrev":"SC"},
"geometry":{ "type": "Point", "coordinates": [-83.076455,34.535481]}},
{ "type": "Feature", "properties": {"Name":"City View CDP","State":"South Carolina","State_Abbrev":"SC"},
"geometry":{ "type": "Point", "coordinates": [-82.425849,34.862508]}},
{ "type": "Feature", "properties": {"Name":"Clarks Hill CDP","State":"South Carolina","State_Abbrev":"SC"},
"geometry":{ "type": "Point", "coordinates": [-82.165995,33.658175]}},
{ "type": "Feature", "properties": {"Name":"Clearwater CDP","State":"South Carolina","State_Abbrev":"SC"},
"geometry":{ "type": "Point", "coordinates": [-81.911132,33.502756]}},
{ "type": "Feature", "properties": {"Name":"Clemson city","State":"South Carolina","State_Abbrev":"SC"},
"geometry":{ "type": "Point", "coordinates": [-82.811924,34.684122]}},
{ "type": "Feature", "properties": {"Name":"Clemson University CDP","State":"South Carolina","State_Abbrev":"SC"},
"geometry":{ "type": "Point", "coordinates": [-82.835245,34.6756]}},
{ "type": "Feature", "properties": {"Name":"Clifton CDP","State":"South Carolina","State_Abbrev":"SC"},
"geometry":{ "type": "Point", "coordinates": [-81.820395,34.986051]}},
{ "type": "Feature", "properties": {"Name":"Clinton city","State":"South Carolina","State_Abbrev":"SC"},
"geometry":{ "type": "Point", "coordinates": [-81.860899,34.473887]}},
{ "type": "Feature", "properties": {"Name":"Clio town","State":"South Carolina","State_Abbrev":"SC"},
"geometry":{ "type": "Point", "coordinates": [-79.546059,34.579046]}},
{ "type": "Feature", "properties": {"Name":"Clover town","State":"South Carolina","State_Abbrev":"SC"},
"geometry":{ "type": "Point", "coordinates": [-81.220254,35.11162]}},
{ "type": "Feature", "properties": {"Name":"Cokesbury CDP","State":"South Carolina","State_Abbrev":"SC"},
"geometry":{ "type": "Point", "coordinates": [-82.20874,34.290015]}},
{ "type": "Feature", "properties": {"Name":"Columbia city","State":"South Carolina","State_Abbrev":"SC"},
"geometry":{ "type": "Point", "coordinates": [-80.906099,34.040519]}},
{ "type": "Feature", "properties": {"Name":"Conestee CDP","State":"South Carolina","State_Abbrev":"SC"},
"geometry":{ "type": "Point", "coordinates": [-82.351637,34.763806]}},
{ "type": "Feature", "properties": {"Name":"Converse CDP","State":"South Carolina","State_Abbrev":"SC"},
"geometry":{ "type": "Point", "coordinates": [-81.843053,34.995653]}},
{ "type": "Feature", "properties": {"Name":"Conway city","State":"South Carolina","State_Abbrev":"SC"},
"geometry":{ "type": "Point", "coordinates": [-79.045651,33.84193]}},
{ "type": "Feature", "properties": {"Name":"Coosawhatchie CDP","State":"South Carolina","State_Abbrev":"SC"},
"geometry":{ "type": "Point", "coordinates": [-80.933843,32.586261]}},
{ "type": "Feature", "properties": {"Name":"Cope town","State":"South Carolina","State_Abbrev":"SC"},
"geometry":{ "type": "Point", "coordinates": [-81.007941,33.377744]}},
{ "type": "Feature", "properties": {"Name":"Cordova town","State":"South Carolina","State_Abbrev":"SC"},
"geometry":{ "type": "Point", "coordinates": [-80.921034,33.434489]}},
{ "type": "Feature", "properties": {"Name":"Coronaca CDP","State":"South Carolina","State_Abbrev":"SC"},
"geometry":{ "type": "Point", "coordinates": [-82.105315,34.251805]}},
{ "type": "Feature", "properties": {"Name":"Cottageville town","State":"South Carolina","State_Abbrev":"SC"},
"geometry":{ "type": "Point", "coordinates": [-80.480316,32.936197]}},
{ "type": "Feature", "properties": {"Name":"Coward town","State":"South Carolina","State_Abbrev":"SC"},
"geometry":{ "type": "Point", "coordinates": [-79.750088,33.971798]}},
{ "type": "Feature", "properties": {"Name":"Cowpens town","State":"South Carolina","State_Abbrev":"SC"},
"geometry":{ "type": "Point", "coordinates": [-81.804121,35.018617]}},
{ "type": "Feature", "properties": {"Name":"Cross Anchor CDP","State":"South Carolina","State_Abbrev":"SC"},
"geometry":{ "type": "Point", "coordinates": [-81.858033,34.644241]}},
{ "type": "Feature", "properties": {"Name":"Cross Hill town","State":"South Carolina","State_Abbrev":"SC"},
"geometry":{ "type": "Point", "coordinates": [-81.983576,34.30451]}},
{ "type": "Feature", "properties": {"Name":"Dacusville CDP","State":"South Carolina","State_Abbrev":"SC"},
"geometry":{ "type": "Point", "coordinates": [-82.560513,34.934272]}},
{ "type": "Feature", "properties": {"Name":"Dale CDP","State":"South Carolina","State_Abbrev":"SC"},
"geometry":{ "type": "Point", "coordinates": [-80.701559,32.555428]}},
{ "type": "Feature", "properties": {"Name":"Dalzell CDP","State":"South Carolina","State_Abbrev":"SC"},
"geometry":{ "type": "Point", "coordinates": [-80.432897,34.020267]}},
{ "type": "Feature", "properties": {"Name":"Danwood CDP","State":"South Carolina","State_Abbrev":"SC"},
"geometry":{ "type": "Point", "coordinates": [-79.769477,34.090306]}},
{ "type": "Feature", "properties": {"Name":"Darlington city","State":"South Carolina","State_Abbrev":"SC"},
"geometry":{ "type": "Point", "coordinates": [-79.867174,34.301383]}},
{ "type": "Feature", "properties": {"Name":"Daufuskie Island CDP","State":"South Carolina","State_Abbrev":"SC"},
"geometry":{ "type": "Point", "coordinates": [-80.857081,32.110537]}},
{ "type": "Feature", "properties": {"Name":"Daviston CDP","State":"South Carolina","State_Abbrev":"SC"},
"geometry":{ "type": "Point", "coordinates": [-79.371772,33.886173]}},
{ "type": "Feature", "properties": {"Name":"DeBordieu Colony CDP","State":"South Carolina","State_Abbrev":"SC"},
"geometry":{ "type": "Point", "coordinates": [-79.175762,33.370552]}},
{ "type": "Feature", "properties": {"Name":"Denmark city","State":"South Carolina","State_Abbrev":"SC"},
"geometry":{ "type": "Point", "coordinates": [-81.133786,33.313705]}},
{ "type": "Feature", "properties": {"Name":"Dentsville CDP","State":"South Carolina","State_Abbrev":"SC"},
"geometry":{ "type": "Point", "coordinates": [-80.955161,34.07554]}},
{ "type": "Feature", "properties": {"Name":"Dillon city","State":"South Carolina","State_Abbrev":"SC"},
"geometry":{ "type": "Point", "coordinates": [-79.367588,34.424467]}},
{ "type": "Feature", "properties": {"Name":"Donalds town","State":"South Carolina","State_Abbrev":"SC"},
"geometry":{ "type": "Point", "coordinates": [-82.343202,34.374499]}},
{ "type": "Feature", "properties": {"Name":"Dovesville CDP","State":"South Carolina","State_Abbrev":"SC"},
"geometry":{ "type": "Point", "coordinates": [-79.908488,34.403788]}},
{ "type": "Feature", "properties": {"Name":"Drayton CDP","State":"South Carolina","State_Abbrev":"SC"},
"geometry":{ "type": "Point", "coordinates": [-81.902606,34.976171]}},
{ "type": "Feature", "properties": {"Name":"Due West town","State":"South Carolina","State_Abbrev":"SC"},
"geometry":{ "type": "Point", "coordinates": [-82.39033,34.334773]}},
{ "type": "Feature", "properties": {"Name":"Dunbar CDP","State":"South Carolina","State_Abbrev":"SC"},
"geometry":{ "type": "Point", "coordinates": [-79.352291,33.535224]}},
{ "type": "Feature", "properties": {"Name":"Duncan town","State":"South Carolina","State_Abbrev":"SC"},
"geometry":{ "type": "Point", "coordinates": [-82.143688,34.932426]}},
{ "type": "Feature", "properties": {"Name":"Dunean CDP","State":"South Carolina","State_Abbrev":"SC"},
"geometry":{ "type": "Point", "coordinates": [-82.423048,34.819282]}},
{ "type": "Feature", "properties": {"Name":"Easley city","State":"South Carolina","State_Abbrev":"SC"},
"geometry":{ "type": "Point", "coordinates": [-82.582161,34.819805]}},
{ "type": "Feature", "properties": {"Name":"East Camden CDP","State":"South Carolina","State_Abbrev":"SC"},
"geometry":{ "type": "Point", "coordinates": [-80.568123,34.268678]}},
{ "type": "Feature", "properties": {"Name":"East Gaffney CDP","State":"South Carolina","State_Abbrev":"SC"},
"geometry":{ "type": "Point", "coordinates": [-81.624294,35.085377]}},
{ "type": "Feature", "properties": {"Name":"Eastover town","State":"South Carolina","State_Abbrev":"SC"},
"geometry":{ "type": "Point", "coordinates": [-80.694926,33.87789]}},
{ "type": "Feature", "properties": {"Name":"East Sumter CDP","State":"South Carolina","State_Abbrev":"SC"},
"geometry":{ "type": "Point", "coordinates": [-80.2929,33.926946]}},
{ "type": "Feature", "properties": {"Name":"Edgefield town","State":"South Carolina","State_Abbrev":"SC"},
"geometry":{ "type": "Point", "coordinates": [-81.92804,33.78719]}},
{ "type": "Feature", "properties": {"Name":"Edisto CDP","State":"South Carolina","State_Abbrev":"SC"},
"geometry":{ "type": "Point", "coordinates": [-80.899303,33.477913]}},
{ "type": "Feature", "properties": {"Name":"Edisto Beach town","State":"South Carolina","State_Abbrev":"SC"},
"geometry":{ "type": "Point", "coordinates": [-80.313487,32.498719]}},
{ "type": "Feature", "properties": {"Name":"Edmund CDP","State":"South Carolina","State_Abbrev":"SC"},
"geometry":{ "type": "Point", "coordinates": [-81.191848,33.863713]}},
{ "type": "Feature", "properties": {"Name":"Ehrhardt town","State":"South Carolina","State_Abbrev":"SC"},
"geometry":{ "type": "Point", "coordinates": [-81.013822,33.098512]}},
{ "type": "Feature", "properties": {"Name":"Elgin town","State":"South Carolina","State_Abbrev":"SC"},
"geometry":{ "type": "Point", "coordinates": [-80.793111,34.170209]}},
{ "type": "Feature", "properties": {"Name":"Elgin CDP","State":"South Carolina","State_Abbrev":"SC"},
"geometry":{ "type": "Point", "coordinates": [-80.720931,34.665791]}},
{ "type": "Feature", "properties": {"Name":"Elko town","State":"South Carolina","State_Abbrev":"SC"},
"geometry":{ "type": "Point", "coordinates": [-81.380525,33.380745]}},
{ "type": "Feature", "properties": {"Name":"Elliott CDP","State":"South Carolina","State_Abbrev":"SC"},
"geometry":{ "type": "Point", "coordinates": [-80.171028,34.110902]}},
{ "type": "Feature", "properties": {"Name":"Elloree town","State":"South Carolina","State_Abbrev":"SC"},
"geometry":{ "type": "Point", "coordinates": [-80.571204,33.530224]}},
{ "type": "Feature", "properties": {"Name":"Enoree CDP","State":"South Carolina","State_Abbrev":"SC"},
"geometry":{ "type": "Point", "coordinates": [-81.96252,34.660485]}},
{ "type": "Feature", "properties": {"Name":"Estill town","State":"South Carolina","State_Abbrev":"SC"},
"geometry":{ "type": "Point", "coordinates": [-81.241189,32.753861]}},
{ "type": "Feature", "properties": {"Name":"Eureka Mill CDP","State":"South Carolina","State_Abbrev":"SC"},
"geometry":{ "type": "Point", "coordinates": [-81.192913,34.717969]}},
{ "type": "Feature", "properties": {"Name":"Eutawville town","State":"South Carolina","State_Abbrev":"SC"},
"geometry":{ "type": "Point", "coordinates": [-80.342931,33.397735]}},
{ "type": "Feature", "properties": {"Name":"Fairfax town","State":"South Carolina","State_Abbrev":"SC"},
"geometry":{ "type": "Point", "coordinates": [-81.236234,32.959377]}},
{ "type": "Feature", "properties": {"Name":"Fairforest CDP","State":"South Carolina","State_Abbrev":"SC"},
"geometry":{ "type": "Point", "coordinates": [-82.018174,34.94714]}},
{ "type": "Feature", "properties": {"Name":"Fair Play CDP","State":"South Carolina","State_Abbrev":"SC"},
"geometry":{ "type": "Point", "coordinates": [-82.986838,34.50809]}},
{ "type": "Feature", "properties": {"Name":"Fairview Crossroads CDP","State":"South Carolina","State_Abbrev":"SC"},
"geometry":{ "type": "Point", "coordinates": [-81.359474,33.76216]}},
{ "type": "Feature", "properties": {"Name":"Fingerville CDP","State":"South Carolina","State_Abbrev":"SC"},
"geometry":{ "type": "Point", "coordinates": [-82.000409,35.135077]}},
{ "type": "Feature", "properties": {"Name":"Finklea CDP","State":"South Carolina","State_Abbrev":"SC"},
"geometry":{ "type": "Point", "coordinates": [-78.985808,34.098853]}},
{ "type": "Feature", "properties": {"Name":"Five Forks CDP","State":"South Carolina","State_Abbrev":"SC"},
"geometry":{ "type": "Point", "coordinates": [-82.22291,34.809889]}},
{ "type": "Feature", "properties": {"Name":"Florence city","State":"South Carolina","State_Abbrev":"SC"},
"geometry":{ "type": "Point", "coordinates": [-79.790104,34.17791]}},
{ "type": "Feature", "properties": {"Name":"Floydale CDP","State":"South Carolina","State_Abbrev":"SC"},
"geometry":{ "type": "Point", "coordinates": [-79.337032,34.321091]}},
{ "type": "Feature", "properties": {"Name":"Folly Beach city","State":"South Carolina","State_Abbrev":"SC"},
"geometry":{ "type": "Point", "coordinates": [-79.960577,32.669283]}},
{ "type": "Feature", "properties": {"Name":"Forest Acres city","State":"South Carolina","State_Abbrev":"SC"},
"geometry":{ "type": "Point", "coordinates": [-80.97316,34.03312]}},
{ "type": "Feature", "properties": {"Name":"Forestbrook CDP","State":"South Carolina","State_Abbrev":"SC"},
"geometry":{ "type": "Point", "coordinates": [-78.967771,33.724229]}},
{ "type": "Feature", "properties": {"Name":"Foreston CDP","State":"South Carolina","State_Abbrev":"SC"},
"geometry":{ "type": "Point", "coordinates": [-80.060676,33.636788]}},
{ "type": "Feature", "properties": {"Name":"Fort Lawn town","State":"South Carolina","State_Abbrev":"SC"},
"geometry":{ "type": "Point", "coordinates": [-80.899121,34.700233]}},
{ "type": "Feature", "properties": {"Name":"Fort Mill town","State":"South Carolina","State_Abbrev":"SC"},
"geometry":{ "type": "Point", "coordinates": [-80.94,35.005997]}},
{ "type": "Feature", "properties": {"Name":"Fountain Inn city","State":"South Carolina","State_Abbrev":"SC"},
"geometry":{ "type": "Point", "coordinates": [-82.202129,34.69665]}},
{ "type": "Feature", "properties": {"Name":"Fripp Island CDP","State":"South Carolina","State_Abbrev":"SC"},
"geometry":{ "type": "Point", "coordinates": [-80.476028,32.327292]}},
{ "type": "Feature", "properties": {"Name":"Furman town","State":"South Carolina","State_Abbrev":"SC"},
"geometry":{ "type": "Point", "coordinates": [-81.187705,32.681247]}},
{ "type": "Feature", "properties": {"Name":"Gadsden CDP","State":"South Carolina","State_Abbrev":"SC"},
"geometry":{ "type": "Point", "coordinates": [-80.765601,33.847191]}},
{ "type": "Feature", "properties": {"Name":"Gaffney city","State":"South Carolina","State_Abbrev":"SC"},
"geometry":{ "type": "Point", "coordinates": [-81.65765,35.075505]}},
{ "type": "Feature", "properties": {"Name":"Gantt CDP","State":"South Carolina","State_Abbrev":"SC"},
"geometry":{ "type": "Point", "coordinates": [-82.401343,34.787114]}},
{ "type": "Feature", "properties": {"Name":"Garden City CDP","State":"South Carolina","State_Abbrev":"SC"},
"geometry":{ "type": "Point", "coordinates": [-79.006547,33.591754]}},
{ "type": "Feature", "properties": {"Name":"Gaston town","State":"South Carolina","State_Abbrev":"SC"},
"geometry":{ "type": "Point", "coordinates": [-81.099749,33.817968]}},
{ "type": "Feature", "properties": {"Name":"Gayle Mill CDP","State":"South Carolina","State_Abbrev":"SC"},
"geometry":{ "type": "Point", "coordinates": [-81.239229,34.70222]}},
{ "type": "Feature", "properties": {"Name":"Georgetown city","State":"South Carolina","State_Abbrev":"SC"},
"geometry":{ "type": "Point", "coordinates": [-79.280793,33.372432]}},
{ "type": "Feature", "properties": {"Name":"Gifford town","State":"South Carolina","State_Abbrev":"SC"},
"geometry":{ "type": "Point", "coordinates": [-81.238507,32.860035]}},
{ "type": "Feature", "properties": {"Name":"Gilbert town","State":"South Carolina","State_Abbrev":"SC"},
"geometry":{ "type": "Point", "coordinates": [-81.391042,33.924111]}},
{ "type": "Feature", "properties": {"Name":"Gillisonville CDP","State":"South Carolina","State_Abbrev":"SC"},
"geometry":{ "type": "Point", "coordinates": [-81.000179,32.611588]}},
{ "type": "Feature", "properties": {"Name":"Glendale CDP","State":"South Carolina","State_Abbrev":"SC"},
"geometry":{ "type": "Point", "coordinates": [-81.836373,34.945078]}},
{ "type": "Feature", "properties": {"Name":"Glenn Springs CDP","State":"South Carolina","State_Abbrev":"SC"},
"geometry":{ "type": "Point", "coordinates": [-81.850457,34.811956]}},
{ "type": "Feature", "properties": {"Name":"Gloverville CDP","State":"South Carolina","State_Abbrev":"SC"},
"geometry":{ "type": "Point", "coordinates": [-81.813055,33.526845]}},
{ "type": "Feature", "properties": {"Name":"Golden Grove CDP","State":"South Carolina","State_Abbrev":"SC"},
"geometry":{ "type": "Point", "coordinates": [-82.429152,34.71873]}},
{ "type": "Feature", "properties": {"Name":"Goose Creek city","State":"South Carolina","State_Abbrev":"SC"},
"geometry":{ "type": "Point", "coordinates": [-80.006587,32.994286]}},
{ "type": "Feature", "properties": {"Name":"Govan town","State":"South Carolina","State_Abbrev":"SC"},
"geometry":{ "type": "Point", "coordinates": [-81.174834,33.22277]}},
{ "type": "Feature", "properties": {"Name":"Gramling CDP","State":"South Carolina","State_Abbrev":"SC"},
"geometry":{ "type": "Point", "coordinates": [-82.134597,35.077525]}},
{ "type": "Feature", "properties": {"Name":"Graniteville CDP","State":"South Carolina","State_Abbrev":"SC"},
"geometry":{ "type": "Point", "coordinates": [-81.809231,33.564682]}},
{ "type": "Feature", "properties": {"Name":"Gray Court town","State":"South Carolina","State_Abbrev":"SC"},
"geometry":{ "type": "Point", "coordinates": [-82.114327,34.607455]}},
{ "type": "Feature", "properties": {"Name":"Great Falls town","State":"South Carolina","State_Abbrev":"SC"},
"geometry":{ "type": "Point", "coordinates": [-80.905304,34.572131]}},
{ "type": "Feature", "properties": {"Name":"Greeleyville town","State":"South Carolina","State_Abbrev":"SC"},
"geometry":{ "type": "Point", "coordinates": [-79.990022,33.580223]}},
{ "type": "Feature", "properties": {"Name":"Green Sea CDP","State":"South Carolina","State_Abbrev":"SC"},
"geometry":{ "type": "Point", "coordinates": [-78.972048,34.128781]}},
{ "type": "Feature", "properties": {"Name":"Greenville city","State":"South Carolina","State_Abbrev":"SC"},
"geometry":{ "type": "Point", "coordinates": [-82.362997,34.836902]}},
{ "type": "Feature", "properties": {"Name":"Greenwood city","State":"South Carolina","State_Abbrev":"SC"},
"geometry":{ "type": "Point", "coordinates": [-82.153681,34.19475]}},
{ "type": "Feature", "properties": {"Name":"Greer city","State":"South Carolina","State_Abbrev":"SC"},
"geometry":{ "type": "Point", "coordinates": [-82.237586,34.930462]}},
{ "type": "Feature", "properties": {"Name":"Grover CDP","State":"South Carolina","State_Abbrev":"SC"},
"geometry":{ "type": "Point", "coordinates": [-80.591958,33.10918]}},
{ "type": "Feature", "properties": {"Name":"Hamer CDP","State":"South Carolina","State_Abbrev":"SC"},
"geometry":{ "type": "Point", "coordinates": [-79.325403,34.474494]}},
{ "type": "Feature", "properties": {"Name":"Hampton town","State":"South Carolina","State_Abbrev":"SC"},
"geometry":{ "type": "Point", "coordinates": [-81.109405,32.867558]}},
{ "type": "Feature", "properties": {"Name":"Hanahan city","State":"South Carolina","State_Abbrev":"SC"},
"geometry":{ "type": "Point", "coordinates": [-80.001583,32.931084]}},
{ "type": "Feature", "properties": {"Name":"Harbor Island CDP","State":"South Carolina","State_Abbrev":"SC"},
"geometry":{ "type": "Point", "coordinates": [-80.43821,32.408292]}},
{ "type": "Feature", "properties": {"Name":"Hardeeville city","State":"South Carolina","State_Abbrev":"SC"},
"geometry":{ "type": "Point", "coordinates": [-81.040983,32.295308]}},
{ "type": "Feature", "properties": {"Name":"Harleyville town","State":"South Carolina","State_Abbrev":"SC"},
"geometry":{ "type": "Point", "coordinates": [-80.447784,33.213065]}},
{ "type": "Feature", "properties": {"Name":"Hartsville city","State":"South Carolina","State_Abbrev":"SC"},
"geometry":{ "type": "Point", "coordinates": [-80.083261,34.366003]}},
{ "type": "Feature", "properties": {"Name":"Heath Springs town","State":"South Carolina","State_Abbrev":"SC"},
"geometry":{ "type": "Point", "coordinates": [-80.675047,34.593268]}},
{ "type": "Feature", "properties": {"Name":"Helena CDP","State":"South Carolina","State_Abbrev":"SC"},
"geometry":{ "type": "Point", "coordinates": [-81.64449,34.280665]}},
{ "type": "Feature", "properties": {"Name":"Hemingway town","State":"South Carolina","State_Abbrev":"SC"},
"geometry":{ "type": "Point", "coordinates": [-79.446261,33.753319]}},
{ "type": "Feature", "properties": {"Name":"Hickory Grove town","State":"South Carolina","State_Abbrev":"SC"},
"geometry":{ "type": "Point", "coordinates": [-81.418057,34.978464]}},
{ "type": "Feature", "properties": {"Name":"Hilda town","State":"South Carolina","State_Abbrev":"SC"},
"geometry":{ "type": "Point", "coordinates": [-81.244711,33.280538]}},
{ "type": "Feature", "properties": {"Name":"Hilltop CDP","State":"South Carolina","State_Abbrev":"SC"},
"geometry":{ "type": "Point", "coordinates": [-81.958501,34.975486]}},
{ "type": "Feature", "properties": {"Name":"Hilton Head Island town","State":"South Carolina","State_Abbrev":"SC"},
"geometry":{ "type": "Point", "coordinates": [-80.738434,32.190307]}},
{ "type": "Feature", "properties": {"Name":"Hodges town","State":"South Carolina","State_Abbrev":"SC"},
"geometry":{ "type": "Point", "coordinates": [-82.249952,34.288774]}},
{ "type": "Feature", "properties": {"Name":"Holly Hill town","State":"South Carolina","State_Abbrev":"SC"},
"geometry":{ "type": "Point", "coordinates": [-80.413062,33.32444]}},
{ "type": "Feature", "properties": {"Name":"Hollywood town","State":"South Carolina","State_Abbrev":"SC"},
"geometry":{ "type": "Point", "coordinates": [-80.201928,32.751251]}},
{ "type": "Feature", "properties": {"Name":"Homeland Park CDP","State":"South Carolina","State_Abbrev":"SC"},
"geometry":{ "type": "Point", "coordinates": [-82.65876,34.464155]}},
{ "type": "Feature", "properties": {"Name":"Homewood CDP","State":"South Carolina","State_Abbrev":"SC"},
"geometry":{ "type": "Point", "coordinates": [-79.050523,33.890078]}},
{ "type": "Feature", "properties": {"Name":"Honea Path town","State":"South Carolina","State_Abbrev":"SC"},
"geometry":{ "type": "Point", "coordinates": [-82.394957,34.447619]}},
{ "type": "Feature", "properties": {"Name":"Hopkins CDP","State":"South Carolina","State_Abbrev":"SC"},
"geometry":{ "type": "Point", "coordinates": [-80.856751,33.900217]}},
{ "type": "Feature", "properties": {"Name":"India Hook CDP","State":"South Carolina","State_Abbrev":"SC"},
"geometry":{ "type": "Point", "coordinates": [-81.02812,35.014439]}},
{ "type": "Feature", "properties": {"Name":"Inman city","State":"South Carolina","State_Abbrev":"SC"},
"geometry":{ "type": "Point", "coordinates": [-82.089808,35.046134]}},
{ "type": "Feature", "properties": {"Name":"Inman Mills CDP","State":"South Carolina","State_Abbrev":"SC"},
"geometry":{ "type": "Point", "coordinates": [-82.102412,35.040907]}},
{ "type": "Feature", "properties": {"Name":"Irmo town","State":"South Carolina","State_Abbrev":"SC"},
"geometry":{ "type": "Point", "coordinates": [-81.19559,34.10198]}},
{ "type": "Feature", "properties": {"Name":"Irwin CDP","State":"South Carolina","State_Abbrev":"SC"},
"geometry":{ "type": "Point", "coordinates": [-80.822318,34.693897]}},
{ "type": "Feature", "properties": {"Name":"Islandton CDP","State":"South Carolina","State_Abbrev":"SC"},
"geometry":{ "type": "Point", "coordinates": [-80.935949,32.909262]}},
{ "type": "Feature", "properties": {"Name":"Isle of Palms city","State":"South Carolina","State_Abbrev":"SC"},
"geometry":{ "type": "Point", "coordinates": [-79.752353,32.803944]}},
{ "type": "Feature", "properties": {"Name":"Iva town","State":"South Carolina","State_Abbrev":"SC"},
"geometry":{ "type": "Point", "coordinates": [-82.663437,34.308147]}},
{ "type": "Feature", "properties": {"Name":"Jackson town","State":"South Carolina","State_Abbrev":"SC"},
"geometry":{ "type": "Point", "coordinates": [-81.792015,33.328575]}},
{ "type": "Feature", "properties": {"Name":"Jacksonboro CDP","State":"South Carolina","State_Abbrev":"SC"},
"geometry":{ "type": "Point", "coordinates": [-80.476939,32.771756]}},
{ "type": "Feature", "properties": {"Name":"James Island town","State":"South Carolina","State_Abbrev":"SC"},
"geometry":{ "type": "Point", "coordinates": [-79.937184,32.736122]}},
{ "type": "Feature", "properties": {"Name":"Jamestown town","State":"South Carolina","State_Abbrev":"SC"},
"geometry":{ "type": "Point", "coordinates": [-79.694592,33.285876]}},
{ "type": "Feature", "properties": {"Name":"Jefferson town","State":"South Carolina","State_Abbrev":"SC"},
"geometry":{ "type": "Point", "coordinates": [-80.38411,34.65122]}},
{ "type": "Feature", "properties": {"Name":"Jenkinsville town","State":"South Carolina","State_Abbrev":"SC"},
"geometry":{ "type": "Point", "coordinates": [-81.28667,34.311089]}},
{ "type": "Feature", "properties": {"Name":"Joanna CDP","State":"South Carolina","State_Abbrev":"SC"},
"geometry":{ "type": "Point", "coordinates": [-81.800222,34.415926]}},
{ "type": "Feature", "properties": {"Name":"Johnsonville city","State":"South Carolina","State_Abbrev":"SC"},
"geometry":{ "type": "Point", "coordinates": [-79.444288,33.81424]}},
{ "type": "Feature", "properties": {"Name":"Johnston town","State":"South Carolina","State_Abbrev":"SC"},
"geometry":{ "type": "Point", "coordinates": [-81.804823,33.833383]}},
{ "type": "Feature", "properties": {"Name":"Jonesville town","State":"South Carolina","State_Abbrev":"SC"},
"geometry":{ "type": "Point", "coordinates": [-81.68241,34.833949]}},
{ "type": "Feature", "properties": {"Name":"Judson CDP","State":"South Carolina","State_Abbrev":"SC"},
"geometry":{ "type": "Point", "coordinates": [-82.427219,34.833488]}},
{ "type": "Feature", "properties": {"Name":"Keowee Key CDP","State":"South Carolina","State_Abbrev":"SC"},
"geometry":{ "type": "Point", "coordinates": [-82.912341,34.820929]}},
{ "type": "Feature", "properties": {"Name":"Kershaw town","State":"South Carolina","State_Abbrev":"SC"},
"geometry":{ "type": "Point", "coordinates": [-80.58654,34.544363]}},
{ "type": "Feature", "properties": {"Name":"Ketchuptown CDP","State":"South Carolina","State_Abbrev":"SC"},
"geometry":{ "type": "Point", "coordinates": [-79.155697,34.109079]}},
{ "type": "Feature", "properties": {"Name":"Kiawah Island town","State":"South Carolina","State_Abbrev":"SC"},
"geometry":{ "type": "Point", "coordinates": [-80.060594,32.616442]}},
{ "type": "Feature", "properties": {"Name":"Kingstree town","State":"South Carolina","State_Abbrev":"SC"},
"geometry":{ "type": "Point", "coordinates": [-79.828661,33.66723]}},
{ "type": "Feature", "properties": {"Name":"Kline town","State":"South Carolina","State_Abbrev":"SC"},
"geometry":{ "type": "Point", "coordinates": [-81.34254,33.124717]}},
{ "type": "Feature", "properties": {"Name":"Ladson CDP","State":"South Carolina","State_Abbrev":"SC"},
"geometry":{ "type": "Point", "coordinates": [-80.107748,33.009237]}},
{ "type": "Feature", "properties": {"Name":"La France CDP","State":"South Carolina","State_Abbrev":"SC"},
"geometry":{ "type": "Point", "coordinates": [-82.770697,34.616281]}},
{ "type": "Feature", "properties": {"Name":"Lake City city","State":"South Carolina","State_Abbrev":"SC"},
"geometry":{ "type": "Point", "coordinates": [-79.753885,33.867725]}},
{ "type": "Feature", "properties": {"Name":"Lake Murray of Richland CDP","State":"South Carolina","State_Abbrev":"SC"},
"geometry":{ "type": "Point", "coordinates": [-81.265439,34.120742]}},
{ "type": "Feature", "properties": {"Name":"Lake Secession CDP","State":"South Carolina","State_Abbrev":"SC"},
"geometry":{ "type": "Point", "coordinates": [-82.585746,34.289933]}},
{ "type": "Feature", "properties": {"Name":"Lake View town","State":"South Carolina","State_Abbrev":"SC"},
"geometry":{ "type": "Point", "coordinates": [-79.166426,34.340784]}},
{ "type": "Feature", "properties": {"Name":"Lakewood CDP","State":"South Carolina","State_Abbrev":"SC"},
"geometry":{ "type": "Point", "coordinates": [-80.348877,33.834108]}},
{ "type": "Feature", "properties": {"Name":"Lake Wylie CDP","State":"South Carolina","State_Abbrev":"SC"},
"geometry":{ "type": "Point", "coordinates": [-81.072203,35.098536]}},
{ "type": "Feature", "properties": {"Name":"Lamar town","State":"South Carolina","State_Abbrev":"SC"},
"geometry":{ "type": "Point", "coordinates": [-80.065071,34.169469]}},
{ "type": "Feature", "properties": {"Name":"Lancaster city","State":"South Carolina","State_Abbrev":"SC"},
"geometry":{ "type": "Point", "coordinates": [-80.778965,34.726127]}},
{ "type": "Feature", "properties": {"Name":"Landrum city","State":"South Carolina","State_Abbrev":"SC"},
"geometry":{ "type": "Point", "coordinates": [-82.185727,35.175093]}},
{ "type": "Feature", "properties": {"Name":"Lane town","State":"South Carolina","State_Abbrev":"SC"},
"geometry":{ "type": "Point", "coordinates": [-79.87968,33.525094]}},
{ "type": "Feature", "properties": {"Name":"Langley CDP","State":"South Carolina","State_Abbrev":"SC"},
"geometry":{ "type": "Point", "coordinates": [-81.835037,33.515188]}},
{ "type": "Feature", "properties": {"Name":"Latta town","State":"South Carolina","State_Abbrev":"SC"},
"geometry":{ "type": "Point", "coordinates": [-79.433564,34.33894]}},
{ "type": "Feature", "properties": {"Name":"Laurel Bay CDP","State":"South Carolina","State_Abbrev":"SC"},
"geometry":{ "type": "Point", "coordinates": [-80.786541,32.459869]}},
{ "type": "Feature", "properties": {"Name":"Laurens city","State":"South Carolina","State_Abbrev":"SC"},
"geometry":{ "type": "Point", "coordinates": [-82.020704,34.502352]}},
{ "type": "Feature", "properties": {"Name":"Lesslie CDP","State":"South Carolina","State_Abbrev":"SC"},
"geometry":{ "type": "Point", "coordinates": [-80.9486,34.883849]}},
{ "type": "Feature", "properties": {"Name":"Lexington town","State":"South Carolina","State_Abbrev":"SC"},
"geometry":{ "type": "Point", "coordinates": [-81.221797,33.992877]}},
{ "type": "Feature", "properties": {"Name":"Liberty city","State":"South Carolina","State_Abbrev":"SC"},
"geometry":{ "type": "Point", "coordinates": [-82.701439,34.790963]}},
{ "type": "Feature", "properties": {"Name":"Lincolnville town","State":"South Carolina","State_Abbrev":"SC"},
"geometry":{ "type": "Point", "coordinates": [-80.155508,33.007926]}},
{ "type": "Feature", "properties": {"Name":"Litchfield Beach CDP","State":"South Carolina","State_Abbrev":"SC"},
"geometry":{ "type": "Point", "coordinates": [-79.11464,33.474389]}},
{ "type": "Feature", "properties": {"Name":"Little Mountain town","State":"South Carolina","State_Abbrev":"SC"},
"geometry":{ "type": "Point", "coordinates": [-81.412373,34.196898]}},
{ "type": "Feature", "properties": {"Name":"Little River CDP","State":"South Carolina","State_Abbrev":"SC"},
"geometry":{ "type": "Point", "coordinates": [-78.640489,33.880648]}},
{ "type": "Feature", "properties": {"Name":"Little Rock CDP","State":"South Carolina","State_Abbrev":"SC"},
"geometry":{ "type": "Point", "coordinates": [-79.389903,34.46914]}},
{ "type": "Feature", "properties": {"Name":"Live Oak CDP","State":"South Carolina","State_Abbrev":"SC"},
"geometry":{ "type": "Point", "coordinates": [-78.939732,34.056045]}},
{ "type": "Feature", "properties": {"Name":"Livingston town","State":"South Carolina","State_Abbrev":"SC"},
"geometry":{ "type": "Point", "coordinates": [-81.119545,33.553119]}},
{ "type": "Feature", "properties": {"Name":"Lobeco CDP","State":"South Carolina","State_Abbrev":"SC"},
"geometry":{ "type": "Point", "coordinates": [-80.73537,32.55116]}},
{ "type": "Feature", "properties": {"Name":"Lockhart town","State":"South Carolina","State_Abbrev":"SC"},
"geometry":{ "type": "Point", "coordinates": [-81.46698,34.796043]}},
{ "type": "Feature", "properties": {"Name":"Lodge town","State":"South Carolina","State_Abbrev":"SC"},
"geometry":{ "type": "Point", "coordinates": [-80.953698,33.06781]}},
{ "type": "Feature", "properties": {"Name":"Longcreek CDP","State":"South Carolina","State_Abbrev":"SC"},
"geometry":{ "type": "Point", "coordinates": [-83.256383,34.784198]}},
{ "type": "Feature", "properties": {"Name":"Loris city","State":"South Carolina","State_Abbrev":"SC"},
"geometry":{ "type": "Point", "coordinates": [-78.88842,34.057476]}},
{ "type": "Feature", "properties": {"Name":"Lowndesville town","State":"South Carolina","State_Abbrev":"SC"},
"geometry":{ "type": "Point", "coordinates": [-82.647625,34.209909]}},
{ "type": "Feature", "properties": {"Name":"Lowrys town","State":"South Carolina","State_Abbrev":"SC"},
"geometry":{ "type": "Point", "coordinates": [-81.237222,34.804009]}},
{ "type": "Feature", "properties": {"Name":"Lugoff CDP","State":"South Carolina","State_Abbrev":"SC"},
"geometry":{ "type": "Point", "coordinates": [-80.697601,34.211948]}},
{ "type": "Feature", "properties": {"Name":"Luray town","State":"South Carolina","State_Abbrev":"SC"},
"geometry":{ "type": "Point", "coordinates": [-81.240265,32.814208]}},
{ "type": "Feature", "properties": {"Name":"Lydia CDP","State":"South Carolina","State_Abbrev":"SC"},
"geometry":{ "type": "Point", "coordinates": [-80.118514,34.286519]}},
{ "type": "Feature", "properties": {"Name":"Lyman town","State":"South Carolina","State_Abbrev":"SC"},
"geometry":{ "type": "Point", "coordinates": [-82.130212,34.973869]}},
{ "type": "Feature", "properties": {"Name":"Lynchburg town","State":"South Carolina","State_Abbrev":"SC"},
"geometry":{ "type": "Point", "coordinates": [-80.076974,34.060005]}},
{ "type": "Feature", "properties": {"Name":"McBee town","State":"South Carolina","State_Abbrev":"SC"},
"geometry":{ "type": "Point", "coordinates": [-80.257145,34.467026]}},
{ "type": "Feature", "properties": {"Name":"McClellanville town","State":"South Carolina","State_Abbrev":"SC"},
"geometry":{ "type": "Point", "coordinates": [-79.468295,33.086502]}},
{ "type": "Feature", "properties": {"Name":"McColl town","State":"South Carolina","State_Abbrev":"SC"},
"geometry":{ "type": "Point", "coordinates": [-79.544169,34.666518]}},
{ "type": "Feature", "properties": {"Name":"McConnells town","State":"South Carolina","State_Abbrev":"SC"},
"geometry":{ "type": "Point", "coordinates": [-81.231605,34.876957]}},
{ "type": "Feature", "properties": {"Name":"McCormick town","State":"South Carolina","State_Abbrev":"SC"},
"geometry":{ "type": "Point", "coordinates": [-82.287591,33.91284]}},
{ "type": "Feature", "properties": {"Name":"Manning city","State":"South Carolina","State_Abbrev":"SC"},
"geometry":{ "type": "Point", "coordinates": [-80.216761,33.693323]}},
{ "type": "Feature", "properties": {"Name":"Manville CDP","State":"South Carolina","State_Abbrev":"SC"},
"geometry":{ "type": "Point", "coordinates": [-80.297418,34.159769]}},
{ "type": "Feature", "properties": {"Name":"Marion city","State":"South Carolina","State_Abbrev":"SC"},
"geometry":{ "type": "Point", "coordinates": [-79.395659,34.178658]}},
{ "type": "Feature", "properties": {"Name":"Mauldin city","State":"South Carolina","State_Abbrev":"SC"},
"geometry":{ "type": "Point", "coordinates": [-82.304953,34.780647]}},
{ "type": "Feature", "properties": {"Name":"Mayesville town","State":"South Carolina","State_Abbrev":"SC"},
"geometry":{ "type": "Point", "coordinates": [-80.204443,33.984912]}},
{ "type": "Feature", "properties": {"Name":"Mayo CDP","State":"South Carolina","State_Abbrev":"SC"},
"geometry":{ "type": "Point", "coordinates": [-81.853452,35.085704]}},
{ "type": "Feature", "properties": {"Name":"Meggett town","State":"South Carolina","State_Abbrev":"SC"},
"geometry":{ "type": "Point", "coordinates": [-80.257585,32.689659]}},
{ "type": "Feature", "properties": {"Name":"Modoc CDP","State":"South Carolina","State_Abbrev":"SC"},
"geometry":{ "type": "Point", "coordinates": [-82.217422,33.721454]}},
{ "type": "Feature", "properties": {"Name":"Monarch Mill CDP","State":"South Carolina","State_Abbrev":"SC"},
"geometry":{ "type": "Point", "coordinates": [-81.584781,34.716122]}},
{ "type": "Feature", "properties": {"Name":"Moncks Corner town","State":"South Carolina","State_Abbrev":"SC"},
"geometry":{ "type": "Point", "coordinates": [-79.991538,33.20116]}},
{ "type": "Feature", "properties": {"Name":"Monetta town","State":"South Carolina","State_Abbrev":"SC"},
"geometry":{ "type": "Point", "coordinates": [-81.609932,33.849987]}},
{ "type": "Feature", "properties": {"Name":"Mount Carmel CDP","State":"South Carolina","State_Abbrev":"SC"},
"geometry":{ "type": "Point", "coordinates": [-82.504446,34.018453]}},
{ "type": "Feature", "properties": {"Name":"Mount Croghan town","State":"South Carolina","State_Abbrev":"SC"},
"geometry":{ "type": "Point", "coordinates": [-80.226387,34.769746]}},
{ "type": "Feature", "properties": {"Name":"Mount Pleasant town","State":"South Carolina","State_Abbrev":"SC"},
"geometry":{ "type": "Point", "coordinates": [-79.865038,32.808382]}},
{ "type": "Feature", "properties": {"Name":"Mountville CDP","State":"South Carolina","State_Abbrev":"SC"},
"geometry":{ "type": "Point", "coordinates": [-81.977361,34.373026]}},
{ "type": "Feature", "properties": {"Name":"Mulberry CDP","State":"South Carolina","State_Abbrev":"SC"},
"geometry":{ "type": "Point", "coordinates": [-80.329078,33.958874]}},
{ "type": "Feature", "properties": {"Name":"Mullins city","State":"South Carolina","State_Abbrev":"SC"},
"geometry":{ "type": "Point", "coordinates": [-79.253639,34.203976]}},
{ "type": "Feature", "properties": {"Name":"Murphys Estates CDP","State":"South Carolina","State_Abbrev":"SC"},
"geometry":{ "type": "Point", "coordinates": [-81.945963,33.60107]}},
{ "type": "Feature", "properties": {"Name":"Murrells Inlet CDP","State":"South Carolina","State_Abbrev":"SC"},
"geometry":{ "type": "Point", "coordinates": [-79.057165,33.55725]}},
{ "type": "Feature", "properties": {"Name":"Myrtle Beach city","State":"South Carolina","State_Abbrev":"SC"},
"geometry":{ "type": "Point", "coordinates": [-78.886024,33.71039]}},
{ "type": "Feature", "properties": {"Name":"Neeses town","State":"South Carolina","State_Abbrev":"SC"},
"geometry":{ "type": "Point", "coordinates": [-81.123614,33.536437]}},
{ "type": "Feature", "properties": {"Name":"Newberry city","State":"South Carolina","State_Abbrev":"SC"},
"geometry":{ "type": "Point", "coordinates": [-81.601461,34.282254]}},
{ "type": "Feature", "properties": {"Name":"New Ellenton town","State":"South Carolina","State_Abbrev":"SC"},
"geometry":{ "type": "Point", "coordinates": [-81.682414,33.41961]}},
{ "type": "Feature", "properties": {"Name":"Newport CDP","State":"South Carolina","State_Abbrev":"SC"},
"geometry":{ "type": "Point", "coordinates": [-81.08072,34.996324]}},
{ "type": "Feature", "properties": {"Name":"Newry CDP","State":"South Carolina","State_Abbrev":"SC"},
"geometry":{ "type": "Point", "coordinates": [-82.914632,34.724825]}},
{ "type": "Feature", "properties": {"Name":"Newtown CDP","State":"South Carolina","State_Abbrev":"SC"},
"geometry":{ "type": "Point", "coordinates": [-79.356789,34.401246]}},
{ "type": "Feature", "properties": {"Name":"Nichols town","State":"South Carolina","State_Abbrev":"SC"},
"geometry":{ "type": "Point", "coordinates": [-79.149116,34.23518]}},
{ "type": "Feature", "properties": {"Name":"Ninety Six town","State":"South Carolina","State_Abbrev":"SC"},
"geometry":{ "type": "Point", "coordinates": [-82.02385,34.169689]}},
{ "type": "Feature", "properties": {"Name":"Norris town","State":"South Carolina","State_Abbrev":"SC"},
"geometry":{ "type": "Point", "coordinates": [-82.752535,34.766116]}},
{ "type": "Feature", "properties": {"Name":"North town","State":"South Carolina","State_Abbrev":"SC"},
"geometry":{ "type": "Point", "coordinates": [-81.102969,33.616366]}},
{ "type": "Feature", "properties": {"Name":"North Augusta city","State":"South Carolina","State_Abbrev":"SC"},
"geometry":{ "type": "Point", "coordinates": [-81.956566,33.523303]}},
{ "type": "Feature", "properties": {"Name":"North Charleston city","State":"South Carolina","State_Abbrev":"SC"},
"geometry":{ "type": "Point", "coordinates": [-80.065,32.917881]}},
{ "type": "Feature", "properties": {"Name":"North Hartsville CDP","State":"South Carolina","State_Abbrev":"SC"},
"geometry":{ "type": "Point", "coordinates": [-80.072269,34.402582]}},
{ "type": "Feature", "properties": {"Name":"Northlake CDP","State":"South Carolina","State_Abbrev":"SC"},
"geometry":{ "type": "Point", "coordinates": [-82.684299,34.570621]}},
{ "type": "Feature", "properties": {"Name":"North Myrtle Beach city","State":"South Carolina","State_Abbrev":"SC"},
"geometry":{ "type": "Point", "coordinates": [-78.699918,33.822882]}},
{ "type": "Feature", "properties": {"Name":"North Santee CDP","State":"South Carolina","State_Abbrev":"SC"},
"geometry":{ "type": "Point", "coordinates": [-80.41411,33.542156]}},
{ "type": "Feature", "properties": {"Name":"Norway town","State":"South Carolina","State_Abbrev":"SC"},
"geometry":{ "type": "Point", "coordinates": [-81.126672,33.449755]}},
{ "type": "Feature", "properties": {"Name":"Oak Grove CDP","State":"South Carolina","State_Abbrev":"SC"},
"geometry":{ "type": "Point", "coordinates": [-81.151355,33.982989]}},
{ "type": "Feature", "properties": {"Name":"Oakland CDP","State":"South Carolina","State_Abbrev":"SC"},
"geometry":{ "type": "Point", "coordinates": [-80.495936,33.989366]}},
{ "type": "Feature", "properties": {"Name":"Olanta town","State":"South Carolina","State_Abbrev":"SC"},
"geometry":{ "type": "Point", "coordinates": [-79.931789,33.936183]}},
{ "type": "Feature", "properties": {"Name":"Olar town","State":"South Carolina","State_Abbrev":"SC"},
"geometry":{ "type": "Point", "coordinates": [-81.185344,33.179864]}},
{ "type": "Feature", "properties": {"Name":"Olympia CDP","State":"South Carolina","State_Abbrev":"SC"},
"geometry":{ "type": "Point", "coordinates": [-81.036122,33.973879]}},
{ "type": "Feature", "properties": {"Name":"Orangeburg city","State":"South Carolina","State_Abbrev":"SC"},
"geometry":{ "type": "Point", "coordinates": [-80.86688,33.493596]}},
{ "type": "Feature", "properties": {"Name":"Oswego CDP","State":"South Carolina","State_Abbrev":"SC"},
"geometry":{ "type": "Point", "coordinates": [-80.286146,34.005598]}},
{ "type": "Feature", "properties": {"Name":"Pacolet town","State":"South Carolina","State_Abbrev":"SC"},
"geometry":{ "type": "Point", "coordinates": [-81.763712,34.905374]}},
{ "type": "Feature", "properties": {"Name":"Pageland town","State":"South Carolina","State_Abbrev":"SC"},
"geometry":{ "type": "Point", "coordinates": [-80.385705,34.770117]}},
{ "type": "Feature", "properties": {"Name":"Pamplico town","State":"South Carolina","State_Abbrev":"SC"},
"geometry":{ "type": "Point", "coordinates": [-79.570615,33.995021]}},
{ "type": "Feature", "properties": {"Name":"Parker CDP","State":"South Carolina","State_Abbrev":"SC"},
"geometry":{ "type": "Point", "coordinates": [-82.452971,34.849961]}},
{ "type": "Feature", "properties": {"Name":"Parksville town","State":"South Carolina","State_Abbrev":"SC"},
"geometry":{ "type": "Point", "coordinates": [-82.217367,33.786592]}},
{ "type": "Feature", "properties": {"Name":"Patrick town","State":"South Carolina","State_Abbrev":"SC"},
"geometry":{ "type": "Point", "coordinates": [-80.044655,34.575253]}},
{ "type": "Feature", "properties": {"Name":"Pauline CDP","State":"South Carolina","State_Abbrev":"SC"},
"geometry":{ "type": "Point", "coordinates": [-81.866313,34.834255]}},
{ "type": "Feature", "properties": {"Name":"Pawleys Island town","State":"South Carolina","State_Abbrev":"SC"},
"geometry":{ "type": "Point", "coordinates": [-79.124988,33.428093]}},
{ "type": "Feature", "properties": {"Name":"Paxville town","State":"South Carolina","State_Abbrev":"SC"},
"geometry":{ "type": "Point", "coordinates": [-80.358565,33.739027]}},
{ "type": "Feature", "properties": {"Name":"Peak town","State":"South Carolina","State_Abbrev":"SC"},
"geometry":{ "type": "Point", "coordinates": [-81.32884,34.236325]}},
{ "type": "Feature", "properties": {"Name":"Pelion town","State":"South Carolina","State_Abbrev":"SC"},
"geometry":{ "type": "Point", "coordinates": [-81.259679,33.784861]}},
{ "type": "Feature", "properties": {"Name":"Pelzer town","State":"South Carolina","State_Abbrev":"SC"},
"geometry":{ "type": "Point", "coordinates": [-82.460074,34.643648]}},
{ "type": "Feature", "properties": {"Name":"Pendleton town","State":"South Carolina","State_Abbrev":"SC"},
"geometry":{ "type": "Point", "coordinates": [-82.779112,34.642243]}},
{ "type": "Feature", "properties": {"Name":"Perry town","State":"South Carolina","State_Abbrev":"SC"},
"geometry":{ "type": "Point", "coordinates": [-81.308105,33.628319]}},
{ "type": "Feature", "properties": {"Name":"Pickens city","State":"South Carolina","State_Abbrev":"SC"},
"geometry":{ "type": "Point", "coordinates": [-82.710202,34.885741]}},
{ "type": "Feature", "properties": {"Name":"Piedmont CDP","State":"South Carolina","State_Abbrev":"SC"},
"geometry":{ "type": "Point", "coordinates": [-82.466746,34.705617]}},
{ "type": "Feature", "properties": {"Name":"Pimlico CDP","State":"South Carolina","State_Abbrev":"SC"},
"geometry":{ "type": "Point", "coordinates": [-79.959598,33.099194]}},
{ "type": "Feature", "properties": {"Name":"Pine Ridge CDP","State":"South Carolina","State_Abbrev":"SC"},
"geometry":{ "type": "Point", "coordinates": [-80.16842,34.395668]}},
{ "type": "Feature", "properties": {"Name":"Pine Ridge town","State":"South Carolina","State_Abbrev":"SC"},
"geometry":{ "type": "Point", "coordinates": [-81.092591,33.902307]}},
{ "type": "Feature", "properties": {"Name":"Pinewood town","State":"South Carolina","State_Abbrev":"SC"},
"geometry":{ "type": "Point", "coordinates": [-80.462016,33.739585]}},
{ "type": "Feature", "properties": {"Name":"Pinopolis CDP","State":"South Carolina","State_Abbrev":"SC"},
"geometry":{ "type": "Point", "coordinates": [-80.038603,33.228617]}},
{ "type": "Feature", "properties": {"Name":"Plum Branch town","State":"South Carolina","State_Abbrev":"SC"},
"geometry":{ "type": "Point", "coordinates": [-82.258746,33.848166]}},
{ "type": "Feature", "properties": {"Name":"Pomaria town","State":"South Carolina","State_Abbrev":"SC"},
"geometry":{ "type": "Point", "coordinates": [-81.417824,34.268739]}},
{ "type": "Feature", "properties": {"Name":"Port Royal town","State":"South Carolina","State_Abbrev":"SC"},
"geometry":{ "type": "Point", "coordinates": [-80.700252,32.355371]}},
{ "type": "Feature", "properties": {"Name":"Powdersville CDP","State":"South Carolina","State_Abbrev":"SC"},
"geometry":{ "type": "Point", "coordinates": [-82.497593,34.780022]}},
{ "type": "Feature", "properties": {"Name":"Princeton CDP","State":"South Carolina","State_Abbrev":"SC"},
"geometry":{ "type": "Point", "coordinates": [-82.29587,34.491276]}},
{ "type": "Feature", "properties": {"Name":"Privateer CDP","State":"South Carolina","State_Abbrev":"SC"},
"geometry":{ "type": "Point", "coordinates": [-80.391428,33.816845]}},
{ "type": "Feature", "properties": {"Name":"Promised Land CDP","State":"South Carolina","State_Abbrev":"SC"},
"geometry":{ "type": "Point", "coordinates": [-82.230701,34.127675]}},
{ "type": "Feature", "properties": {"Name":"Prosperity town","State":"South Carolina","State_Abbrev":"SC"},
"geometry":{ "type": "Point", "coordinates": [-81.528386,34.213372]}},
{ "type": "Feature", "properties": {"Name":"Quinby town","State":"South Carolina","State_Abbrev":"SC"},
"geometry":{ "type": "Point", "coordinates": [-79.735689,34.228033]}},
{ "type": "Feature", "properties": {"Name":"Rains CDP","State":"South Carolina","State_Abbrev":"SC"},
"geometry":{ "type": "Point", "coordinates": [-79.321393,34.094238]}},
{ "type": "Feature", "properties": {"Name":"Ravenel town","State":"South Carolina","State_Abbrev":"SC"},
"geometry":{ "type": "Point", "coordinates": [-80.231948,32.776278]}},
{ "type": "Feature", "properties": {"Name":"Red Bank CDP","State":"South Carolina","State_Abbrev":"SC"},
"geometry":{ "type": "Point", "coordinates": [-81.233902,33.929544]}},
{ "type": "Feature", "properties": {"Name":"Red Hill CDP","State":"South Carolina","State_Abbrev":"SC"},
"geometry":{ "type": "Point", "coordinates": [-79.015118,33.777957]}},
{ "type": "Feature", "properties": {"Name":"Reevesville town","State":"South Carolina","State_Abbrev":"SC"},
"geometry":{ "type": "Point", "coordinates": [-80.641685,33.197302]}},
{ "type": "Feature", "properties": {"Name":"Reidville town","State":"South Carolina","State_Abbrev":"SC"},
"geometry":{ "type": "Point", "coordinates": [-82.11064,34.865805]}},
{ "type": "Feature", "properties": {"Name":"Rembert CDP","State":"South Carolina","State_Abbrev":"SC"},
"geometry":{ "type": "Point", "coordinates": [-80.530522,34.103737]}},
{ "type": "Feature", "properties": {"Name":"Richburg town","State":"South Carolina","State_Abbrev":"SC"},
"geometry":{ "type": "Point", "coordinates": [-81.019578,34.716622]}},
{ "type": "Feature", "properties": {"Name":"Ridgeland town","State":"South Carolina","State_Abbrev":"SC"},
"geometry":{ "type": "Point", "coordinates": [-80.921125,32.468844]}},
{ "type": "Feature", "properties": {"Name":"Ridge Spring town","State":"South Carolina","State_Abbrev":"SC"},
"geometry":{ "type": "Point", "coordinates": [-81.661212,33.845284]}},
{ "type": "Feature", "properties": {"Name":"Ridgeville town","State":"South Carolina","State_Abbrev":"SC"},
"geometry":{ "type": "Point", "coordinates": [-80.307233,33.090033]}},
{ "type": "Feature", "properties": {"Name":"Ridgeway town","State":"South Carolina","State_Abbrev":"SC"},
"geometry":{ "type": "Point", "coordinates": [-80.960082,34.306542]}},
{ "type": "Feature", "properties": {"Name":"Riverview CDP","State":"South Carolina","State_Abbrev":"SC"},
"geometry":{ "type": "Point", "coordinates": [-80.988933,35.014048]}},
{ "type": "Feature", "properties": {"Name":"Rock Hill city","State":"South Carolina","State_Abbrev":"SC"},
"geometry":{ "type": "Point", "coordinates": [-81.019177,34.938216]}},
{ "type": "Feature", "properties": {"Name":"Rockville town","State":"South Carolina","State_Abbrev":"SC"},
"geometry":{ "type": "Point", "coordinates": [-80.191385,32.602843]}},
{ "type": "Feature", "properties": {"Name":"Roebuck CDP","State":"South Carolina","State_Abbrev":"SC"},
"geometry":{ "type": "Point", "coordinates": [-81.964442,34.878987]}},
{ "type": "Feature", "properties": {"Name":"Rowesville town","State":"South Carolina","State_Abbrev":"SC"},
"geometry":{ "type": "Point", "coordinates": [-80.836165,33.372239]}},
{ "type": "Feature", "properties": {"Name":"Ruby town","State":"South Carolina","State_Abbrev":"SC"},
"geometry":{ "type": "Point", "coordinates": [-80.179137,34.74816]}},
{ "type": "Feature", "properties": {"Name":"Russellville CDP","State":"South Carolina","State_Abbrev":"SC"},
"geometry":{ "type": "Point", "coordinates": [-79.963739,33.397023]}},
{ "type": "Feature", "properties": {"Name":"St. Andrews CDP","State":"South Carolina","State_Abbrev":"SC"},
"geometry":{ "type": "Point", "coordinates": [-81.105613,34.051098]}},
{ "type": "Feature", "properties": {"Name":"St. Charles CDP","State":"South Carolina","State_Abbrev":"SC"},
"geometry":{ "type": "Point", "coordinates": [-80.224938,34.080601]}},
{ "type": "Feature", "properties": {"Name":"St. George town","State":"South Carolina","State_Abbrev":"SC"},
"geometry":{ "type": "Point", "coordinates": [-80.57946,33.186073]}},
{ "type": "Feature", "properties": {"Name":"St. Matthews town","State":"South Carolina","State_Abbrev":"SC"},
"geometry":{ "type": "Point", "coordinates": [-80.778753,33.66464]}},
{ "type": "Feature", "properties": {"Name":"St. Stephen town","State":"South Carolina","State_Abbrev":"SC"},
"geometry":{ "type": "Point", "coordinates": [-79.926406,33.404635]}},
{ "type": "Feature", "properties": {"Name":"Salem town","State":"South Carolina","State_Abbrev":"SC"},
"geometry":{ "type": "Point", "coordinates": [-82.975224,34.887923]}},
{ "type": "Feature", "properties": {"Name":"Salley town","State":"South Carolina","State_Abbrev":"SC"},
"geometry":{ "type": "Point", "coordinates": [-81.303661,33.566896]}},
{ "type": "Feature", "properties": {"Name":"Saluda town","State":"South Carolina","State_Abbrev":"SC"},
"geometry":{ "type": "Point", "coordinates": [-81.771638,34.001172]}},
{ "type": "Feature", "properties": {"Name":"Sandy Springs CDP","State":"South Carolina","State_Abbrev":"SC"},
"geometry":{ "type": "Point", "coordinates": [-82.750927,34.602519]}},
{ "type": "Feature", "properties": {"Name":"Sangaree CDP","State":"South Carolina","State_Abbrev":"SC"},
"geometry":{ "type": "Point", "coordinates": [-80.125292,33.032732]}},
{ "type": "Feature", "properties": {"Name":"Sans Souci CDP","State":"South Carolina","State_Abbrev":"SC"},
"geometry":{ "type": "Point", "coordinates": [-82.422996,34.890783]}},
{ "type": "Feature", "properties": {"Name":"Santee town","State":"South Carolina","State_Abbrev":"SC"},
"geometry":{ "type": "Point", "coordinates": [-80.477921,33.481317]}},
{ "type": "Feature", "properties": {"Name":"Saxon CDP","State":"South Carolina","State_Abbrev":"SC"},
"geometry":{ "type": "Point", "coordinates": [-81.96928,34.961107]}},
{ "type": "Feature", "properties": {"Name":"Scotia town","State":"South Carolina","State_Abbrev":"SC"},
"geometry":{ "type": "Point", "coordinates": [-81.243273,32.680498]}},
{ "type": "Feature", "properties": {"Name":"Scranton town","State":"South Carolina","State_Abbrev":"SC"},
"geometry":{ "type": "Point", "coordinates": [-79.74411,33.917295]}},
{ "type": "Feature", "properties": {"Name":"Seabrook CDP","State":"South Carolina","State_Abbrev":"SC"},
"geometry":{ "type": "Point", "coordinates": [-80.756237,32.534779]}},
{ "type": "Feature", "properties": {"Name":"Seabrook Island town","State":"South Carolina","State_Abbrev":"SC"},
"geometry":{ "type": "Point", "coordinates": [-80.182045,32.575013]}},
{ "type": "Feature", "properties": {"Name":"Sellers town","State":"South Carolina","State_Abbrev":"SC"},
"geometry":{ "type": "Point", "coordinates": [-79.472295,34.282594]}},
{ "type": "Feature", "properties": {"Name":"Seneca city","State":"South Carolina","State_Abbrev":"SC"},
"geometry":{ "type": "Point", "coordinates": [-82.965604,34.681059]}},
{ "type": "Feature", "properties": {"Name":"Seven Oaks CDP","State":"South Carolina","State_Abbrev":"SC"},
"geometry":{ "type": "Point", "coordinates": [-81.14086,34.046248]}},
{ "type": "Feature", "properties": {"Name":"Sharon town","State":"South Carolina","State_Abbrev":"SC"},
"geometry":{ "type": "Point", "coordinates": [-81.343523,34.952023]}},
{ "type": "Feature", "properties": {"Name":"Sheldon CDP","State":"South Carolina","State_Abbrev":"SC"},
"geometry":{ "type": "Point", "coordinates": [-80.79945,32.595532]}},
{ "type": "Feature", "properties": {"Name":"Shell Point CDP","State":"South Carolina","State_Abbrev":"SC"},
"geometry":{ "type": "Point", "coordinates": [-80.753767,32.37564]}},
{ "type": "Feature", "properties": {"Name":"Shiloh CDP","State":"South Carolina","State_Abbrev":"SC"},
"geometry":{ "type": "Point", "coordinates": [-80.018913,33.948159]}},
{ "type": "Feature", "properties": {"Name":"Silverstreet town","State":"South Carolina","State_Abbrev":"SC"},
"geometry":{ "type": "Point", "coordinates": [-81.714608,34.217712]}},
{ "type": "Feature", "properties": {"Name":"Simpsonville city","State":"South Carolina","State_Abbrev":"SC"},
"geometry":{ "type": "Point", "coordinates": [-82.257523,34.729034]}},
{ "type": "Feature", "properties": {"Name":"Six Mile town","State":"South Carolina","State_Abbrev":"SC"},
"geometry":{ "type": "Point", "coordinates": [-82.811643,34.80933]}},
{ "type": "Feature", "properties": {"Name":"Slater-Marietta CDP","State":"South Carolina","State_Abbrev":"SC"},
"geometry":{ "type": "Point", "coordinates": [-82.49094,35.037489]}},
{ "type": "Feature", "properties": {"Name":"Smoaks town","State":"South Carolina","State_Abbrev":"SC"},
"geometry":{ "type": "Point", "coordinates": [-80.81421,33.089453]}},
{ "type": "Feature", "properties": {"Name":"Smyrna town","State":"South Carolina","State_Abbrev":"SC"},
"geometry":{ "type": "Point", "coordinates": [-81.40942,35.042007]}},
{ "type": "Feature", "properties": {"Name":"Snelling town","State":"South Carolina","State_Abbrev":"SC"},
"geometry":{ "type": "Point", "coordinates": [-81.475028,33.244301]}},
{ "type": "Feature", "properties": {"Name":"Socastee CDP","State":"South Carolina","State_Abbrev":"SC"},
"geometry":{ "type": "Point", "coordinates": [-79.00886,33.687395]}},
{ "type": "Feature", "properties": {"Name":"Society Hill town","State":"South Carolina","State_Abbrev":"SC"},
"geometry":{ "type": "Point", "coordinates": [-79.853535,34.509815]}},
{ "type": "Feature", "properties": {"Name":"South Congaree town","State":"South Carolina","State_Abbrev":"SC"},
"geometry":{ "type": "Point", "coordinates": [-81.13754,33.90948]}},
{ "type": "Feature", "properties": {"Name":"Southern Shops CDP","State":"South Carolina","State_Abbrev":"SC"},
"geometry":{ "type": "Point", "coordinates": [-81.990922,34.982149]}},
{ "type": "Feature", "properties": {"Name":"South Sumter CDP","State":"South Carolina","State_Abbrev":"SC"},
"geometry":{ "type": "Point", "coordinates": [-80.337858,33.885452]}},
{ "type": "Feature", "properties": {"Name":"South Union CDP","State":"South Carolina","State_Abbrev":"SC"},
"geometry":{ "type": "Point", "coordinates": [-83.048967,34.559549]}},
{ "type": "Feature", "properties": {"Name":"Spartanburg city","State":"South Carolina","State_Abbrev":"SC"},
"geometry":{ "type": "Point", "coordinates": [-81.925944,34.945627]}},
{ "type": "Feature", "properties": {"Name":"Springdale CDP","State":"South Carolina","State_Abbrev":"SC"},
"geometry":{ "type": "Point", "coordinates": [-80.776328,34.690418]}},
{ "type": "Feature", "properties": {"Name":"Springdale town","State":"South Carolina","State_Abbrev":"SC"},
"geometry":{ "type": "Point", "coordinates": [-81.112059,33.960007]}},
{ "type": "Feature", "properties": {"Name":"Springfield town","State":"South Carolina","State_Abbrev":"SC"},
"geometry":{ "type": "Point", "coordinates": [-81.279493,33.496737]}},
{ "type": "Feature", "properties": {"Name":"Starr town","State":"South Carolina","State_Abbrev":"SC"},
"geometry":{ "type": "Point", "coordinates": [-82.695327,34.37789]}},
{ "type": "Feature", "properties": {"Name":"Startex CDP","State":"South Carolina","State_Abbrev":"SC"},
"geometry":{ "type": "Point", "coordinates": [-82.094717,34.929355]}},
{ "type": "Feature", "properties": {"Name":"Stateburg CDP","State":"South Carolina","State_Abbrev":"SC"},
"geometry":{ "type": "Point", "coordinates": [-80.52594,33.974866]}},
{ "type": "Feature", "properties": {"Name":"Stuckey town","State":"South Carolina","State_Abbrev":"SC"},
"geometry":{ "type": "Point", "coordinates": [-79.513122,33.73219]}},
{ "type": "Feature", "properties": {"Name":"Sullivan's Island town","State":"South Carolina","State_Abbrev":"SC"},
"geometry":{ "type": "Point", "coordinates": [-79.831136,32.770949]}},
{ "type": "Feature", "properties": {"Name":"Summerton town","State":"South Carolina","State_Abbrev":"SC"},
"geometry":{ "type": "Point", "coordinates": [-80.352648,33.601475]}},
{ "type": "Feature", "properties": {"Name":"Summerville town","State":"South Carolina","State_Abbrev":"SC"},
"geometry":{ "type": "Point", "coordinates": [-80.179306,33.005836]}},
{ "type": "Feature", "properties": {"Name":"Summit town","State":"South Carolina","State_Abbrev":"SC"},
"geometry":{ "type": "Point", "coordinates": [-81.422583,33.924636]}},
{ "type": "Feature", "properties": {"Name":"Sumter city","State":"South Carolina","State_Abbrev":"SC"},
"geometry":{ "type": "Point", "coordinates": [-80.395543,33.940848]}},
{ "type": "Feature", "properties": {"Name":"Surfside Beach town","State":"South Carolina","State_Abbrev":"SC"},
"geometry":{ "type": "Point", "coordinates": [-78.97754,33.609651]}},
{ "type": "Feature", "properties": {"Name":"Swansea town","State":"South Carolina","State_Abbrev":"SC"},
"geometry":{ "type": "Point", "coordinates": [-81.104523,33.740016]}},
{ "type": "Feature", "properties": {"Name":"Sycamore town","State":"South Carolina","State_Abbrev":"SC"},
"geometry":{ "type": "Point", "coordinates": [-81.222535,33.034926]}},
{ "type": "Feature", "properties": {"Name":"Tamassee CDP","State":"South Carolina","State_Abbrev":"SC"},
"geometry":{ "type": "Point", "coordinates": [-83.014034,34.879824]}},
{ "type": "Feature", "properties": {"Name":"Tatum town","State":"South Carolina","State_Abbrev":"SC"},
"geometry":{ "type": "Point", "coordinates": [-79.58671,34.64382]}},
{ "type": "Feature", "properties": {"Name":"Taylors CDP","State":"South Carolina","State_Abbrev":"SC"},
"geometry":{ "type": "Point", "coordinates": [-82.313906,34.914312]}},
{ "type": "Feature", "properties": {"Name":"Tega Cay city","State":"South Carolina","State_Abbrev":"SC"},
"geometry":{ "type": "Point", "coordinates": [-81.01672,35.034576]}},
{ "type": "Feature", "properties": {"Name":"The Cliffs Valley CDP","State":"South Carolina","State_Abbrev":"SC"},
"geometry":{ "type": "Point", "coordinates": [-82.436034,35.13951]}},
{ "type": "Feature", "properties": {"Name":"Tigerville CDP","State":"South Carolina","State_Abbrev":"SC"},
"geometry":{ "type": "Point", "coordinates": [-82.369918,35.065051]}},
{ "type": "Feature", "properties": {"Name":"Timmonsville town","State":"South Carolina","State_Abbrev":"SC"},
"geometry":{ "type": "Point", "coordinates": [-79.940811,34.133427]}},
{ "type": "Feature", "properties": {"Name":"Tradesville CDP","State":"South Carolina","State_Abbrev":"SC"},
"geometry":{ "type": "Point", "coordinates": [-80.55022,34.770941]}},
{ "type": "Feature", "properties": {"Name":"Travelers Rest city","State":"South Carolina","State_Abbrev":"SC"},
"geometry":{ "type": "Point", "coordinates": [-82.444972,34.959971]}},
{ "type": "Feature", "properties": {"Name":"Trenton town","State":"South Carolina","State_Abbrev":"SC"},
"geometry":{ "type": "Point", "coordinates": [-81.840937,33.740557]}},
{ "type": "Feature", "properties": {"Name":"Troy town","State":"South Carolina","State_Abbrev":"SC"},
"geometry":{ "type": "Point", "coordinates": [-82.297895,33.991876]}},
{ "type": "Feature", "properties": {"Name":"Turbeville town","State":"South Carolina","State_Abbrev":"SC"},
"geometry":{ "type": "Point", "coordinates": [-80.01615,33.889544]}},
{ "type": "Feature", "properties": {"Name":"Ulmer town","State":"South Carolina","State_Abbrev":"SC"},
"geometry":{ "type": "Point", "coordinates": [-81.209005,33.102145]}},
{ "type": "Feature", "properties": {"Name":"Union city","State":"South Carolina","State_Abbrev":"SC"},
"geometry":{ "type": "Point", "coordinates": [-81.624816,34.723461]}},
{ "type": "Feature", "properties": {"Name":"Unity CDP","State":"South Carolina","State_Abbrev":"SC"},
"geometry":{ "type": "Point", "coordinates": [-80.691777,34.801557]}},
{ "type": "Feature", "properties": {"Name":"Utica CDP","State":"South Carolina","State_Abbrev":"SC"},
"geometry":{ "type": "Point", "coordinates": [-82.922099,34.675985]}},
{ "type": "Feature", "properties": {"Name":"Valley Falls CDP","State":"South Carolina","State_Abbrev":"SC"},
"geometry":{ "type": "Point", "coordinates": [-81.968913,35.00657]}},
{ "type": "Feature", "properties": {"Name":"Vance town","State":"South Carolina","State_Abbrev":"SC"},
"geometry":{ "type": "Point", "coordinates": [-80.420202,33.436403]}},
{ "type": "Feature", "properties": {"Name":"Van Wyck town","State":"South Carolina","State_Abbrev":"SC"},
"geometry":{ "type": "Point", "coordinates": [-80.829313,34.855638]}},
{ "type": "Feature", "properties": {"Name":"Varnville town","State":"South Carolina","State_Abbrev":"SC"},
"geometry":{ "type": "Point", "coordinates": [-81.080228,32.852032]}},
{ "type": "Feature", "properties": {"Name":"Wade Hampton CDP","State":"South Carolina","State_Abbrev":"SC"},
"geometry":{ "type": "Point", "coordinates": [-82.331715,34.882735]}},
{ "type": "Feature", "properties": {"Name":"Wagener town","State":"South Carolina","State_Abbrev":"SC"},
"geometry":{ "type": "Point", "coordinates": [-81.3626,33.651301]}},
{ "type": "Feature", "properties": {"Name":"Walhalla city","State":"South Carolina","State_Abbrev":"SC"},
"geometry":{ "type": "Point", "coordinates": [-83.055469,34.769515]}},
{ "type": "Feature", "properties": {"Name":"Wallace CDP","State":"South Carolina","State_Abbrev":"SC"},
"geometry":{ "type": "Point", "coordinates": [-79.840328,34.723112]}},
{ "type": "Feature", "properties": {"Name":"Walterboro city","State":"South Carolina","State_Abbrev":"SC"},
"geometry":{ "type": "Point", "coordinates": [-80.675944,32.900928]}},
{ "type": "Feature", "properties": {"Name":"Ward town","State":"South Carolina","State_Abbrev":"SC"},
"geometry":{ "type": "Point", "coordinates": [-81.731334,33.857297]}},
{ "type": "Feature", "properties": {"Name":"Ware Place CDP","State":"South Carolina","State_Abbrev":"SC"},
"geometry":{ "type": "Point", "coordinates": [-82.384822,34.624718]}},
{ "type": "Feature", "properties": {"Name":"Ware Shoals town","State":"South Carolina","State_Abbrev":"SC"},
"geometry":{ "type": "Point", "coordinates": [-82.24327,34.387806]}},
{ "type": "Feature", "properties": {"Name":"Warrenville CDP","State":"South Carolina","State_Abbrev":"SC"},
"geometry":{ "type": "Point", "coordinates": [-81.801689,33.547049]}},
{ "type": "Feature", "properties": {"Name":"Waterloo town","State":"South Carolina","State_Abbrev":"SC"},
"geometry":{ "type": "Point", "coordinates": [-82.057213,34.3562]}},
{ "type": "Feature", "properties": {"Name":"Watts Mills CDP","State":"South Carolina","State_Abbrev":"SC"},
"geometry":{ "type": "Point", "coordinates": [-81.985618,34.516356]}},
{ "type": "Feature", "properties": {"Name":"Wedgefield CDP","State":"South Carolina","State_Abbrev":"SC"},
"geometry":{ "type": "Point", "coordinates": [-80.515874,33.880853]}},
{ "type": "Feature", "properties": {"Name":"Welcome CDP","State":"South Carolina","State_Abbrev":"SC"},
"geometry":{ "type": "Point", "coordinates": [-82.471763,34.814308]}},
{ "type": "Feature", "properties": {"Name":"Wellford city","State":"South Carolina","State_Abbrev":"SC"},
"geometry":{ "type": "Point", "coordinates": [-82.095301,34.957955]}},
{ "type": "Feature", "properties": {"Name":"West Columbia city","State":"South Carolina","State_Abbrev":"SC"},
"geometry":{ "type": "Point", "coordinates": [-81.099354,33.99013]}},
{ "type": "Feature", "properties": {"Name":"Westminster city","State":"South Carolina","State_Abbrev":"SC"},
"geometry":{ "type": "Point", "coordinates": [-83.090658,34.666556]}},
{ "type": "Feature", "properties": {"Name":"West Pelzer town","State":"South Carolina","State_Abbrev":"SC"},
"geometry":{ "type": "Point", "coordinates": [-82.471767,34.64466]}},
{ "type": "Feature", "properties": {"Name":"West Union town","State":"South Carolina","State_Abbrev":"SC"},
"geometry":{ "type": "Point", "coordinates": [-83.044142,34.756041]}},
{ "type": "Feature", "properties": {"Name":"White Knoll CDP","State":"South Carolina","State_Abbrev":"SC"},
"geometry":{ "type": "Point", "coordinates": [-81.238637,33.888025]}},
{ "type": "Feature", "properties": {"Name":"Whitmire town","State":"South Carolina","State_Abbrev":"SC"},
"geometry":{ "type": "Point", "coordinates": [-81.614157,34.504069]}},
{ "type": "Feature", "properties": {"Name":"Whitney CDP","State":"South Carolina","State_Abbrev":"SC"},
"geometry":{ "type": "Point", "coordinates": [-81.92237,34.983624]}},
{ "type": "Feature", "properties": {"Name":"Wilkinson Heights CDP","State":"South Carolina","State_Abbrev":"SC"},
"geometry":{ "type": "Point", "coordinates": [-80.828535,33.491877]}},
{ "type": "Feature", "properties": {"Name":"Williams town","State":"South Carolina","State_Abbrev":"SC"},
"geometry":{ "type": "Point", "coordinates": [-80.842844,33.034143]}},
{ "type": "Feature", "properties": {"Name":"Williamston town","State":"South Carolina","State_Abbrev":"SC"},
"geometry":{ "type": "Point", "coordinates": [-82.478418,34.619506]}},
{ "type": "Feature", "properties": {"Name":"Willington CDP","State":"South Carolina","State_Abbrev":"SC"},
"geometry":{ "type": "Point", "coordinates": [-82.450293,33.965101]}},
{ "type": "Feature", "properties": {"Name":"Williston town","State":"South Carolina","State_Abbrev":"SC"},
"geometry":{ "type": "Point", "coordinates": [-81.421899,33.401663]}},
{ "type": "Feature", "properties": {"Name":"Windsor town","State":"South Carolina","State_Abbrev":"SC"},
"geometry":{ "type": "Point", "coordinates": [-81.513652,33.480937]}},
{ "type": "Feature", "properties": {"Name":"Winnsboro town","State":"South Carolina","State_Abbrev":"SC"},
"geometry":{ "type": "Point", "coordinates": [-81.090778,34.370316]}},
{ "type": "Feature", "properties": {"Name":"Winnsboro Mills CDP","State":"South Carolina","State_Abbrev":"SC"},
"geometry":{ "type": "Point", "coordinates": [-81.070557,34.356227]}},
{ "type": "Feature", "properties": {"Name":"Wisacky CDP","State":"South Carolina","State_Abbrev":"SC"},
"geometry":{ "type": "Point", "coordinates": [-80.191409,34.146577]}},
{ "type": "Feature", "properties": {"Name":"Woodfield CDP","State":"South Carolina","State_Abbrev":"SC"},
"geometry":{ "type": "Point", "coordinates": [-80.930611,34.059194]}},
{ "type": "Feature", "properties": {"Name":"Woodford town","State":"South Carolina","State_Abbrev":"SC"},
"geometry":{ "type": "Point", "coordinates": [-81.111955,33.668703]}},
{ "type": "Feature", "properties": {"Name":"Woodruff city","State":"South Carolina","State_Abbrev":"SC"},
"geometry":{ "type": "Point", "coordinates": [-82.037454,34.745097]}},
{ "type": "Feature", "properties": {"Name":"Wyboo CDP","State":"South Carolina","State_Abbrev":"SC"},
"geometry":{ "type": "Point", "coordinates": [-80.215296,33.565715]}},
{ "type": "Feature", "properties": {"Name":"Yemassee town","State":"South Carolina","State_Abbrev":"SC"},
"geometry":{ "type": "Point", "coordinates": [-80.869472,32.708]}},
{ "type": "Feature", "properties": {"Name":"York city","State":"South Carolina","State_Abbrev":"SC"},
"geometry":{ "type": "Point", "coordinates": [-81.233066,34.998347]}},
{ "type": "Feature", "properties": {"Name":"Zion CDP","State":"South Carolina","State_Abbrev":"SC"},
"geometry":{ "type": "Point", "coordinates": [-79.311711,34.258838]}}]}
