{"type":"FeatureCollection","features":[
{ "type": "Feature", "properties": {"Name":"Aberdeen city","State":"South Dakota","State_Abbrev":"SD"},
"geometry":{ "type": "Point", "coordinates": [-98.468104,45.464678]}},
{ "type": "Feature", "properties": {"Name":"Agar town","State":"South Dakota","State_Abbrev":"SD"},
"geometry":{ "type": "Point", "coordinates": [-100.07345,44.839735]}},
{ "type": "Feature", "properties": {"Name":"Agency Village CDP","State":"South Dakota","State_Abbrev":"SD"},
"geometry":{ "type": "Point", "coordinates": [-97.072037,45.581339]}},
{ "type": "Feature", "properties": {"Name":"Akaska town","State":"South Dakota","State_Abbrev":"SD"},
"geometry":{ "type": "Point", "coordinates": [-100.120861,45.331026]}},
{ "type": "Feature", "properties": {"Name":"Albee town","State":"South Dakota","State_Abbrev":"SD"},
"geometry":{ "type": "Point", "coordinates": [-96.553535,45.051287]}},
{ "type": "Feature", "properties": {"Name":"Alcester city","State":"South Dakota","State_Abbrev":"SD"},
"geometry":{ "type": "Point", "coordinates": [-96.626844,43.027607]}},
{ "type": "Feature", "properties": {"Name":"Alexandria city","State":"South Dakota","State_Abbrev":"SD"},
"geometry":{ "type": "Point", "coordinates": [-97.779917,43.654039]}},
{ "type": "Feature", "properties": {"Name":"Allen CDP","State":"South Dakota","State_Abbrev":"SD"},
"geometry":{ "type": "Point", "coordinates": [-101.92651,43.279136]}},
{ "type": "Feature", "properties": {"Name":"Alpena town","State":"South Dakota","State_Abbrev":"SD"},
"geometry":{ "type": "Point", "coordinates": [-98.368362,44.183378]}},
{ "type": "Feature", "properties": {"Name":"Altamont town","State":"South Dakota","State_Abbrev":"SD"},
"geometry":{ "type": "Point", "coordinates": [-96.690152,44.84078]}},
{ "type": "Feature", "properties": {"Name":"Anderson CDP","State":"South Dakota","State_Abbrev":"SD"},
"geometry":{ "type": "Point", "coordinates": [-96.614197,43.519435]}},
{ "type": "Feature", "properties": {"Name":"Andover town","State":"South Dakota","State_Abbrev":"SD"},
"geometry":{ "type": "Point", "coordinates": [-97.903706,45.410217]}},
{ "type": "Feature", "properties": {"Name":"Angostura CDP","State":"South Dakota","State_Abbrev":"SD"},
"geometry":{ "type": "Point", "coordinates": [-103.390707,43.318924]}},
{ "type": "Feature", "properties": {"Name":"Antelope CDP","State":"South Dakota","State_Abbrev":"SD"},
"geometry":{ "type": "Point", "coordinates": [-100.62992,43.309667]}},
{ "type": "Feature", "properties": {"Name":"Ardmore CDP","State":"South Dakota","State_Abbrev":"SD"},
"geometry":{ "type": "Point", "coordinates": [-103.654266,43.019192]}},
{ "type": "Feature", "properties": {"Name":"Arlington city","State":"South Dakota","State_Abbrev":"SD"},
"geometry":{ "type": "Point", "coordinates": [-97.133822,44.363514]}},
{ "type": "Feature", "properties": {"Name":"Armour city","State":"South Dakota","State_Abbrev":"SD"},
"geometry":{ "type": "Point", "coordinates": [-98.344149,43.319339]}},
{ "type": "Feature", "properties": {"Name":"Artas town","State":"South Dakota","State_Abbrev":"SD"},
"geometry":{ "type": "Point", "coordinates": [-99.806799,45.887226]}},
{ "type": "Feature", "properties": {"Name":"Artesian town","State":"South Dakota","State_Abbrev":"SD"},
"geometry":{ "type": "Point", "coordinates": [-97.923709,44.007895]}},
{ "type": "Feature", "properties": {"Name":"Ashland Heights CDP","State":"South Dakota","State_Abbrev":"SD"},
"geometry":{ "type": "Point", "coordinates": [-103.123712,44.133411]}},
{ "type": "Feature", "properties": {"Name":"Ashton city","State":"South Dakota","State_Abbrev":"SD"},
"geometry":{ "type": "Point", "coordinates": [-98.499111,44.993056]}},
{ "type": "Feature", "properties": {"Name":"Astoria town","State":"South Dakota","State_Abbrev":"SD"},
"geometry":{ "type": "Point", "coordinates": [-96.546499,44.557732]}},
{ "type": "Feature", "properties": {"Name":"Aurora town","State":"South Dakota","State_Abbrev":"SD"},
"geometry":{ "type": "Point", "coordinates": [-96.686805,44.282313]}},
{ "type": "Feature", "properties": {"Name":"Aurora Center CDP","State":"South Dakota","State_Abbrev":"SD"},
"geometry":{ "type": "Point", "coordinates": [-98.589466,43.527155]}},
{ "type": "Feature", "properties": {"Name":"Avon city","State":"South Dakota","State_Abbrev":"SD"},
"geometry":{ "type": "Point", "coordinates": [-98.059262,43.005203]}},
{ "type": "Feature", "properties": {"Name":"Badger town","State":"South Dakota","State_Abbrev":"SD"},
"geometry":{ "type": "Point", "coordinates": [-97.207868,44.485502]}},
{ "type": "Feature", "properties": {"Name":"Baltic city","State":"South Dakota","State_Abbrev":"SD"},
"geometry":{ "type": "Point", "coordinates": [-96.736898,43.760051]}},
{ "type": "Feature", "properties": {"Name":"Bancroft town","State":"South Dakota","State_Abbrev":"SD"},
"geometry":{ "type": "Point", "coordinates": [-97.750501,44.489368]}},
{ "type": "Feature", "properties": {"Name":"Batesland town","State":"South Dakota","State_Abbrev":"SD"},
"geometry":{ "type": "Point", "coordinates": [-102.101851,43.127142]}},
{ "type": "Feature", "properties": {"Name":"Bath CDP","State":"South Dakota","State_Abbrev":"SD"},
"geometry":{ "type": "Point", "coordinates": [-98.323562,45.469158]}},
{ "type": "Feature", "properties": {"Name":"Bath Corner CDP","State":"South Dakota","State_Abbrev":"SD"},
"geometry":{ "type": "Point", "coordinates": [-98.332896,45.462689]}},
{ "type": "Feature", "properties": {"Name":"Belle Fourche city","State":"South Dakota","State_Abbrev":"SD"},
"geometry":{ "type": "Point", "coordinates": [-103.859143,44.663798]}},
{ "type": "Feature", "properties": {"Name":"Belvidere town","State":"South Dakota","State_Abbrev":"SD"},
"geometry":{ "type": "Point", "coordinates": [-101.271118,43.832224]}},
{ "type": "Feature", "properties": {"Name":"Beresford city","State":"South Dakota","State_Abbrev":"SD"},
"geometry":{ "type": "Point", "coordinates": [-96.780224,43.079646]}},
{ "type": "Feature", "properties": {"Name":"Big Stone City city","State":"South Dakota","State_Abbrev":"SD"},
"geometry":{ "type": "Point", "coordinates": [-96.472606,45.308728]}},
{ "type": "Feature", "properties": {"Name":"Bijou Hills CDP","State":"South Dakota","State_Abbrev":"SD"},
"geometry":{ "type": "Point", "coordinates": [-99.143858,43.528479]}},
{ "type": "Feature", "properties": {"Name":"Bison town","State":"South Dakota","State_Abbrev":"SD"},
"geometry":{ "type": "Point", "coordinates": [-102.467716,45.52355]}},
{ "type": "Feature", "properties": {"Name":"Blackhawk CDP","State":"South Dakota","State_Abbrev":"SD"},
"geometry":{ "type": "Point", "coordinates": [-103.334003,44.15138]}},
{ "type": "Feature", "properties": {"Name":"Blucksberg Mountain CDP","State":"South Dakota","State_Abbrev":"SD"},
"geometry":{ "type": "Point", "coordinates": [-103.453787,44.359344]}},
{ "type": "Feature", "properties": {"Name":"Blumengard Colony CDP","State":"South Dakota","State_Abbrev":"SD"},
"geometry":{ "type": "Point", "coordinates": [-99.169977,45.241538]}},
{ "type": "Feature", "properties": {"Name":"Blunt city","State":"South Dakota","State_Abbrev":"SD"},
"geometry":{ "type": "Point", "coordinates": [-99.988556,44.51594]}},
{ "type": "Feature", "properties": {"Name":"Bonesteel city","State":"South Dakota","State_Abbrev":"SD"},
"geometry":{ "type": "Point", "coordinates": [-98.946762,43.077503]}},
{ "type": "Feature", "properties": {"Name":"Bon Homme Colony CDP","State":"South Dakota","State_Abbrev":"SD"},
"geometry":{ "type": "Point", "coordinates": [-97.705191,42.864698]}},
{ "type": "Feature", "properties": {"Name":"Boulder Canyon CDP","State":"South Dakota","State_Abbrev":"SD"},
"geometry":{ "type": "Point", "coordinates": [-103.604611,44.397099]}},
{ "type": "Feature", "properties": {"Name":"Bowdle city","State":"South Dakota","State_Abbrev":"SD"},
"geometry":{ "type": "Point", "coordinates": [-99.656501,45.451258]}},
{ "type": "Feature", "properties": {"Name":"Box Elder city","State":"South Dakota","State_Abbrev":"SD"},
"geometry":{ "type": "Point", "coordinates": [-103.081066,44.11094]}},
{ "type": "Feature", "properties": {"Name":"Bradley town","State":"South Dakota","State_Abbrev":"SD"},
"geometry":{ "type": "Point", "coordinates": [-97.641945,45.090408]}},
{ "type": "Feature", "properties": {"Name":"Brandon city","State":"South Dakota","State_Abbrev":"SD"},
"geometry":{ "type": "Point", "coordinates": [-96.583769,43.592908]}},
{ "type": "Feature", "properties": {"Name":"Brandt town","State":"South Dakota","State_Abbrev":"SD"},
"geometry":{ "type": "Point", "coordinates": [-96.625156,44.666933]}},
{ "type": "Feature", "properties": {"Name":"Brant Lake city","State":"South Dakota","State_Abbrev":"SD"},
"geometry":{ "type": "Point", "coordinates": [-96.943534,43.930827]}},
{ "type": "Feature", "properties": {"Name":"Brant Lake South CDP","State":"South Dakota","State_Abbrev":"SD"},
"geometry":{ "type": "Point", "coordinates": [-96.940771,43.91086]}},
{ "type": "Feature", "properties": {"Name":"Brentford town","State":"South Dakota","State_Abbrev":"SD"},
"geometry":{ "type": "Point", "coordinates": [-98.322555,45.159204]}},
{ "type": "Feature", "properties": {"Name":"Brentwood Colony CDP","State":"South Dakota","State_Abbrev":"SD"},
"geometry":{ "type": "Point", "coordinates": [-99.302168,45.154795]}},
{ "type": "Feature", "properties": {"Name":"Bridger CDP","State":"South Dakota","State_Abbrev":"SD"},
"geometry":{ "type": "Point", "coordinates": [-101.913642,44.542142]}},
{ "type": "Feature", "properties": {"Name":"Bridgewater city","State":"South Dakota","State_Abbrev":"SD"},
"geometry":{ "type": "Point", "coordinates": [-97.498384,43.55021]}},
{ "type": "Feature", "properties": {"Name":"Bristol city","State":"South Dakota","State_Abbrev":"SD"},
"geometry":{ "type": "Point", "coordinates": [-97.744959,45.343778]}},
{ "type": "Feature", "properties": {"Name":"Britton city","State":"South Dakota","State_Abbrev":"SD"},
"geometry":{ "type": "Point", "coordinates": [-97.75289,45.792371]}},
{ "type": "Feature", "properties": {"Name":"Broadland town","State":"South Dakota","State_Abbrev":"SD"},
"geometry":{ "type": "Point", "coordinates": [-98.346556,44.493825]}},
{ "type": "Feature", "properties": {"Name":"Brookings city","State":"South Dakota","State_Abbrev":"SD"},
"geometry":{ "type": "Point", "coordinates": [-96.786483,44.302325]}},
{ "type": "Feature", "properties": {"Name":"Bruce city","State":"South Dakota","State_Abbrev":"SD"},
"geometry":{ "type": "Point", "coordinates": [-96.890642,44.437787]}},
{ "type": "Feature", "properties": {"Name":"Bryant city","State":"South Dakota","State_Abbrev":"SD"},
"geometry":{ "type": "Point", "coordinates": [-97.467281,44.589903]}},
{ "type": "Feature", "properties": {"Name":"Buffalo town","State":"South Dakota","State_Abbrev":"SD"},
"geometry":{ "type": "Point", "coordinates": [-103.54345,45.586374]}},
{ "type": "Feature", "properties": {"Name":"Buffalo Chip town","State":"South Dakota","State_Abbrev":"SD"},
"geometry":{ "type": "Point", "coordinates": [-103.405873,44.416588]}},
{ "type": "Feature", "properties": {"Name":"Buffalo Gap town","State":"South Dakota","State_Abbrev":"SD"},
"geometry":{ "type": "Point", "coordinates": [-103.315291,43.492163]}},
{ "type": "Feature", "properties": {"Name":"Bullhead CDP","State":"South Dakota","State_Abbrev":"SD"},
"geometry":{ "type": "Point", "coordinates": [-101.081389,45.772788]}},
{ "type": "Feature", "properties": {"Name":"Burbank CDP","State":"South Dakota","State_Abbrev":"SD"},
"geometry":{ "type": "Point", "coordinates": [-96.832718,42.74608]}},
{ "type": "Feature", "properties": {"Name":"Burke city","State":"South Dakota","State_Abbrev":"SD"},
"geometry":{ "type": "Point", "coordinates": [-99.292304,43.182821]}},
{ "type": "Feature", "properties": {"Name":"Bushnell town","State":"South Dakota","State_Abbrev":"SD"},
"geometry":{ "type": "Point", "coordinates": [-96.642373,44.327416]}},
{ "type": "Feature", "properties": {"Name":"Butler town","State":"South Dakota","State_Abbrev":"SD"},
"geometry":{ "type": "Point", "coordinates": [-97.71161,45.261992]}},
{ "type": "Feature", "properties": {"Name":"Cameron Colony CDP","State":"South Dakota","State_Abbrev":"SD"},
"geometry":{ "type": "Point", "coordinates": [-97.262696,43.187805]}},
{ "type": "Feature", "properties": {"Name":"Camp Crook town","State":"South Dakota","State_Abbrev":"SD"},
"geometry":{ "type": "Point", "coordinates": [-103.974931,45.550073]}},
{ "type": "Feature", "properties": {"Name":"Camrose Colony CDP","State":"South Dakota","State_Abbrev":"SD"},
"geometry":{ "type": "Point", "coordinates": [-98.220169,44.934285]}},
{ "type": "Feature", "properties": {"Name":"Canistota city","State":"South Dakota","State_Abbrev":"SD"},
"geometry":{ "type": "Point", "coordinates": [-97.292582,43.597757]}},
{ "type": "Feature", "properties": {"Name":"Canova town","State":"South Dakota","State_Abbrev":"SD"},
"geometry":{ "type": "Point", "coordinates": [-97.503958,43.881257]}},
{ "type": "Feature", "properties": {"Name":"Canton city","State":"South Dakota","State_Abbrev":"SD"},
"geometry":{ "type": "Point", "coordinates": [-96.585577,43.30313]}},
{ "type": "Feature", "properties": {"Name":"Caputa CDP","State":"South Dakota","State_Abbrev":"SD"},
"geometry":{ "type": "Point", "coordinates": [-102.984619,43.996035]}},
{ "type": "Feature", "properties": {"Name":"Carthage city","State":"South Dakota","State_Abbrev":"SD"},
"geometry":{ "type": "Point", "coordinates": [-97.72028,44.1648]}},
{ "type": "Feature", "properties": {"Name":"Castlewood city","State":"South Dakota","State_Abbrev":"SD"},
"geometry":{ "type": "Point", "coordinates": [-97.03092,44.724158]}},
{ "type": "Feature", "properties": {"Name":"Cavour town","State":"South Dakota","State_Abbrev":"SD"},
"geometry":{ "type": "Point", "coordinates": [-98.042096,44.369329]}},
{ "type": "Feature", "properties": {"Name":"Cedar Grove Colony CDP","State":"South Dakota","State_Abbrev":"SD"},
"geometry":{ "type": "Point", "coordinates": [-98.806421,43.531623]}},
{ "type": "Feature", "properties": {"Name":"Centerville city","State":"South Dakota","State_Abbrev":"SD"},
"geometry":{ "type": "Point", "coordinates": [-96.959477,43.116535]}},
{ "type": "Feature", "properties": {"Name":"Central City city","State":"South Dakota","State_Abbrev":"SD"},
"geometry":{ "type": "Point", "coordinates": [-103.770511,44.368578]}},
{ "type": "Feature", "properties": {"Name":"Chamberlain city","State":"South Dakota","State_Abbrev":"SD"},
"geometry":{ "type": "Point", "coordinates": [-99.329584,43.798663]}},
{ "type": "Feature", "properties": {"Name":"Chancellor town","State":"South Dakota","State_Abbrev":"SD"},
"geometry":{ "type": "Point", "coordinates": [-96.987274,43.37184]}},
{ "type": "Feature", "properties": {"Name":"Chelsea town","State":"South Dakota","State_Abbrev":"SD"},
"geometry":{ "type": "Point", "coordinates": [-98.743376,45.167557]}},
{ "type": "Feature", "properties": {"Name":"Cherry Creek CDP","State":"South Dakota","State_Abbrev":"SD"},
"geometry":{ "type": "Point", "coordinates": [-101.499298,44.604741]}},
{ "type": "Feature", "properties": {"Name":"Chester CDP","State":"South Dakota","State_Abbrev":"SD"},
"geometry":{ "type": "Point", "coordinates": [-96.927819,43.899587]}},
{ "type": "Feature", "properties": {"Name":"Claire City town","State":"South Dakota","State_Abbrev":"SD"},
"geometry":{ "type": "Point", "coordinates": [-97.103531,45.856619]}},
{ "type": "Feature", "properties": {"Name":"Claremont town","State":"South Dakota","State_Abbrev":"SD"},
"geometry":{ "type": "Point", "coordinates": [-98.015617,45.671419]}},
{ "type": "Feature", "properties": {"Name":"Claremont Colony CDP","State":"South Dakota","State_Abbrev":"SD"},
"geometry":{ "type": "Point", "coordinates": [-96.951236,44.712909]}},
{ "type": "Feature", "properties": {"Name":"Clark city","State":"South Dakota","State_Abbrev":"SD"},
"geometry":{ "type": "Point", "coordinates": [-97.734839,44.880911]}},
{ "type": "Feature", "properties": {"Name":"Clark Colony CDP","State":"South Dakota","State_Abbrev":"SD"},
"geometry":{ "type": "Point", "coordinates": [-97.981454,44.791361]}},
{ "type": "Feature", "properties": {"Name":"Clearfield Colony CDP","State":"South Dakota","State_Abbrev":"SD"},
"geometry":{ "type": "Point", "coordinates": [-98.142073,43.143876]}},
{ "type": "Feature", "properties": {"Name":"Clear Lake city","State":"South Dakota","State_Abbrev":"SD"},
"geometry":{ "type": "Point", "coordinates": [-96.690239,44.75629]}},
{ "type": "Feature", "properties": {"Name":"Clear Lake CDP","State":"South Dakota","State_Abbrev":"SD"},
"geometry":{ "type": "Point", "coordinates": [-97.355801,45.70436]}},
{ "type": "Feature", "properties": {"Name":"Cloverleaf Colony CDP","State":"South Dakota","State_Abbrev":"SD"},
"geometry":{ "type": "Point", "coordinates": [-97.538334,44.183904]}},
{ "type": "Feature", "properties": {"Name":"Collins Colony CDP","State":"South Dakota","State_Abbrev":"SD"},
"geometry":{ "type": "Point", "coordinates": [-97.701267,44.547767]}},
{ "type": "Feature", "properties": {"Name":"Colman city","State":"South Dakota","State_Abbrev":"SD"},
"geometry":{ "type": "Point", "coordinates": [-96.814745,43.983473]}},
{ "type": "Feature", "properties": {"Name":"Colome city","State":"South Dakota","State_Abbrev":"SD"},
"geometry":{ "type": "Point", "coordinates": [-99.717268,43.259904]}},
{ "type": "Feature", "properties": {"Name":"Colonial Pine Hills CDP","State":"South Dakota","State_Abbrev":"SD"},
"geometry":{ "type": "Point", "coordinates": [-103.314912,44.013742]}},
{ "type": "Feature", "properties": {"Name":"Colton city","State":"South Dakota","State_Abbrev":"SD"},
"geometry":{ "type": "Point", "coordinates": [-96.928552,43.787501]}},
{ "type": "Feature", "properties": {"Name":"Columbia city","State":"South Dakota","State_Abbrev":"SD"},
"geometry":{ "type": "Point", "coordinates": [-98.31064,45.614824]}},
{ "type": "Feature", "properties": {"Name":"Conde city","State":"South Dakota","State_Abbrev":"SD"},
"geometry":{ "type": "Point", "coordinates": [-98.095456,45.157301]}},
{ "type": "Feature", "properties": {"Name":"Corn Creek CDP","State":"South Dakota","State_Abbrev":"SD"},
"geometry":{ "type": "Point", "coordinates": [-101.208522,43.575749]}},
{ "type": "Feature", "properties": {"Name":"Corona town","State":"South Dakota","State_Abbrev":"SD"},
"geometry":{ "type": "Point", "coordinates": [-96.764581,45.335225]}},
{ "type": "Feature", "properties": {"Name":"Corsica city","State":"South Dakota","State_Abbrev":"SD"},
"geometry":{ "type": "Point", "coordinates": [-98.40745,43.422183]}},
{ "type": "Feature", "properties": {"Name":"Cottonwood town","State":"South Dakota","State_Abbrev":"SD"},
"geometry":{ "type": "Point", "coordinates": [-101.904083,43.970396]}},
{ "type": "Feature", "properties": {"Name":"Cow Creek CDP","State":"South Dakota","State_Abbrev":"SD"},
"geometry":{ "type": "Point", "coordinates": [-100.467967,44.549327]}},
{ "type": "Feature", "properties": {"Name":"Cresbard town","State":"South Dakota","State_Abbrev":"SD"},
"geometry":{ "type": "Point", "coordinates": [-98.947658,45.16941]}},
{ "type": "Feature", "properties": {"Name":"Crocker CDP","State":"South Dakota","State_Abbrev":"SD"},
"geometry":{ "type": "Point", "coordinates": [-97.770814,45.114064]}},
{ "type": "Feature", "properties": {"Name":"Crook City CDP","State":"South Dakota","State_Abbrev":"SD"},
"geometry":{ "type": "Point", "coordinates": [-103.643409,44.438089]}},
{ "type": "Feature", "properties": {"Name":"Crooks city","State":"South Dakota","State_Abbrev":"SD"},
"geometry":{ "type": "Point", "coordinates": [-96.809579,43.659253]}},
{ "type": "Feature", "properties": {"Name":"Custer city","State":"South Dakota","State_Abbrev":"SD"},
"geometry":{ "type": "Point", "coordinates": [-103.601102,43.766979]}},
{ "type": "Feature", "properties": {"Name":"Dakota Dunes CDP","State":"South Dakota","State_Abbrev":"SD"},
"geometry":{ "type": "Point", "coordinates": [-96.483992,42.490311]}},
{ "type": "Feature", "properties": {"Name":"Dallas town","State":"South Dakota","State_Abbrev":"SD"},
"geometry":{ "type": "Point", "coordinates": [-99.517511,43.237834]}},
{ "type": "Feature", "properties": {"Name":"Dante town","State":"South Dakota","State_Abbrev":"SD"},
"geometry":{ "type": "Point", "coordinates": [-98.185552,43.039897]}},
{ "type": "Feature", "properties": {"Name":"Davis town","State":"South Dakota","State_Abbrev":"SD"},
"geometry":{ "type": "Point", "coordinates": [-96.994506,43.259528]}},
{ "type": "Feature", "properties": {"Name":"Deadwood city","State":"South Dakota","State_Abbrev":"SD"},
"geometry":{ "type": "Point", "coordinates": [-103.720742,44.387048]}},
{ "type": "Feature", "properties": {"Name":"Deerfield Colony CDP","State":"South Dakota","State_Abbrev":"SD"},
"geometry":{ "type": "Point", "coordinates": [-98.899548,45.587368]}},
{ "type": "Feature", "properties": {"Name":"Dell Rapids city","State":"South Dakota","State_Abbrev":"SD"},
"geometry":{ "type": "Point", "coordinates": [-96.71459,43.824824]}},
{ "type": "Feature", "properties": {"Name":"Delmont city","State":"South Dakota","State_Abbrev":"SD"},
"geometry":{ "type": "Point", "coordinates": [-98.159153,43.266638]}},
{ "type": "Feature", "properties": {"Name":"De Smet city","State":"South Dakota","State_Abbrev":"SD"},
"geometry":{ "type": "Point", "coordinates": [-97.549688,44.386148]}},
{ "type": "Feature", "properties": {"Name":"Dimock town","State":"South Dakota","State_Abbrev":"SD"},
"geometry":{ "type": "Point", "coordinates": [-97.987137,43.477376]}},
{ "type": "Feature", "properties": {"Name":"Doland city","State":"South Dakota","State_Abbrev":"SD"},
"geometry":{ "type": "Point", "coordinates": [-98.099854,44.894491]}},
{ "type": "Feature", "properties": {"Name":"Dolton town","State":"South Dakota","State_Abbrev":"SD"},
"geometry":{ "type": "Point", "coordinates": [-97.384798,43.491093]}},
{ "type": "Feature", "properties": {"Name":"Draper town","State":"South Dakota","State_Abbrev":"SD"},
"geometry":{ "type": "Point", "coordinates": [-100.53718,43.926161]}},
{ "type": "Feature", "properties": {"Name":"Dudley CDP","State":"South Dakota","State_Abbrev":"SD"},
"geometry":{ "type": "Point", "coordinates": [-103.819218,43.308156]}},
{ "type": "Feature", "properties": {"Name":"Dupree city","State":"South Dakota","State_Abbrev":"SD"},
"geometry":{ "type": "Point", "coordinates": [-101.601316,45.049479]}},
{ "type": "Feature", "properties": {"Name":"Eagle Butte city","State":"South Dakota","State_Abbrev":"SD"},
"geometry":{ "type": "Point", "coordinates": [-101.231758,44.994388]}},
{ "type": "Feature", "properties": {"Name":"Eden town","State":"South Dakota","State_Abbrev":"SD"},
"geometry":{ "type": "Point", "coordinates": [-97.419712,45.616766]}},
{ "type": "Feature", "properties": {"Name":"Edgemont city","State":"South Dakota","State_Abbrev":"SD"},
"geometry":{ "type": "Point", "coordinates": [-103.832336,43.297362]}},
{ "type": "Feature", "properties": {"Name":"Egan city","State":"South Dakota","State_Abbrev":"SD"},
"geometry":{ "type": "Point", "coordinates": [-96.648538,44.000333]}},
{ "type": "Feature", "properties": {"Name":"Elk Point city","State":"South Dakota","State_Abbrev":"SD"},
"geometry":{ "type": "Point", "coordinates": [-96.68048,42.681224]}},
{ "type": "Feature", "properties": {"Name":"Elkton city","State":"South Dakota","State_Abbrev":"SD"},
"geometry":{ "type": "Point", "coordinates": [-96.479409,44.235074]}},
{ "type": "Feature", "properties": {"Name":"Emery city","State":"South Dakota","State_Abbrev":"SD"},
"geometry":{ "type": "Point", "coordinates": [-97.619494,43.602]}},
{ "type": "Feature", "properties": {"Name":"Enemy Swim CDP","State":"South Dakota","State_Abbrev":"SD"},
"geometry":{ "type": "Point", "coordinates": [-97.286856,45.429367]}},
{ "type": "Feature", "properties": {"Name":"Erwin town","State":"South Dakota","State_Abbrev":"SD"},
"geometry":{ "type": "Point", "coordinates": [-97.440858,44.488024]}},
{ "type": "Feature", "properties": {"Name":"Estelline city","State":"South Dakota","State_Abbrev":"SD"},
"geometry":{ "type": "Point", "coordinates": [-96.901082,44.576766]}},
{ "type": "Feature", "properties": {"Name":"Ethan town","State":"South Dakota","State_Abbrev":"SD"},
"geometry":{ "type": "Point", "coordinates": [-97.983399,43.546305]}},
{ "type": "Feature", "properties": {"Name":"Eureka city","State":"South Dakota","State_Abbrev":"SD"},
"geometry":{ "type": "Point", "coordinates": [-99.620686,45.771153]}},
{ "type": "Feature", "properties": {"Name":"Evergreen Colony CDP","State":"South Dakota","State_Abbrev":"SD"},
"geometry":{ "type": "Point", "coordinates": [-99.042528,45.12171]}},
{ "type": "Feature", "properties": {"Name":"Fairburn town","State":"South Dakota","State_Abbrev":"SD"},
"geometry":{ "type": "Point", "coordinates": [-103.208692,43.686941]}},
{ "type": "Feature", "properties": {"Name":"Fairfax town","State":"South Dakota","State_Abbrev":"SD"},
"geometry":{ "type": "Point", "coordinates": [-98.888945,43.028049]}},
{ "type": "Feature", "properties": {"Name":"Fairview town","State":"South Dakota","State_Abbrev":"SD"},
"geometry":{ "type": "Point", "coordinates": [-96.487402,43.222028]}},
{ "type": "Feature", "properties": {"Name":"Faith city","State":"South Dakota","State_Abbrev":"SD"},
"geometry":{ "type": "Point", "coordinates": [-102.036343,45.025776]}},
{ "type": "Feature", "properties": {"Name":"Farmer town","State":"South Dakota","State_Abbrev":"SD"},
"geometry":{ "type": "Point", "coordinates": [-97.68905,43.725301]}},
{ "type": "Feature", "properties": {"Name":"Faulkton city","State":"South Dakota","State_Abbrev":"SD"},
"geometry":{ "type": "Point", "coordinates": [-99.126732,45.034155]}},
{ "type": "Feature", "properties": {"Name":"Fedora CDP","State":"South Dakota","State_Abbrev":"SD"},
"geometry":{ "type": "Point", "coordinates": [-97.789562,44.006667]}},
{ "type": "Feature", "properties": {"Name":"Ferney CDP","State":"South Dakota","State_Abbrev":"SD"},
"geometry":{ "type": "Point", "coordinates": [-98.093868,45.334553]}},
{ "type": "Feature", "properties": {"Name":"Flandreau city","State":"South Dakota","State_Abbrev":"SD"},
"geometry":{ "type": "Point", "coordinates": [-96.601772,44.045458]}},
{ "type": "Feature", "properties": {"Name":"Florence town","State":"South Dakota","State_Abbrev":"SD"},
"geometry":{ "type": "Point", "coordinates": [-97.326313,45.054789]}},
{ "type": "Feature", "properties": {"Name":"Fordham Colony CDP","State":"South Dakota","State_Abbrev":"SD"},
"geometry":{ "type": "Point", "coordinates": [-97.906933,44.767701]}},
{ "type": "Feature", "properties": {"Name":"Forestburg CDP","State":"South Dakota","State_Abbrev":"SD"},
"geometry":{ "type": "Point", "coordinates": [-98.103233,44.021201]}},
{ "type": "Feature", "properties": {"Name":"Fort Pierre city","State":"South Dakota","State_Abbrev":"SD"},
"geometry":{ "type": "Point", "coordinates": [-100.382329,44.366596]}},
{ "type": "Feature", "properties": {"Name":"Fort Thompson CDP","State":"South Dakota","State_Abbrev":"SD"},
"geometry":{ "type": "Point", "coordinates": [-99.404829,44.054922]}},
{ "type": "Feature", "properties": {"Name":"Frankfort city","State":"South Dakota","State_Abbrev":"SD"},
"geometry":{ "type": "Point", "coordinates": [-98.309239,44.877664]}},
{ "type": "Feature", "properties": {"Name":"Frederick town","State":"South Dakota","State_Abbrev":"SD"},
"geometry":{ "type": "Point", "coordinates": [-98.506703,45.831883]}},
{ "type": "Feature", "properties": {"Name":"Freeman city","State":"South Dakota","State_Abbrev":"SD"},
"geometry":{ "type": "Point", "coordinates": [-97.430791,43.347525]}},
{ "type": "Feature", "properties": {"Name":"Fruitdale town","State":"South Dakota","State_Abbrev":"SD"},
"geometry":{ "type": "Point", "coordinates": [-103.69547,44.669209]}},
{ "type": "Feature", "properties": {"Name":"Fulton town","State":"South Dakota","State_Abbrev":"SD"},
"geometry":{ "type": "Point", "coordinates": [-97.822628,43.72883]}},
{ "type": "Feature", "properties": {"Name":"Gann Valley CDP","State":"South Dakota","State_Abbrev":"SD"},
"geometry":{ "type": "Point", "coordinates": [-98.988421,44.033506]}},
{ "type": "Feature", "properties": {"Name":"Garden City town","State":"South Dakota","State_Abbrev":"SD"},
"geometry":{ "type": "Point", "coordinates": [-97.580412,44.959263]}},
{ "type": "Feature", "properties": {"Name":"Garretson city","State":"South Dakota","State_Abbrev":"SD"},
"geometry":{ "type": "Point", "coordinates": [-96.503307,43.714831]}},
{ "type": "Feature", "properties": {"Name":"Gary city","State":"South Dakota","State_Abbrev":"SD"},
"geometry":{ "type": "Point", "coordinates": [-96.457419,44.794102]}},
{ "type": "Feature", "properties": {"Name":"Gayville town","State":"South Dakota","State_Abbrev":"SD"},
"geometry":{ "type": "Point", "coordinates": [-97.173726,42.888933]}},
{ "type": "Feature", "properties": {"Name":"Geddes city","State":"South Dakota","State_Abbrev":"SD"},
"geometry":{ "type": "Point", "coordinates": [-98.697373,43.254045]}},
{ "type": "Feature", "properties": {"Name":"Gettysburg city","State":"South Dakota","State_Abbrev":"SD"},
"geometry":{ "type": "Point", "coordinates": [-99.953904,45.005982]}},
{ "type": "Feature", "properties": {"Name":"Glendale Colony CDP","State":"South Dakota","State_Abbrev":"SD"},
"geometry":{ "type": "Point", "coordinates": [-98.286852,44.797979]}},
{ "type": "Feature", "properties": {"Name":"Glenham town","State":"South Dakota","State_Abbrev":"SD"},
"geometry":{ "type": "Point", "coordinates": [-100.271118,45.532994]}},
{ "type": "Feature", "properties": {"Name":"Golden View Colony CDP","State":"South Dakota","State_Abbrev":"SD"},
"geometry":{ "type": "Point", "coordinates": [-97.443644,43.695418]}},
{ "type": "Feature", "properties": {"Name":"Goodwin town","State":"South Dakota","State_Abbrev":"SD"},
"geometry":{ "type": "Point", "coordinates": [-96.849701,44.877514]}},
{ "type": "Feature", "properties": {"Name":"Graceville Colony CDP","State":"South Dakota","State_Abbrev":"SD"},
"geometry":{ "type": "Point", "coordinates": [-97.284002,43.92886]}},
{ "type": "Feature", "properties": {"Name":"Grassland Colony CDP","State":"South Dakota","State_Abbrev":"SD"},
"geometry":{ "type": "Point", "coordinates": [-98.796458,45.668242]}},
{ "type": "Feature", "properties": {"Name":"Grass Ranch Colony CDP","State":"South Dakota","State_Abbrev":"SD"},
"geometry":{ "type": "Point", "coordinates": [-98.883619,43.650011]}},
{ "type": "Feature", "properties": {"Name":"Green Grass CDP","State":"South Dakota","State_Abbrev":"SD"},
"geometry":{ "type": "Point", "coordinates": [-101.286973,45.156622]}},
{ "type": "Feature", "properties": {"Name":"Green Valley CDP","State":"South Dakota","State_Abbrev":"SD"},
"geometry":{ "type": "Point", "coordinates": [-103.111585,44.038969]}},
{ "type": "Feature", "properties": {"Name":"Greenwood Colony CDP","State":"South Dakota","State_Abbrev":"SD"},
"geometry":{ "type": "Point", "coordinates": [-98.153624,43.214478]}},
{ "type": "Feature", "properties": {"Name":"Gregory city","State":"South Dakota","State_Abbrev":"SD"},
"geometry":{ "type": "Point", "coordinates": [-99.420863,43.229989]}},
{ "type": "Feature", "properties": {"Name":"Grenville town","State":"South Dakota","State_Abbrev":"SD"},
"geometry":{ "type": "Point", "coordinates": [-97.390231,45.466992]}},
{ "type": "Feature", "properties": {"Name":"Groton city","State":"South Dakota","State_Abbrev":"SD"},
"geometry":{ "type": "Point", "coordinates": [-98.100076,45.451677]}},
{ "type": "Feature", "properties": {"Name":"Hamill CDP","State":"South Dakota","State_Abbrev":"SD"},
"geometry":{ "type": "Point", "coordinates": [-99.693197,43.594048]}},
{ "type": "Feature", "properties": {"Name":"Harrisburg city","State":"South Dakota","State_Abbrev":"SD"},
"geometry":{ "type": "Point", "coordinates": [-96.712387,43.434456]}},
{ "type": "Feature", "properties": {"Name":"Harrison CDP","State":"South Dakota","State_Abbrev":"SD"},
"geometry":{ "type": "Point", "coordinates": [-98.526711,43.431129]}},
{ "type": "Feature", "properties": {"Name":"Harrold town","State":"South Dakota","State_Abbrev":"SD"},
"geometry":{ "type": "Point", "coordinates": [-99.741644,44.525781]}},
{ "type": "Feature", "properties": {"Name":"Hartford city","State":"South Dakota","State_Abbrev":"SD"},
"geometry":{ "type": "Point", "coordinates": [-96.936994,43.61954]}},
{ "type": "Feature", "properties": {"Name":"Hayti town","State":"South Dakota","State_Abbrev":"SD"},
"geometry":{ "type": "Point", "coordinates": [-97.20473,44.658356]}},
{ "type": "Feature", "properties": {"Name":"Hazel town","State":"South Dakota","State_Abbrev":"SD"},
"geometry":{ "type": "Point", "coordinates": [-97.380991,44.758225]}},
{ "type": "Feature", "properties": {"Name":"Hecla city","State":"South Dakota","State_Abbrev":"SD"},
"geometry":{ "type": "Point", "coordinates": [-98.1519,45.882139]}},
{ "type": "Feature", "properties": {"Name":"Henry town","State":"South Dakota","State_Abbrev":"SD"},
"geometry":{ "type": "Point", "coordinates": [-97.461557,44.880856]}},
{ "type": "Feature", "properties": {"Name":"Hermosa town","State":"South Dakota","State_Abbrev":"SD"},
"geometry":{ "type": "Point", "coordinates": [-103.192958,43.839691]}},
{ "type": "Feature", "properties": {"Name":"Herreid city","State":"South Dakota","State_Abbrev":"SD"},
"geometry":{ "type": "Point", "coordinates": [-100.074684,45.837808]}},
{ "type": "Feature", "properties": {"Name":"Herrick town","State":"South Dakota","State_Abbrev":"SD"},
"geometry":{ "type": "Point", "coordinates": [-99.188214,43.115017]}},
{ "type": "Feature", "properties": {"Name":"Hetland town","State":"South Dakota","State_Abbrev":"SD"},
"geometry":{ "type": "Point", "coordinates": [-97.23467,44.377229]}},
{ "type": "Feature", "properties": {"Name":"Highmore city","State":"South Dakota","State_Abbrev":"SD"},
"geometry":{ "type": "Point", "coordinates": [-99.439332,44.52137]}},
{ "type": "Feature", "properties": {"Name":"Hill City city","State":"South Dakota","State_Abbrev":"SD"},
"geometry":{ "type": "Point", "coordinates": [-103.568736,43.931815]}},
{ "type": "Feature", "properties": {"Name":"Hillcrest Colony CDP","State":"South Dakota","State_Abbrev":"SD"},
"geometry":{ "type": "Point", "coordinates": [-97.667189,44.942469]}},
{ "type": "Feature", "properties": {"Name":"Hillside Colony CDP","State":"South Dakota","State_Abbrev":"SD"},
"geometry":{ "type": "Point", "coordinates": [-98.047318,44.73832]}},
{ "type": "Feature", "properties": {"Name":"Hillsview town","State":"South Dakota","State_Abbrev":"SD"},
"geometry":{ "type": "Point", "coordinates": [-99.560659,45.661968]}},
{ "type": "Feature", "properties": {"Name":"Hitchcock town","State":"South Dakota","State_Abbrev":"SD"},
"geometry":{ "type": "Point", "coordinates": [-98.408206,44.629367]}},
{ "type": "Feature", "properties": {"Name":"Horse Creek CDP","State":"South Dakota","State_Abbrev":"SD"},
"geometry":{ "type": "Point", "coordinates": [-100.741923,43.532965]}},
{ "type": "Feature", "properties": {"Name":"Hosmer city","State":"South Dakota","State_Abbrev":"SD"},
"geometry":{ "type": "Point", "coordinates": [-99.473642,45.578787]}},
{ "type": "Feature", "properties": {"Name":"Hot Springs city","State":"South Dakota","State_Abbrev":"SD"},
"geometry":{ "type": "Point", "coordinates": [-103.465089,43.41953]}},
{ "type": "Feature", "properties": {"Name":"Hoven town","State":"South Dakota","State_Abbrev":"SD"},
"geometry":{ "type": "Point", "coordinates": [-99.777521,45.241615]}},
{ "type": "Feature", "properties": {"Name":"Howard city","State":"South Dakota","State_Abbrev":"SD"},
"geometry":{ "type": "Point", "coordinates": [-97.524566,44.011656]}},
{ "type": "Feature", "properties": {"Name":"Hudson town","State":"South Dakota","State_Abbrev":"SD"},
"geometry":{ "type": "Point", "coordinates": [-96.455618,43.130108]}},
{ "type": "Feature", "properties": {"Name":"Humboldt town","State":"South Dakota","State_Abbrev":"SD"},
"geometry":{ "type": "Point", "coordinates": [-97.07452,43.64494]}},
{ "type": "Feature", "properties": {"Name":"Hurley city","State":"South Dakota","State_Abbrev":"SD"},
"geometry":{ "type": "Point", "coordinates": [-97.089437,43.279327]}},
{ "type": "Feature", "properties": {"Name":"Huron city","State":"South Dakota","State_Abbrev":"SD"},
"geometry":{ "type": "Point", "coordinates": [-98.209571,44.362341]}},
{ "type": "Feature", "properties": {"Name":"Huron Colony CDP","State":"South Dakota","State_Abbrev":"SD"},
"geometry":{ "type": "Point", "coordinates": [-98.205468,44.563437]}},
{ "type": "Feature", "properties": {"Name":"Hutterville Colony CDP","State":"South Dakota","State_Abbrev":"SD"},
"geometry":{ "type": "Point", "coordinates": [-98.211516,45.266322]}},
{ "type": "Feature", "properties": {"Name":"Ideal CDP","State":"South Dakota","State_Abbrev":"SD"},
"geometry":{ "type": "Point", "coordinates": [-99.921751,43.540003]}},
{ "type": "Feature", "properties": {"Name":"Interior town","State":"South Dakota","State_Abbrev":"SD"},
"geometry":{ "type": "Point", "coordinates": [-101.983298,43.727274]}},
{ "type": "Feature", "properties": {"Name":"Ipswich city","State":"South Dakota","State_Abbrev":"SD"},
"geometry":{ "type": "Point", "coordinates": [-99.029995,45.443459]}},
{ "type": "Feature", "properties": {"Name":"Irene city","State":"South Dakota","State_Abbrev":"SD"},
"geometry":{ "type": "Point", "coordinates": [-97.157586,43.083705]}},
{ "type": "Feature", "properties": {"Name":"Iroquois city","State":"South Dakota","State_Abbrev":"SD"},
"geometry":{ "type": "Point", "coordinates": [-97.849532,44.367859]}},
{ "type": "Feature", "properties": {"Name":"Isabel town","State":"South Dakota","State_Abbrev":"SD"},
"geometry":{ "type": "Point", "coordinates": [-101.431515,45.393744]}},
{ "type": "Feature", "properties": {"Name":"Jamesville Colony CDP","State":"South Dakota","State_Abbrev":"SD"},
"geometry":{ "type": "Point", "coordinates": [-97.481777,43.101534]}},
{ "type": "Feature", "properties": {"Name":"Java town","State":"South Dakota","State_Abbrev":"SD"},
"geometry":{ "type": "Point", "coordinates": [-99.883882,45.503819]}},
{ "type": "Feature", "properties": {"Name":"Jefferson city","State":"South Dakota","State_Abbrev":"SD"},
"geometry":{ "type": "Point", "coordinates": [-96.566089,42.604266]}},
{ "type": "Feature", "properties": {"Name":"Johnson Siding CDP","State":"South Dakota","State_Abbrev":"SD"},
"geometry":{ "type": "Point", "coordinates": [-103.437985,44.084565]}},
{ "type": "Feature", "properties": {"Name":"Kadoka city","State":"South Dakota","State_Abbrev":"SD"},
"geometry":{ "type": "Point", "coordinates": [-101.501241,43.828613]}},
{ "type": "Feature", "properties": {"Name":"Kaylor CDP","State":"South Dakota","State_Abbrev":"SD"},
"geometry":{ "type": "Point", "coordinates": [-97.844102,43.193624]}},
{ "type": "Feature", "properties": {"Name":"Kenel CDP","State":"South Dakota","State_Abbrev":"SD"},
"geometry":{ "type": "Point", "coordinates": [-100.459222,45.854496]}},
{ "type": "Feature", "properties": {"Name":"Kennebec town","State":"South Dakota","State_Abbrev":"SD"},
"geometry":{ "type": "Point", "coordinates": [-99.862001,43.903477]}},
{ "type": "Feature", "properties": {"Name":"Keystone town","State":"South Dakota","State_Abbrev":"SD"},
"geometry":{ "type": "Point", "coordinates": [-103.42679,43.894935]}},
{ "type": "Feature", "properties": {"Name":"Kidder CDP","State":"South Dakota","State_Abbrev":"SD"},
"geometry":{ "type": "Point", "coordinates": [-97.713849,45.88171]}},
{ "type": "Feature", "properties": {"Name":"Kimball city","State":"South Dakota","State_Abbrev":"SD"},
"geometry":{ "type": "Point", "coordinates": [-98.956559,43.746962]}},
{ "type": "Feature", "properties": {"Name":"Kranzburg town","State":"South Dakota","State_Abbrev":"SD"},
"geometry":{ "type": "Point", "coordinates": [-96.909348,44.888855]}},
{ "type": "Feature", "properties": {"Name":"Kyle CDP","State":"South Dakota","State_Abbrev":"SD"},
"geometry":{ "type": "Point", "coordinates": [-102.179586,43.42475]}},
{ "type": "Feature", "properties": {"Name":"La Bolt town","State":"South Dakota","State_Abbrev":"SD"},
"geometry":{ "type": "Point", "coordinates": [-96.675163,45.049038]}},
{ "type": "Feature", "properties": {"Name":"Lake Andes city","State":"South Dakota","State_Abbrev":"SD"},
"geometry":{ "type": "Point", "coordinates": [-98.536706,43.155521]}},
{ "type": "Feature", "properties": {"Name":"Lake City town","State":"South Dakota","State_Abbrev":"SD"},
"geometry":{ "type": "Point", "coordinates": [-97.414023,45.724753]}},
{ "type": "Feature", "properties": {"Name":"Lake Madison CDP","State":"South Dakota","State_Abbrev":"SD"},
"geometry":{ "type": "Point", "coordinates": [-97.026614,43.955116]}},
{ "type": "Feature", "properties": {"Name":"Lake Norden city","State":"South Dakota","State_Abbrev":"SD"},
"geometry":{ "type": "Point", "coordinates": [-97.211569,44.580057]}},
{ "type": "Feature", "properties": {"Name":"Lake Poinsett CDP","State":"South Dakota","State_Abbrev":"SD"},
"geometry":{ "type": "Point", "coordinates": [-97.108429,44.572462]}},
{ "type": "Feature", "properties": {"Name":"Lake Preston city","State":"South Dakota","State_Abbrev":"SD"},
"geometry":{ "type": "Point", "coordinates": [-97.375992,44.361663]}},
{ "type": "Feature", "properties": {"Name":"Lakeview Colony CDP","State":"South Dakota","State_Abbrev":"SD"},
"geometry":{ "type": "Point", "coordinates": [-98.456374,43.220202]}},
{ "type": "Feature", "properties": {"Name":"Lane town","State":"South Dakota","State_Abbrev":"SD"},
"geometry":{ "type": "Point", "coordinates": [-98.42462,44.069689]}},
{ "type": "Feature", "properties": {"Name":"Langford town","State":"South Dakota","State_Abbrev":"SD"},
"geometry":{ "type": "Point", "coordinates": [-97.830224,45.602279]}},
{ "type": "Feature", "properties": {"Name":"Lantry CDP","State":"South Dakota","State_Abbrev":"SD"},
"geometry":{ "type": "Point", "coordinates": [-101.432875,45.018387]}},
{ "type": "Feature", "properties": {"Name":"La Plant CDP","State":"South Dakota","State_Abbrev":"SD"},
"geometry":{ "type": "Point", "coordinates": [-100.640898,45.128207]}},
{ "type": "Feature", "properties": {"Name":"Lead city","State":"South Dakota","State_Abbrev":"SD"},
"geometry":{ "type": "Point", "coordinates": [-103.767111,44.352762]}},
{ "type": "Feature", "properties": {"Name":"Lebanon town","State":"South Dakota","State_Abbrev":"SD"},
"geometry":{ "type": "Point", "coordinates": [-99.76638,45.068784]}},
{ "type": "Feature", "properties": {"Name":"Lemmon city","State":"South Dakota","State_Abbrev":"SD"},
"geometry":{ "type": "Point", "coordinates": [-102.159803,45.93835]}},
{ "type": "Feature", "properties": {"Name":"Lennox city","State":"South Dakota","State_Abbrev":"SD"},
"geometry":{ "type": "Point", "coordinates": [-96.893689,43.34951]}},
{ "type": "Feature", "properties": {"Name":"Leola city","State":"South Dakota","State_Abbrev":"SD"},
"geometry":{ "type": "Point", "coordinates": [-98.938466,45.721139]}},
{ "type": "Feature", "properties": {"Name":"Lesterville town","State":"South Dakota","State_Abbrev":"SD"},
"geometry":{ "type": "Point", "coordinates": [-97.590613,43.038603]}},
{ "type": "Feature", "properties": {"Name":"Letcher town","State":"South Dakota","State_Abbrev":"SD"},
"geometry":{ "type": "Point", "coordinates": [-98.146357,43.900282]}},
{ "type": "Feature", "properties": {"Name":"Little Eagle CDP","State":"South Dakota","State_Abbrev":"SD"},
"geometry":{ "type": "Point", "coordinates": [-100.794794,45.68507]}},
{ "type": "Feature", "properties": {"Name":"Long Hollow CDP","State":"South Dakota","State_Abbrev":"SD"},
"geometry":{ "type": "Point", "coordinates": [-97.158649,45.683459]}},
{ "type": "Feature", "properties": {"Name":"Long Lake town","State":"South Dakota","State_Abbrev":"SD"},
"geometry":{ "type": "Point", "coordinates": [-99.205788,45.856661]}},
{ "type": "Feature", "properties": {"Name":"Long Lake Colony CDP","State":"South Dakota","State_Abbrev":"SD"},
"geometry":{ "type": "Point", "coordinates": [-98.826007,45.602553]}},
{ "type": "Feature", "properties": {"Name":"Loomis CDP","State":"South Dakota","State_Abbrev":"SD"},
"geometry":{ "type": "Point", "coordinates": [-98.104094,43.792945]}},
{ "type": "Feature", "properties": {"Name":"Lower Brule CDP","State":"South Dakota","State_Abbrev":"SD"},
"geometry":{ "type": "Point", "coordinates": [-99.583754,44.074134]}},
{ "type": "Feature", "properties": {"Name":"Lowry town","State":"South Dakota","State_Abbrev":"SD"},
"geometry":{ "type": "Point", "coordinates": [-99.981154,45.315584]}},
{ "type": "Feature", "properties": {"Name":"Lyons CDP","State":"South Dakota","State_Abbrev":"SD"},
"geometry":{ "type": "Point", "coordinates": [-96.866168,43.724889]}},
{ "type": "Feature", "properties": {"Name":"McIntosh city","State":"South Dakota","State_Abbrev":"SD"},
"geometry":{ "type": "Point", "coordinates": [-101.348558,45.921044]}},
{ "type": "Feature", "properties": {"Name":"McLaughlin city","State":"South Dakota","State_Abbrev":"SD"},
"geometry":{ "type": "Point", "coordinates": [-100.810682,45.813307]}},
{ "type": "Feature", "properties": {"Name":"Madison city","State":"South Dakota","State_Abbrev":"SD"},
"geometry":{ "type": "Point", "coordinates": [-97.108481,44.006223]}},
{ "type": "Feature", "properties": {"Name":"Manderson-White Horse Creek CDP","State":"South Dakota","State_Abbrev":"SD"},
"geometry":{ "type": "Point", "coordinates": [-102.491511,43.235039]}},
{ "type": "Feature", "properties": {"Name":"Mansfield CDP","State":"South Dakota","State_Abbrev":"SD"},
"geometry":{ "type": "Point", "coordinates": [-98.558154,45.24648]}},
{ "type": "Feature", "properties": {"Name":"Marion city","State":"South Dakota","State_Abbrev":"SD"},
"geometry":{ "type": "Point", "coordinates": [-97.260549,43.423571]}},
{ "type": "Feature", "properties": {"Name":"Martin city","State":"South Dakota","State_Abbrev":"SD"},
"geometry":{ "type": "Point", "coordinates": [-101.732324,43.174879]}},
{ "type": "Feature", "properties": {"Name":"Marty CDP","State":"South Dakota","State_Abbrev":"SD"},
"geometry":{ "type": "Point", "coordinates": [-98.430196,42.996489]}},
{ "type": "Feature", "properties": {"Name":"Marvin town","State":"South Dakota","State_Abbrev":"SD"},
"geometry":{ "type": "Point", "coordinates": [-96.915387,45.260507]}},
{ "type": "Feature", "properties": {"Name":"Maverick Junction CDP","State":"South Dakota","State_Abbrev":"SD"},
"geometry":{ "type": "Point", "coordinates": [-103.395888,43.40874]}},
{ "type": "Feature", "properties": {"Name":"Maxwell Colony CDP","State":"South Dakota","State_Abbrev":"SD"},
"geometry":{ "type": "Point", "coordinates": [-97.635148,43.18244]}},
{ "type": "Feature", "properties": {"Name":"Mayfield Colony CDP","State":"South Dakota","State_Abbrev":"SD"},
"geometry":{ "type": "Point", "coordinates": [-97.581162,44.694186]}},
{ "type": "Feature", "properties": {"Name":"Meadow View Addition CDP","State":"South Dakota","State_Abbrev":"SD"},
"geometry":{ "type": "Point", "coordinates": [-96.701189,43.623712]}},
{ "type": "Feature", "properties": {"Name":"Meckling CDP","State":"South Dakota","State_Abbrev":"SD"},
"geometry":{ "type": "Point", "coordinates": [-97.06724,42.840115]}},
{ "type": "Feature", "properties": {"Name":"Mellette city","State":"South Dakota","State_Abbrev":"SD"},
"geometry":{ "type": "Point", "coordinates": [-98.498355,45.154391]}},
{ "type": "Feature", "properties": {"Name":"Menno city","State":"South Dakota","State_Abbrev":"SD"},
"geometry":{ "type": "Point", "coordinates": [-97.577437,43.238489]}},
{ "type": "Feature", "properties": {"Name":"Midland town","State":"South Dakota","State_Abbrev":"SD"},
"geometry":{ "type": "Point", "coordinates": [-101.155442,44.071067]}},
{ "type": "Feature", "properties": {"Name":"Milbank city","State":"South Dakota","State_Abbrev":"SD"},
"geometry":{ "type": "Point", "coordinates": [-96.633696,45.219432]}},
{ "type": "Feature", "properties": {"Name":"Millbrook Colony CDP","State":"South Dakota","State_Abbrev":"SD"},
"geometry":{ "type": "Point", "coordinates": [-97.871005,43.668098]}},
{ "type": "Feature", "properties": {"Name":"Miller city","State":"South Dakota","State_Abbrev":"SD"},
"geometry":{ "type": "Point", "coordinates": [-98.986177,44.520028]}},
{ "type": "Feature", "properties": {"Name":"Millerdale Colony CDP","State":"South Dakota","State_Abbrev":"SD"},
"geometry":{ "type": "Point", "coordinates": [-99.110278,44.397422]}},
{ "type": "Feature", "properties": {"Name":"Milltown CDP","State":"South Dakota","State_Abbrev":"SD"},
"geometry":{ "type": "Point", "coordinates": [-97.810895,43.424753]}},
{ "type": "Feature", "properties": {"Name":"Mina CDP","State":"South Dakota","State_Abbrev":"SD"},
"geometry":{ "type": "Point", "coordinates": [-98.73919,45.454528]}},
{ "type": "Feature", "properties": {"Name":"Mission city","State":"South Dakota","State_Abbrev":"SD"},
"geometry":{ "type": "Point", "coordinates": [-100.660908,43.306273]}},
{ "type": "Feature", "properties": {"Name":"Mission Hill town","State":"South Dakota","State_Abbrev":"SD"},
"geometry":{ "type": "Point", "coordinates": [-97.279053,42.920757]}},
{ "type": "Feature", "properties": {"Name":"Mitchell city","State":"South Dakota","State_Abbrev":"SD"},
"geometry":{ "type": "Point", "coordinates": [-98.029974,43.730057]}},
{ "type": "Feature", "properties": {"Name":"Mobridge city","State":"South Dakota","State_Abbrev":"SD"},
"geometry":{ "type": "Point", "coordinates": [-100.434905,45.540961]}},
{ "type": "Feature", "properties": {"Name":"Monroe town","State":"South Dakota","State_Abbrev":"SD"},
"geometry":{ "type": "Point", "coordinates": [-97.216671,43.486533]}},
{ "type": "Feature", "properties": {"Name":"Montrose city","State":"South Dakota","State_Abbrev":"SD"},
"geometry":{ "type": "Point", "coordinates": [-97.184405,43.699771]}},
{ "type": "Feature", "properties": {"Name":"Morningside CDP","State":"South Dakota","State_Abbrev":"SD"},
"geometry":{ "type": "Point", "coordinates": [-98.181393,44.367629]}},
{ "type": "Feature", "properties": {"Name":"Morristown town","State":"South Dakota","State_Abbrev":"SD"},
"geometry":{ "type": "Point", "coordinates": [-101.71883,45.938622]}},
{ "type": "Feature", "properties": {"Name":"Mound City town","State":"South Dakota","State_Abbrev":"SD"},
"geometry":{ "type": "Point", "coordinates": [-100.068837,45.726179]}},
{ "type": "Feature", "properties": {"Name":"Mountain Plains CDP","State":"South Dakota","State_Abbrev":"SD"},
"geometry":{ "type": "Point", "coordinates": [-103.863573,44.467003]}},
{ "type": "Feature", "properties": {"Name":"Mount Vernon city","State":"South Dakota","State_Abbrev":"SD"},
"geometry":{ "type": "Point", "coordinates": [-98.261186,43.712676]}},
{ "type": "Feature", "properties": {"Name":"Murdo city","State":"South Dakota","State_Abbrev":"SD"},
"geometry":{ "type": "Point", "coordinates": [-100.714156,43.889361]}},
{ "type": "Feature", "properties": {"Name":"Naples town","State":"South Dakota","State_Abbrev":"SD"},
"geometry":{ "type": "Point", "coordinates": [-97.513038,44.771645]}},
{ "type": "Feature", "properties": {"Name":"Newdale Colony CDP","State":"South Dakota","State_Abbrev":"SD"},
"geometry":{ "type": "Point", "coordinates": [-96.524318,44.290013]}},
{ "type": "Feature", "properties": {"Name":"New Effington town","State":"South Dakota","State_Abbrev":"SD"},
"geometry":{ "type": "Point", "coordinates": [-96.915005,45.857577]}},
{ "type": "Feature", "properties": {"Name":"Newell city","State":"South Dakota","State_Abbrev":"SD"},
"geometry":{ "type": "Point", "coordinates": [-103.418329,44.717454]}},
{ "type": "Feature", "properties": {"Name":"New Elm Spring Colony CDP","State":"South Dakota","State_Abbrev":"SD"},
"geometry":{ "type": "Point", "coordinates": [-97.828377,43.48918]}},
{ "type": "Feature", "properties": {"Name":"New Holland CDP","State":"South Dakota","State_Abbrev":"SD"},
"geometry":{ "type": "Point", "coordinates": [-98.607331,43.428675]}},
{ "type": "Feature", "properties": {"Name":"Newport Colony CDP","State":"South Dakota","State_Abbrev":"SD"},
"geometry":{ "type": "Point", "coordinates": [-97.932789,45.679083]}},
{ "type": "Feature", "properties": {"Name":"New Underwood city","State":"South Dakota","State_Abbrev":"SD"},
"geometry":{ "type": "Point", "coordinates": [-102.846862,44.097541]}},
{ "type": "Feature", "properties": {"Name":"New Witten town","State":"South Dakota","State_Abbrev":"SD"},
"geometry":{ "type": "Point", "coordinates": [-100.081957,43.440641]}},
{ "type": "Feature", "properties": {"Name":"Nisland town","State":"South Dakota","State_Abbrev":"SD"},
"geometry":{ "type": "Point", "coordinates": [-103.553842,44.673046]}},
{ "type": "Feature", "properties": {"Name":"Norfeld Colony CDP","State":"South Dakota","State_Abbrev":"SD"},
"geometry":{ "type": "Point", "coordinates": [-96.55617,44.423263]}},
{ "type": "Feature", "properties": {"Name":"Norris CDP","State":"South Dakota","State_Abbrev":"SD"},
"geometry":{ "type": "Point", "coordinates": [-101.192798,43.472289]}},
{ "type": "Feature", "properties": {"Name":"North Eagle Butte CDP","State":"South Dakota","State_Abbrev":"SD"},
"geometry":{ "type": "Point", "coordinates": [-101.230904,45.021502]}},
{ "type": "Feature", "properties": {"Name":"North Sioux City city","State":"South Dakota","State_Abbrev":"SD"},
"geometry":{ "type": "Point", "coordinates": [-96.499552,42.530926]}},
{ "type": "Feature", "properties": {"Name":"North Spearfish CDP","State":"South Dakota","State_Abbrev":"SD"},
"geometry":{ "type": "Point", "coordinates": [-103.904497,44.510715]}},
{ "type": "Feature", "properties": {"Name":"Northville town","State":"South Dakota","State_Abbrev":"SD"},
"geometry":{ "type": "Point", "coordinates": [-98.579325,45.155384]}},
{ "type": "Feature", "properties": {"Name":"Nunda town","State":"South Dakota","State_Abbrev":"SD"},
"geometry":{ "type": "Point", "coordinates": [-97.019394,44.159852]}},
{ "type": "Feature", "properties": {"Name":"Oacoma town","State":"South Dakota","State_Abbrev":"SD"},
"geometry":{ "type": "Point", "coordinates": [-99.366082,43.804516]}},
{ "type": "Feature", "properties": {"Name":"Oahe Acres CDP","State":"South Dakota","State_Abbrev":"SD"},
"geometry":{ "type": "Point", "coordinates": [-100.344913,44.464816]}},
{ "type": "Feature", "properties": {"Name":"Oak Lane Colony CDP","State":"South Dakota","State_Abbrev":"SD"},
"geometry":{ "type": "Point", "coordinates": [-97.741244,43.509897]}},
{ "type": "Feature", "properties": {"Name":"Oelrichs town","State":"South Dakota","State_Abbrev":"SD"},
"geometry":{ "type": "Point", "coordinates": [-103.233427,43.182023]}},
{ "type": "Feature", "properties": {"Name":"Oglala CDP","State":"South Dakota","State_Abbrev":"SD"},
"geometry":{ "type": "Point", "coordinates": [-102.709676,43.191562]}},
{ "type": "Feature", "properties": {"Name":"Okaton CDP","State":"South Dakota","State_Abbrev":"SD"},
"geometry":{ "type": "Point", "coordinates": [-100.881366,43.852108]}},
{ "type": "Feature", "properties": {"Name":"Okreek CDP","State":"South Dakota","State_Abbrev":"SD"},
"geometry":{ "type": "Point", "coordinates": [-100.38866,43.348475]}},
{ "type": "Feature", "properties": {"Name":"Ola CDP","State":"South Dakota","State_Abbrev":"SD"},
"geometry":{ "type": "Point", "coordinates": [-99.211375,43.600503]}},
{ "type": "Feature", "properties": {"Name":"Old Elm Spring Colony CDP","State":"South Dakota","State_Abbrev":"SD"},
"geometry":{ "type": "Point", "coordinates": [-97.804332,43.491801]}},
{ "type": "Feature", "properties": {"Name":"Oldham city","State":"South Dakota","State_Abbrev":"SD"},
"geometry":{ "type": "Point", "coordinates": [-97.309527,44.228201]}},
{ "type": "Feature", "properties": {"Name":"Olivet town","State":"South Dakota","State_Abbrev":"SD"},
"geometry":{ "type": "Point", "coordinates": [-97.674674,43.24303]}},
{ "type": "Feature", "properties": {"Name":"Onaka town","State":"South Dakota","State_Abbrev":"SD"},
"geometry":{ "type": "Point", "coordinates": [-99.464715,45.19118]}},
{ "type": "Feature", "properties": {"Name":"Onida city","State":"South Dakota","State_Abbrev":"SD"},
"geometry":{ "type": "Point", "coordinates": [-100.067506,44.704872]}},
{ "type": "Feature", "properties": {"Name":"Oral CDP","State":"South Dakota","State_Abbrev":"SD"},
"geometry":{ "type": "Point", "coordinates": [-103.261554,43.406457]}},
{ "type": "Feature", "properties": {"Name":"Orient town","State":"South Dakota","State_Abbrev":"SD"},
"geometry":{ "type": "Point", "coordinates": [-99.088712,44.90171]}},
{ "type": "Feature", "properties": {"Name":"Orland Colony CDP","State":"South Dakota","State_Abbrev":"SD"},
"geometry":{ "type": "Point", "coordinates": [-97.199015,43.821573]}},
{ "type": "Feature", "properties": {"Name":"Ortley town","State":"South Dakota","State_Abbrev":"SD"},
"geometry":{ "type": "Point", "coordinates": [-97.204946,45.334946]}},
{ "type": "Feature", "properties": {"Name":"Parker city","State":"South Dakota","State_Abbrev":"SD"},
"geometry":{ "type": "Point", "coordinates": [-97.133357,43.397773]}},
{ "type": "Feature", "properties": {"Name":"Parkston city","State":"South Dakota","State_Abbrev":"SD"},
"geometry":{ "type": "Point", "coordinates": [-97.986424,43.392946]}},
{ "type": "Feature", "properties": {"Name":"Parmelee CDP","State":"South Dakota","State_Abbrev":"SD"},
"geometry":{ "type": "Point", "coordinates": [-101.042951,43.333681]}},
{ "type": "Feature", "properties": {"Name":"Pearl Creek Colony CDP","State":"South Dakota","State_Abbrev":"SD"},
"geometry":{ "type": "Point", "coordinates": [-97.918419,44.326034]}},
{ "type": "Feature", "properties": {"Name":"Peever town","State":"South Dakota","State_Abbrev":"SD"},
"geometry":{ "type": "Point", "coordinates": [-96.956124,45.54224]}},
{ "type": "Feature", "properties": {"Name":"Peever Flats CDP","State":"South Dakota","State_Abbrev":"SD"},
"geometry":{ "type": "Point", "coordinates": [-96.935548,45.523388]}},
{ "type": "Feature", "properties": {"Name":"Pembrook Colony CDP","State":"South Dakota","State_Abbrev":"SD"},
"geometry":{ "type": "Point", "coordinates": [-98.993046,45.372963]}},
{ "type": "Feature", "properties": {"Name":"Philip city","State":"South Dakota","State_Abbrev":"SD"},
"geometry":{ "type": "Point", "coordinates": [-101.664718,44.0407]}},
{ "type": "Feature", "properties": {"Name":"Pickstown town","State":"South Dakota","State_Abbrev":"SD"},
"geometry":{ "type": "Point", "coordinates": [-98.529597,43.067014]}},
{ "type": "Feature", "properties": {"Name":"Piedmont city","State":"South Dakota","State_Abbrev":"SD"},
"geometry":{ "type": "Point", "coordinates": [-103.375388,44.217226]}},
{ "type": "Feature", "properties": {"Name":"Pierpont town","State":"South Dakota","State_Abbrev":"SD"},
"geometry":{ "type": "Point", "coordinates": [-97.832087,45.495331]}},
{ "type": "Feature", "properties": {"Name":"Pierre city","State":"South Dakota","State_Abbrev":"SD"},
"geometry":{ "type": "Point", "coordinates": [-100.319996,44.375163]}},
{ "type": "Feature", "properties": {"Name":"Pine Lakes Addition CDP","State":"South Dakota","State_Abbrev":"SD"},
"geometry":{ "type": "Point", "coordinates": [-96.635433,43.551171]}},
{ "type": "Feature", "properties": {"Name":"Pine Ridge CDP","State":"South Dakota","State_Abbrev":"SD"},
"geometry":{ "type": "Point", "coordinates": [-102.552352,43.026919]}},
{ "type": "Feature", "properties": {"Name":"Plainview Colony CDP","State":"South Dakota","State_Abbrev":"SD"},
"geometry":{ "type": "Point", "coordinates": [-99.011491,45.581164]}},
{ "type": "Feature", "properties": {"Name":"Plankinton city","State":"South Dakota","State_Abbrev":"SD"},
"geometry":{ "type": "Point", "coordinates": [-98.483616,43.715421]}},
{ "type": "Feature", "properties": {"Name":"Platte city","State":"South Dakota","State_Abbrev":"SD"},
"geometry":{ "type": "Point", "coordinates": [-98.843455,43.386903]}},
{ "type": "Feature", "properties": {"Name":"Platte Colony CDP","State":"South Dakota","State_Abbrev":"SD"},
"geometry":{ "type": "Point", "coordinates": [-99.126223,43.467898]}},
{ "type": "Feature", "properties": {"Name":"Pleasant Valley Colony CDP","State":"South Dakota","State_Abbrev":"SD"},
"geometry":{ "type": "Point", "coordinates": [-96.470966,44.058869]}},
{ "type": "Feature", "properties": {"Name":"Poinsett Colony CDP","State":"South Dakota","State_Abbrev":"SD"},
"geometry":{ "type": "Point", "coordinates": [-96.900264,44.64142]}},
{ "type": "Feature", "properties": {"Name":"Pollock town","State":"South Dakota","State_Abbrev":"SD"},
"geometry":{ "type": "Point", "coordinates": [-100.288525,45.900515]}},
{ "type": "Feature", "properties": {"Name":"Porcupine CDP","State":"South Dakota","State_Abbrev":"SD"},
"geometry":{ "type": "Point", "coordinates": [-102.335259,43.268525]}},
{ "type": "Feature", "properties": {"Name":"Prairie City CDP","State":"South Dakota","State_Abbrev":"SD"},
"geometry":{ "type": "Point", "coordinates": [-102.817088,45.536054]}},
{ "type": "Feature", "properties": {"Name":"Prairiewood Village CDP","State":"South Dakota","State_Abbrev":"SD"},
"geometry":{ "type": "Point", "coordinates": [-98.419403,45.509376]}},
{ "type": "Feature", "properties": {"Name":"Presho city","State":"South Dakota","State_Abbrev":"SD"},
"geometry":{ "type": "Point", "coordinates": [-100.05837,43.907158]}},
{ "type": "Feature", "properties": {"Name":"Pringle town","State":"South Dakota","State_Abbrev":"SD"},
"geometry":{ "type": "Point", "coordinates": [-103.594582,43.608994]}},
{ "type": "Feature", "properties": {"Name":"Provo CDP","State":"South Dakota","State_Abbrev":"SD"},
"geometry":{ "type": "Point", "coordinates": [-103.832937,43.193653]}},
{ "type": "Feature", "properties": {"Name":"Pukwana town","State":"South Dakota","State_Abbrev":"SD"},
"geometry":{ "type": "Point", "coordinates": [-99.184293,43.779139]}},
{ "type": "Feature", "properties": {"Name":"Quinn town","State":"South Dakota","State_Abbrev":"SD"},
"geometry":{ "type": "Point", "coordinates": [-102.126346,43.98658]}},
{ "type": "Feature", "properties": {"Name":"Ramona town","State":"South Dakota","State_Abbrev":"SD"},
"geometry":{ "type": "Point", "coordinates": [-97.215415,44.119872]}},
{ "type": "Feature", "properties": {"Name":"Rapid City city","State":"South Dakota","State_Abbrev":"SD"},
"geometry":{ "type": "Point", "coordinates": [-103.217924,44.071071]}},
{ "type": "Feature", "properties": {"Name":"Rapid Valley CDP","State":"South Dakota","State_Abbrev":"SD"},
"geometry":{ "type": "Point", "coordinates": [-103.122315,44.067458]}},
{ "type": "Feature", "properties": {"Name":"Ravinia town","State":"South Dakota","State_Abbrev":"SD"},
"geometry":{ "type": "Point", "coordinates": [-98.426833,43.136496]}},
{ "type": "Feature", "properties": {"Name":"Raymond town","State":"South Dakota","State_Abbrev":"SD"},
"geometry":{ "type": "Point", "coordinates": [-97.937258,44.910547]}},
{ "type": "Feature", "properties": {"Name":"Redfield city","State":"South Dakota","State_Abbrev":"SD"},
"geometry":{ "type": "Point", "coordinates": [-98.519214,44.873315]}},
{ "type": "Feature", "properties": {"Name":"Ree Heights town","State":"South Dakota","State_Abbrev":"SD"},
"geometry":{ "type": "Point", "coordinates": [-99.200525,44.515823]}},
{ "type": "Feature", "properties": {"Name":"Reliance town","State":"South Dakota","State_Abbrev":"SD"},
"geometry":{ "type": "Point", "coordinates": [-99.601172,43.880401]}},
{ "type": "Feature", "properties": {"Name":"Renner Corner CDP","State":"South Dakota","State_Abbrev":"SD"},
"geometry":{ "type": "Point", "coordinates": [-96.702072,43.648746]}},
{ "type": "Feature", "properties": {"Name":"Revillo town","State":"South Dakota","State_Abbrev":"SD"},
"geometry":{ "type": "Point", "coordinates": [-96.571104,45.015315]}},
{ "type": "Feature", "properties": {"Name":"Richland CDP","State":"South Dakota","State_Abbrev":"SD"},
"geometry":{ "type": "Point", "coordinates": [-96.64785,42.763417]}},
{ "type": "Feature", "properties": {"Name":"Riverside Colony CDP","State":"South Dakota","State_Abbrev":"SD"},
"geometry":{ "type": "Point", "coordinates": [-98.137241,44.478097]}},
{ "type": "Feature", "properties": {"Name":"Rockham town","State":"South Dakota","State_Abbrev":"SD"},
"geometry":{ "type": "Point", "coordinates": [-98.823412,44.90428]}},
{ "type": "Feature", "properties": {"Name":"Rockport Colony CDP","State":"South Dakota","State_Abbrev":"SD"},
"geometry":{ "type": "Point", "coordinates": [-97.843052,43.581986]}},
{ "type": "Feature", "properties": {"Name":"Rolland Colony CDP","State":"South Dakota","State_Abbrev":"SD"},
"geometry":{ "type": "Point", "coordinates": [-96.59226,44.3437]}},
{ "type": "Feature", "properties": {"Name":"Roscoe city","State":"South Dakota","State_Abbrev":"SD"},
"geometry":{ "type": "Point", "coordinates": [-99.336705,45.450105]}},
{ "type": "Feature", "properties": {"Name":"Rosebud CDP","State":"South Dakota","State_Abbrev":"SD"},
"geometry":{ "type": "Point", "coordinates": [-100.815038,43.238697]}},
{ "type": "Feature", "properties": {"Name":"Rosedale Colony CDP","State":"South Dakota","State_Abbrev":"SD"},
"geometry":{ "type": "Point", "coordinates": [-97.875335,43.626716]}},
{ "type": "Feature", "properties": {"Name":"Rosholt town","State":"South Dakota","State_Abbrev":"SD"},
"geometry":{ "type": "Point", "coordinates": [-96.731776,45.866192]}},
{ "type": "Feature", "properties": {"Name":"Roslyn town","State":"South Dakota","State_Abbrev":"SD"},
"geometry":{ "type": "Point", "coordinates": [-97.492699,45.496614]}},
{ "type": "Feature", "properties": {"Name":"Roswell CDP","State":"South Dakota","State_Abbrev":"SD"},
"geometry":{ "type": "Point", "coordinates": [-97.697451,44.005973]}},
{ "type": "Feature", "properties": {"Name":"Rowena CDP","State":"South Dakota","State_Abbrev":"SD"},
"geometry":{ "type": "Point", "coordinates": [-96.556151,43.519088]}},
{ "type": "Feature", "properties": {"Name":"Running Water CDP","State":"South Dakota","State_Abbrev":"SD"},
"geometry":{ "type": "Point", "coordinates": [-97.981669,42.782167]}},
{ "type": "Feature", "properties": {"Name":"Rustic Acres Colony CDP","State":"South Dakota","State_Abbrev":"SD"},
"geometry":{ "type": "Point", "coordinates": [-97.098962,43.869779]}},
{ "type": "Feature", "properties": {"Name":"St. Charles CDP","State":"South Dakota","State_Abbrev":"SD"},
"geometry":{ "type": "Point", "coordinates": [-99.094883,43.088126]}},
{ "type": "Feature", "properties": {"Name":"St. Francis town","State":"South Dakota","State_Abbrev":"SD"},
"geometry":{ "type": "Point", "coordinates": [-100.902786,43.142605]}},
{ "type": "Feature", "properties": {"Name":"St. Lawrence town","State":"South Dakota","State_Abbrev":"SD"},
"geometry":{ "type": "Point", "coordinates": [-98.937878,44.516607]}},
{ "type": "Feature", "properties": {"Name":"St. Onge CDP","State":"South Dakota","State_Abbrev":"SD"},
"geometry":{ "type": "Point", "coordinates": [-103.719856,44.545747]}},
{ "type": "Feature", "properties": {"Name":"Salem city","State":"South Dakota","State_Abbrev":"SD"},
"geometry":{ "type": "Point", "coordinates": [-97.389306,43.722825]}},
{ "type": "Feature", "properties": {"Name":"Scotland city","State":"South Dakota","State_Abbrev":"SD"},
"geometry":{ "type": "Point", "coordinates": [-97.719838,43.148189]}},
{ "type": "Feature", "properties": {"Name":"Selby city","State":"South Dakota","State_Abbrev":"SD"},
"geometry":{ "type": "Point", "coordinates": [-100.032904,45.50573]}},
{ "type": "Feature", "properties": {"Name":"Seneca town","State":"South Dakota","State_Abbrev":"SD"},
"geometry":{ "type": "Point", "coordinates": [-99.509165,45.060804]}},
{ "type": "Feature", "properties": {"Name":"Shamrock Colony CDP","State":"South Dakota","State_Abbrev":"SD"},
"geometry":{ "type": "Point", "coordinates": [-97.965059,44.620961]}},
{ "type": "Feature", "properties": {"Name":"Shannon Colony CDP","State":"South Dakota","State_Abbrev":"SD"},
"geometry":{ "type": "Point", "coordinates": [-97.425074,43.982612]}},
{ "type": "Feature", "properties": {"Name":"Sherman town","State":"South Dakota","State_Abbrev":"SD"},
"geometry":{ "type": "Point", "coordinates": [-96.475742,43.757545]}},
{ "type": "Feature", "properties": {"Name":"Shindler CDP","State":"South Dakota","State_Abbrev":"SD"},
"geometry":{ "type": "Point", "coordinates": [-96.635522,43.467706]}},
{ "type": "Feature", "properties": {"Name":"Sicangu Village CDP","State":"South Dakota","State_Abbrev":"SD"},
"geometry":{ "type": "Point", "coordinates": [-100.575718,43.013755]}},
{ "type": "Feature", "properties": {"Name":"Silver Lake Colony CDP","State":"South Dakota","State_Abbrev":"SD"},
"geometry":{ "type": "Point", "coordinates": [-97.608671,44.865552]}},
{ "type": "Feature", "properties": {"Name":"Sinai town","State":"South Dakota","State_Abbrev":"SD"},
"geometry":{ "type": "Point", "coordinates": [-97.044031,44.244494]}},
{ "type": "Feature", "properties": {"Name":"Sioux Falls city","State":"South Dakota","State_Abbrev":"SD"},
"geometry":{ "type": "Point", "coordinates": [-96.731962,43.540696]}},
{ "type": "Feature", "properties": {"Name":"Sisseton city","State":"South Dakota","State_Abbrev":"SD"},
"geometry":{ "type": "Point", "coordinates": [-97.045293,45.662499]}},
{ "type": "Feature", "properties": {"Name":"Smithwick CDP","State":"South Dakota","State_Abbrev":"SD"},
"geometry":{ "type": "Point", "coordinates": [-103.216297,43.297581]}},
{ "type": "Feature", "properties": {"Name":"Soldier Creek CDP","State":"South Dakota","State_Abbrev":"SD"},
"geometry":{ "type": "Point", "coordinates": [-100.896809,43.332643]}},
{ "type": "Feature", "properties": {"Name":"South Shore town","State":"South Dakota","State_Abbrev":"SD"},
"geometry":{ "type": "Point", "coordinates": [-96.930111,45.10151]}},
{ "type": "Feature", "properties": {"Name":"Spearfish city","State":"South Dakota","State_Abbrev":"SD"},
"geometry":{ "type": "Point", "coordinates": [-103.819652,44.492094]}},
{ "type": "Feature", "properties": {"Name":"Spencer city","State":"South Dakota","State_Abbrev":"SD"},
"geometry":{ "type": "Point", "coordinates": [-97.59111,43.727466]}},
{ "type": "Feature", "properties": {"Name":"Spink Colony CDP","State":"South Dakota","State_Abbrev":"SD"},
"geometry":{ "type": "Point", "coordinates": [-98.289184,44.744949]}},
{ "type": "Feature", "properties": {"Name":"Spring Creek CDP","State":"South Dakota","State_Abbrev":"SD"},
"geometry":{ "type": "Point", "coordinates": [-101.030689,43.11537]}},
{ "type": "Feature", "properties": {"Name":"Spring Creek Colony CDP","State":"South Dakota","State_Abbrev":"SD"},
"geometry":{ "type": "Point", "coordinates": [-98.880645,45.907694]}},
{ "type": "Feature", "properties": {"Name":"Springfield city","State":"South Dakota","State_Abbrev":"SD"},
"geometry":{ "type": "Point", "coordinates": [-97.896454,42.86235]}},
{ "type": "Feature", "properties": {"Name":"Spring Lake Colony CDP","State":"South Dakota","State_Abbrev":"SD"},
"geometry":{ "type": "Point", "coordinates": [-97.174803,44.23495]}},
{ "type": "Feature", "properties": {"Name":"Spring Valley Colony CDP","State":"South Dakota","State_Abbrev":"SD"},
"geometry":{ "type": "Point", "coordinates": [-98.881321,44.039516]}},
{ "type": "Feature", "properties": {"Name":"Stephan CDP","State":"South Dakota","State_Abbrev":"SD"},
"geometry":{ "type": "Point", "coordinates": [-99.456674,44.249138]}},
{ "type": "Feature", "properties": {"Name":"Stickney town","State":"South Dakota","State_Abbrev":"SD"},
"geometry":{ "type": "Point", "coordinates": [-98.437636,43.589304]}},
{ "type": "Feature", "properties": {"Name":"Stockholm town","State":"South Dakota","State_Abbrev":"SD"},
"geometry":{ "type": "Point", "coordinates": [-96.798352,45.103038]}},
{ "type": "Feature", "properties": {"Name":"Storla CDP","State":"South Dakota","State_Abbrev":"SD"},
"geometry":{ "type": "Point", "coordinates": [-98.352622,43.862499]}},
{ "type": "Feature", "properties": {"Name":"Strandburg town","State":"South Dakota","State_Abbrev":"SD"},
"geometry":{ "type": "Point", "coordinates": [-96.760441,45.044067]}},
{ "type": "Feature", "properties": {"Name":"Stratford town","State":"South Dakota","State_Abbrev":"SD"},
"geometry":{ "type": "Point", "coordinates": [-98.30434,45.317449]}},
{ "type": "Feature", "properties": {"Name":"Sturgis city","State":"South Dakota","State_Abbrev":"SD"},
"geometry":{ "type": "Point", "coordinates": [-103.500609,44.411998]}},
{ "type": "Feature", "properties": {"Name":"Summerset city","State":"South Dakota","State_Abbrev":"SD"},
"geometry":{ "type": "Point", "coordinates": [-103.342237,44.193309]}},
{ "type": "Feature", "properties": {"Name":"Summit town","State":"South Dakota","State_Abbrev":"SD"},
"geometry":{ "type": "Point", "coordinates": [-97.039106,45.305574]}},
{ "type": "Feature", "properties": {"Name":"Sunset Colony CDP","State":"South Dakota","State_Abbrev":"SD"},
"geometry":{ "type": "Point", "coordinates": [-97.885151,45.809492]}},
{ "type": "Feature", "properties": {"Name":"Swift Bird CDP","State":"South Dakota","State_Abbrev":"SD"},
"geometry":{ "type": "Point", "coordinates": [-100.354509,45.060062]}},
{ "type": "Feature", "properties": {"Name":"Tabor town","State":"South Dakota","State_Abbrev":"SD"},
"geometry":{ "type": "Point", "coordinates": [-97.65939,42.947672]}},
{ "type": "Feature", "properties": {"Name":"Tea city","State":"South Dakota","State_Abbrev":"SD"},
"geometry":{ "type": "Point", "coordinates": [-96.823997,43.455626]}},
{ "type": "Feature", "properties": {"Name":"Thunderbird Colony CDP","State":"South Dakota","State_Abbrev":"SD"},
"geometry":{ "type": "Point", "coordinates": [-99.262278,45.191069]}},
{ "type": "Feature", "properties": {"Name":"Timber Lake city","State":"South Dakota","State_Abbrev":"SD"},
"geometry":{ "type": "Point", "coordinates": [-101.071434,45.429414]}},
{ "type": "Feature", "properties": {"Name":"Tolstoy town","State":"South Dakota","State_Abbrev":"SD"},
"geometry":{ "type": "Point", "coordinates": [-99.613985,45.208148]}},
{ "type": "Feature", "properties": {"Name":"Toronto town","State":"South Dakota","State_Abbrev":"SD"},
"geometry":{ "type": "Point", "coordinates": [-96.641368,44.572404]}},
{ "type": "Feature", "properties": {"Name":"Trent town","State":"South Dakota","State_Abbrev":"SD"},
"geometry":{ "type": "Point", "coordinates": [-96.657813,43.906265]}},
{ "type": "Feature", "properties": {"Name":"Tripp city","State":"South Dakota","State_Abbrev":"SD"},
"geometry":{ "type": "Point", "coordinates": [-97.965829,43.22541]}},
{ "type": "Feature", "properties": {"Name":"Tschetter Colony CDP","State":"South Dakota","State_Abbrev":"SD"},
"geometry":{ "type": "Point", "coordinates": [-97.693282,43.368277]}},
{ "type": "Feature", "properties": {"Name":"Tulare town","State":"South Dakota","State_Abbrev":"SD"},
"geometry":{ "type": "Point", "coordinates": [-98.508932,44.738221]}},
{ "type": "Feature", "properties": {"Name":"Turton town","State":"South Dakota","State_Abbrev":"SD"},
"geometry":{ "type": "Point", "coordinates": [-98.097407,45.048957]}},
{ "type": "Feature", "properties": {"Name":"Twin Brooks town","State":"South Dakota","State_Abbrev":"SD"},
"geometry":{ "type": "Point", "coordinates": [-96.785505,45.208974]}},
{ "type": "Feature", "properties": {"Name":"Two Strike CDP","State":"South Dakota","State_Abbrev":"SD"},
"geometry":{ "type": "Point", "coordinates": [-100.908211,43.216362]}},
{ "type": "Feature", "properties": {"Name":"Tyndall city","State":"South Dakota","State_Abbrev":"SD"},
"geometry":{ "type": "Point", "coordinates": [-97.864223,42.98987]}},
{ "type": "Feature", "properties": {"Name":"Upland Colony CDP","State":"South Dakota","State_Abbrev":"SD"},
"geometry":{ "type": "Point", "coordinates": [-97.977538,43.877143]}},
{ "type": "Feature", "properties": {"Name":"Utica town","State":"South Dakota","State_Abbrev":"SD"},
"geometry":{ "type": "Point", "coordinates": [-97.496661,42.981085]}},
{ "type": "Feature", "properties": {"Name":"Vale CDP","State":"South Dakota","State_Abbrev":"SD"},
"geometry":{ "type": "Point", "coordinates": [-103.39868,44.618315]}},
{ "type": "Feature", "properties": {"Name":"Valley Springs city","State":"South Dakota","State_Abbrev":"SD"},
"geometry":{ "type": "Point", "coordinates": [-96.46587,43.582079]}},
{ "type": "Feature", "properties": {"Name":"Veblen city","State":"South Dakota","State_Abbrev":"SD"},
"geometry":{ "type": "Point", "coordinates": [-97.28691,45.861989]}},
{ "type": "Feature", "properties": {"Name":"Verdon town","State":"South Dakota","State_Abbrev":"SD"},
"geometry":{ "type": "Point", "coordinates": [-98.09919,45.244189]}},
{ "type": "Feature", "properties": {"Name":"Vermillion city","State":"South Dakota","State_Abbrev":"SD"},
"geometry":{ "type": "Point", "coordinates": [-96.925402,42.7814]}},
{ "type": "Feature", "properties": {"Name":"Viborg city","State":"South Dakota","State_Abbrev":"SD"},
"geometry":{ "type": "Point", "coordinates": [-97.082427,43.172235]}},
{ "type": "Feature", "properties": {"Name":"Vienna town","State":"South Dakota","State_Abbrev":"SD"},
"geometry":{ "type": "Point", "coordinates": [-97.50002,44.703163]}},
{ "type": "Feature", "properties": {"Name":"Vilas town","State":"South Dakota","State_Abbrev":"SD"},
"geometry":{ "type": "Point", "coordinates": [-97.595616,44.008433]}},
{ "type": "Feature", "properties": {"Name":"Virgil town","State":"South Dakota","State_Abbrev":"SD"},
"geometry":{ "type": "Point", "coordinates": [-98.4276,44.290937]}},
{ "type": "Feature", "properties": {"Name":"Vivian CDP","State":"South Dakota","State_Abbrev":"SD"},
"geometry":{ "type": "Point", "coordinates": [-100.301123,43.927267]}},
{ "type": "Feature", "properties": {"Name":"Volga city","State":"South Dakota","State_Abbrev":"SD"},
"geometry":{ "type": "Point", "coordinates": [-96.922261,44.321853]}},
{ "type": "Feature", "properties": {"Name":"Volin town","State":"South Dakota","State_Abbrev":"SD"},
"geometry":{ "type": "Point", "coordinates": [-97.181185,42.958621]}},
{ "type": "Feature", "properties": {"Name":"Wagner city","State":"South Dakota","State_Abbrev":"SD"},
"geometry":{ "type": "Point", "coordinates": [-98.291425,43.07695]}},
{ "type": "Feature", "properties": {"Name":"Wakonda town","State":"South Dakota","State_Abbrev":"SD"},
"geometry":{ "type": "Point", "coordinates": [-97.105974,43.008115]}},
{ "type": "Feature", "properties": {"Name":"Wakpala CDP","State":"South Dakota","State_Abbrev":"SD"},
"geometry":{ "type": "Point", "coordinates": [-100.535546,45.659402]}},
{ "type": "Feature", "properties": {"Name":"Wall town","State":"South Dakota","State_Abbrev":"SD"},
"geometry":{ "type": "Point", "coordinates": [-102.24493,43.994057]}},
{ "type": "Feature", "properties": {"Name":"Wallace town","State":"South Dakota","State_Abbrev":"SD"},
"geometry":{ "type": "Point", "coordinates": [-97.478129,45.084459]}},
{ "type": "Feature", "properties": {"Name":"Wanblee CDP","State":"South Dakota","State_Abbrev":"SD"},
"geometry":{ "type": "Point", "coordinates": [-101.660917,43.571404]}},
{ "type": "Feature", "properties": {"Name":"Ward town","State":"South Dakota","State_Abbrev":"SD"},
"geometry":{ "type": "Point", "coordinates": [-96.462592,44.154813]}},
{ "type": "Feature", "properties": {"Name":"Warner town","State":"South Dakota","State_Abbrev":"SD"},
"geometry":{ "type": "Point", "coordinates": [-98.495239,45.325174]}},
{ "type": "Feature", "properties": {"Name":"Wasta town","State":"South Dakota","State_Abbrev":"SD"},
"geometry":{ "type": "Point", "coordinates": [-102.446368,44.069531]}},
{ "type": "Feature", "properties": {"Name":"Watertown city","State":"South Dakota","State_Abbrev":"SD"},
"geometry":{ "type": "Point", "coordinates": [-97.155685,44.909188]}},
{ "type": "Feature", "properties": {"Name":"Waubay city","State":"South Dakota","State_Abbrev":"SD"},
"geometry":{ "type": "Point", "coordinates": [-97.305474,45.334533]}},
{ "type": "Feature", "properties": {"Name":"Waverly CDP","State":"South Dakota","State_Abbrev":"SD"},
"geometry":{ "type": "Point", "coordinates": [-96.974135,44.99867]}},
{ "type": "Feature", "properties": {"Name":"Webster city","State":"South Dakota","State_Abbrev":"SD"},
"geometry":{ "type": "Point", "coordinates": [-97.521829,45.336562]}},
{ "type": "Feature", "properties": {"Name":"Wentworth village","State":"South Dakota","State_Abbrev":"SD"},
"geometry":{ "type": "Point", "coordinates": [-96.964546,43.996945]}},
{ "type": "Feature", "properties": {"Name":"Wessington city","State":"South Dakota","State_Abbrev":"SD"},
"geometry":{ "type": "Point", "coordinates": [-98.69679,44.455112]}},
{ "type": "Feature", "properties": {"Name":"Wessington Springs city","State":"South Dakota","State_Abbrev":"SD"},
"geometry":{ "type": "Point", "coordinates": [-98.571223,44.080526]}},
{ "type": "Feature", "properties": {"Name":"West Brule CDP","State":"South Dakota","State_Abbrev":"SD"},
"geometry":{ "type": "Point", "coordinates": [-99.638363,44.072742]}},
{ "type": "Feature", "properties": {"Name":"Westport town","State":"South Dakota","State_Abbrev":"SD"},
"geometry":{ "type": "Point", "coordinates": [-98.498118,45.647806]}},
{ "type": "Feature", "properties": {"Name":"Westwood Colony CDP","State":"South Dakota","State_Abbrev":"SD"},
"geometry":{ "type": "Point", "coordinates": [-97.781406,45.892867]}},
{ "type": "Feature", "properties": {"Name":"Wetonka town","State":"South Dakota","State_Abbrev":"SD"},
"geometry":{ "type": "Point", "coordinates": [-98.771741,45.624216]}},
{ "type": "Feature", "properties": {"Name":"White city","State":"South Dakota","State_Abbrev":"SD"},
"geometry":{ "type": "Point", "coordinates": [-96.64601,44.435904]}},
{ "type": "Feature", "properties": {"Name":"Whitehorse CDP","State":"South Dakota","State_Abbrev":"SD"},
"geometry":{ "type": "Point", "coordinates": [-100.901179,45.274631]}},
{ "type": "Feature", "properties": {"Name":"White Horse CDP","State":"South Dakota","State_Abbrev":"SD"},
"geometry":{ "type": "Point", "coordinates": [-100.597686,43.310101]}},
{ "type": "Feature", "properties": {"Name":"White Lake city","State":"South Dakota","State_Abbrev":"SD"},
"geometry":{ "type": "Point", "coordinates": [-98.712023,43.72828]}},
{ "type": "Feature", "properties": {"Name":"White River city","State":"South Dakota","State_Abbrev":"SD"},
"geometry":{ "type": "Point", "coordinates": [-100.744875,43.567068]}},
{ "type": "Feature", "properties": {"Name":"White Rock town","State":"South Dakota","State_Abbrev":"SD"},
"geometry":{ "type": "Point", "coordinates": [-96.576176,45.924744]}},
{ "type": "Feature", "properties": {"Name":"White Rock Colony CDP","State":"South Dakota","State_Abbrev":"SD"},
"geometry":{ "type": "Point", "coordinates": [-96.635908,45.910569]}},
{ "type": "Feature", "properties": {"Name":"Whitewood city","State":"South Dakota","State_Abbrev":"SD"},
"geometry":{ "type": "Point", "coordinates": [-103.638097,44.461761]}},
{ "type": "Feature", "properties": {"Name":"Willow Lake city","State":"South Dakota","State_Abbrev":"SD"},
"geometry":{ "type": "Point", "coordinates": [-97.638057,44.627901]}},
{ "type": "Feature", "properties": {"Name":"Wilmot city","State":"South Dakota","State_Abbrev":"SD"},
"geometry":{ "type": "Point", "coordinates": [-96.854561,45.409104]}},
{ "type": "Feature", "properties": {"Name":"Winfred CDP","State":"South Dakota","State_Abbrev":"SD"},
"geometry":{ "type": "Point", "coordinates": [-97.361614,43.998795]}},
{ "type": "Feature", "properties": {"Name":"Winner city","State":"South Dakota","State_Abbrev":"SD"},
"geometry":{ "type": "Point", "coordinates": [-99.855064,43.377613]}},
{ "type": "Feature", "properties": {"Name":"Wolf Creek Colony CDP","State":"South Dakota","State_Abbrev":"SD"},
"geometry":{ "type": "Point", "coordinates": [-97.616014,43.352777]}},
{ "type": "Feature", "properties": {"Name":"Wolsey town","State":"South Dakota","State_Abbrev":"SD"},
"geometry":{ "type": "Point", "coordinates": [-98.473892,44.410763]}},
{ "type": "Feature", "properties": {"Name":"Wonderland Homes CDP","State":"South Dakota","State_Abbrev":"SD"},
"geometry":{ "type": "Point", "coordinates": [-103.344542,44.204118]}},
{ "type": "Feature", "properties": {"Name":"Wood town","State":"South Dakota","State_Abbrev":"SD"},
"geometry":{ "type": "Point", "coordinates": [-100.480158,43.497059]}},
{ "type": "Feature", "properties": {"Name":"Woonsocket city","State":"South Dakota","State_Abbrev":"SD"},
"geometry":{ "type": "Point", "coordinates": [-98.271711,44.054198]}},
{ "type": "Feature", "properties": {"Name":"Worthing city","State":"South Dakota","State_Abbrev":"SD"},
"geometry":{ "type": "Point", "coordinates": [-96.768247,43.330046]}},
{ "type": "Feature", "properties": {"Name":"Wounded Knee CDP","State":"South Dakota","State_Abbrev":"SD"},
"geometry":{ "type": "Point", "coordinates": [-102.368236,43.143548]}},
{ "type": "Feature", "properties": {"Name":"Yale town","State":"South Dakota","State_Abbrev":"SD"},
"geometry":{ "type": "Point", "coordinates": [-97.987907,44.433455]}},
{ "type": "Feature", "properties": {"Name":"Yankton city","State":"South Dakota","State_Abbrev":"SD"},
"geometry":{ "type": "Point", "coordinates": [-97.392687,42.889751]}}]}
