{"type":"FeatureCollection","features":[
{ "type": "Feature", "properties": {"Name":"Adams city","State":"Tennessee","State_Abbrev":"TN"},
"geometry":{ "type": "Point", "coordinates": [-87.065113,36.58281]}},
{ "type": "Feature", "properties": {"Name":"Adamsville town","State":"Tennessee","State_Abbrev":"TN"},
"geometry":{ "type": "Point", "coordinates": [-88.378383,35.237529]}},
{ "type": "Feature", "properties": {"Name":"Alamo town","State":"Tennessee","State_Abbrev":"TN"},
"geometry":{ "type": "Point", "coordinates": [-89.116878,35.782937]}},
{ "type": "Feature", "properties": {"Name":"Alcoa city","State":"Tennessee","State_Abbrev":"TN"},
"geometry":{ "type": "Point", "coordinates": [-83.975857,35.80957]}},
{ "type": "Feature", "properties": {"Name":"Alexandria town","State":"Tennessee","State_Abbrev":"TN"},
"geometry":{ "type": "Point", "coordinates": [-86.038092,36.079081]}},
{ "type": "Feature", "properties": {"Name":"Algood city","State":"Tennessee","State_Abbrev":"TN"},
"geometry":{ "type": "Point", "coordinates": [-85.446773,36.199964]}},
{ "type": "Feature", "properties": {"Name":"Allardt city","State":"Tennessee","State_Abbrev":"TN"},
"geometry":{ "type": "Point", "coordinates": [-84.881393,36.381087]}},
{ "type": "Feature", "properties": {"Name":"Altamont town","State":"Tennessee","State_Abbrev":"TN"},
"geometry":{ "type": "Point", "coordinates": [-85.73861,35.433855]}},
{ "type": "Feature", "properties": {"Name":"Andersonville CDP","State":"Tennessee","State_Abbrev":"TN"},
"geometry":{ "type": "Point", "coordinates": [-84.033061,36.196956]}},
{ "type": "Feature", "properties": {"Name":"Apison CDP","State":"Tennessee","State_Abbrev":"TN"},
"geometry":{ "type": "Point", "coordinates": [-85.009676,35.004854]}},
{ "type": "Feature", "properties": {"Name":"Ardmore city","State":"Tennessee","State_Abbrev":"TN"},
"geometry":{ "type": "Point", "coordinates": [-86.850713,35.004441]}},
{ "type": "Feature", "properties": {"Name":"Arlington town","State":"Tennessee","State_Abbrev":"TN"},
"geometry":{ "type": "Point", "coordinates": [-89.661149,35.252517]}},
{ "type": "Feature", "properties": {"Name":"Ashland City town","State":"Tennessee","State_Abbrev":"TN"},
"geometry":{ "type": "Point", "coordinates": [-87.032741,36.25617]}},
{ "type": "Feature", "properties": {"Name":"Athens city","State":"Tennessee","State_Abbrev":"TN"},
"geometry":{ "type": "Point", "coordinates": [-84.603753,35.457744]}},
{ "type": "Feature", "properties": {"Name":"Atoka town","State":"Tennessee","State_Abbrev":"TN"},
"geometry":{ "type": "Point", "coordinates": [-89.784414,35.425858]}},
{ "type": "Feature", "properties": {"Name":"Atwood town","State":"Tennessee","State_Abbrev":"TN"},
"geometry":{ "type": "Point", "coordinates": [-88.668898,35.974723]}},
{ "type": "Feature", "properties": {"Name":"Auburntown town","State":"Tennessee","State_Abbrev":"TN"},
"geometry":{ "type": "Point", "coordinates": [-86.093476,35.952608]}},
{ "type": "Feature", "properties": {"Name":"Baileyton town","State":"Tennessee","State_Abbrev":"TN"},
"geometry":{ "type": "Point", "coordinates": [-82.836049,36.324346]}},
{ "type": "Feature", "properties": {"Name":"Baneberry city","State":"Tennessee","State_Abbrev":"TN"},
"geometry":{ "type": "Point", "coordinates": [-83.278211,36.046375]}},
{ "type": "Feature", "properties": {"Name":"Banner Hill CDP","State":"Tennessee","State_Abbrev":"TN"},
"geometry":{ "type": "Point", "coordinates": [-82.420288,36.122261]}},
{ "type": "Feature", "properties": {"Name":"Bartlett city","State":"Tennessee","State_Abbrev":"TN"},
"geometry":{ "type": "Point", "coordinates": [-89.820266,35.234169]}},
{ "type": "Feature", "properties": {"Name":"Baxter town","State":"Tennessee","State_Abbrev":"TN"},
"geometry":{ "type": "Point", "coordinates": [-85.634922,36.153678]}},
{ "type": "Feature", "properties": {"Name":"Bean Station city","State":"Tennessee","State_Abbrev":"TN"},
"geometry":{ "type": "Point", "coordinates": [-83.28519,36.338425]}},
{ "type": "Feature", "properties": {"Name":"Beech Bluff CDP","State":"Tennessee","State_Abbrev":"TN"},
"geometry":{ "type": "Point", "coordinates": [-88.629207,35.604648]}},
{ "type": "Feature", "properties": {"Name":"Beersheba Springs town","State":"Tennessee","State_Abbrev":"TN"},
"geometry":{ "type": "Point", "coordinates": [-85.668816,35.458984]}},
{ "type": "Feature", "properties": {"Name":"Bell Buckle town","State":"Tennessee","State_Abbrev":"TN"},
"geometry":{ "type": "Point", "coordinates": [-86.353762,35.590783]}},
{ "type": "Feature", "properties": {"Name":"Belle Meade city","State":"Tennessee","State_Abbrev":"TN"},
"geometry":{ "type": "Point", "coordinates": [-86.85626,36.099441]}},
{ "type": "Feature", "properties": {"Name":"Bells city","State":"Tennessee","State_Abbrev":"TN"},
"geometry":{ "type": "Point", "coordinates": [-89.085379,35.719717]}},
{ "type": "Feature", "properties": {"Name":"Belvidere CDP","State":"Tennessee","State_Abbrev":"TN"},
"geometry":{ "type": "Point", "coordinates": [-86.188071,35.128085]}},
{ "type": "Feature", "properties": {"Name":"Benton town","State":"Tennessee","State_Abbrev":"TN"},
"geometry":{ "type": "Point", "coordinates": [-84.651709,35.174905]}},
{ "type": "Feature", "properties": {"Name":"Berry Hill city","State":"Tennessee","State_Abbrev":"TN"},
"geometry":{ "type": "Point", "coordinates": [-86.767453,36.119618]}},
{ "type": "Feature", "properties": {"Name":"Bethel Springs town","State":"Tennessee","State_Abbrev":"TN"},
"geometry":{ "type": "Point", "coordinates": [-88.613109,35.234146]}},
{ "type": "Feature", "properties": {"Name":"Bethpage CDP","State":"Tennessee","State_Abbrev":"TN"},
"geometry":{ "type": "Point", "coordinates": [-86.308523,36.484267]}},
{ "type": "Feature", "properties": {"Name":"Big Rock CDP","State":"Tennessee","State_Abbrev":"TN"},
"geometry":{ "type": "Point", "coordinates": [-87.757922,36.57663]}},
{ "type": "Feature", "properties": {"Name":"Big Sandy town","State":"Tennessee","State_Abbrev":"TN"},
"geometry":{ "type": "Point", "coordinates": [-88.085062,36.232681]}},
{ "type": "Feature", "properties": {"Name":"Biltmore CDP","State":"Tennessee","State_Abbrev":"TN"},
"geometry":{ "type": "Point", "coordinates": [-82.221133,36.368736]}},
{ "type": "Feature", "properties": {"Name":"Blaine city","State":"Tennessee","State_Abbrev":"TN"},
"geometry":{ "type": "Point", "coordinates": [-83.69554,36.144719]}},
{ "type": "Feature", "properties": {"Name":"Blanche CDP","State":"Tennessee","State_Abbrev":"TN"},
"geometry":{ "type": "Point", "coordinates": [-86.753261,35.043705]}},
{ "type": "Feature", "properties": {"Name":"Bloomingdale CDP","State":"Tennessee","State_Abbrev":"TN"},
"geometry":{ "type": "Point", "coordinates": [-82.506765,36.582269]}},
{ "type": "Feature", "properties": {"Name":"Blountville CDP","State":"Tennessee","State_Abbrev":"TN"},
"geometry":{ "type": "Point", "coordinates": [-82.32887,36.532994]}},
{ "type": "Feature", "properties": {"Name":"Bluff City city","State":"Tennessee","State_Abbrev":"TN"},
"geometry":{ "type": "Point", "coordinates": [-82.277888,36.459484]}},
{ "type": "Feature", "properties": {"Name":"Bogota CDP","State":"Tennessee","State_Abbrev":"TN"},
"geometry":{ "type": "Point", "coordinates": [-89.43898,36.162032]}},
{ "type": "Feature", "properties": {"Name":"Bolivar city","State":"Tennessee","State_Abbrev":"TN"},
"geometry":{ "type": "Point", "coordinates": [-89.011896,35.264019]}},
{ "type": "Feature", "properties": {"Name":"Bon Air CDP","State":"Tennessee","State_Abbrev":"TN"},
"geometry":{ "type": "Point", "coordinates": [-85.370127,35.933264]}},
{ "type": "Feature", "properties": {"Name":"Bon Aqua Junction CDP","State":"Tennessee","State_Abbrev":"TN"},
"geometry":{ "type": "Point", "coordinates": [-87.312356,35.928121]}},
{ "type": "Feature", "properties": {"Name":"Bowman CDP","State":"Tennessee","State_Abbrev":"TN"},
"geometry":{ "type": "Point", "coordinates": [-85.035721,36.061625]}},
{ "type": "Feature", "properties": {"Name":"Braden town","State":"Tennessee","State_Abbrev":"TN"},
"geometry":{ "type": "Point", "coordinates": [-89.571791,35.368471]}},
{ "type": "Feature", "properties": {"Name":"Bradford town","State":"Tennessee","State_Abbrev":"TN"},
"geometry":{ "type": "Point", "coordinates": [-88.81632,36.073782]}},
{ "type": "Feature", "properties": {"Name":"Bransford CDP","State":"Tennessee","State_Abbrev":"TN"},
"geometry":{ "type": "Point", "coordinates": [-86.285261,36.513296]}},
{ "type": "Feature", "properties": {"Name":"Brentwood city","State":"Tennessee","State_Abbrev":"TN"},
"geometry":{ "type": "Point", "coordinates": [-86.777625,35.994272]}},
{ "type": "Feature", "properties": {"Name":"Briceville CDP","State":"Tennessee","State_Abbrev":"TN"},
"geometry":{ "type": "Point", "coordinates": [-84.183615,36.177839]}},
{ "type": "Feature", "properties": {"Name":"Brighton town","State":"Tennessee","State_Abbrev":"TN"},
"geometry":{ "type": "Point", "coordinates": [-89.735359,35.481272]}},
{ "type": "Feature", "properties": {"Name":"Bristol city","State":"Tennessee","State_Abbrev":"TN"},
"geometry":{ "type": "Point", "coordinates": [-82.217001,36.558549]}},
{ "type": "Feature", "properties": {"Name":"Brownsville city","State":"Tennessee","State_Abbrev":"TN"},
"geometry":{ "type": "Point", "coordinates": [-89.257856,35.589036]}},
{ "type": "Feature", "properties": {"Name":"Bruceton town","State":"Tennessee","State_Abbrev":"TN"},
"geometry":{ "type": "Point", "coordinates": [-88.24657,36.034881]}},
{ "type": "Feature", "properties": {"Name":"Buchanan CDP","State":"Tennessee","State_Abbrev":"TN"},
"geometry":{ "type": "Point", "coordinates": [-88.202751,36.434018]}},
{ "type": "Feature", "properties": {"Name":"Bulls Gap town","State":"Tennessee","State_Abbrev":"TN"},
"geometry":{ "type": "Point", "coordinates": [-83.078843,36.261636]}},
{ "type": "Feature", "properties": {"Name":"Burlison town","State":"Tennessee","State_Abbrev":"TN"},
"geometry":{ "type": "Point", "coordinates": [-89.784603,35.55689]}},
{ "type": "Feature", "properties": {"Name":"Burns town","State":"Tennessee","State_Abbrev":"TN"},
"geometry":{ "type": "Point", "coordinates": [-87.298002,36.050207]}},
{ "type": "Feature", "properties": {"Name":"Butler CDP","State":"Tennessee","State_Abbrev":"TN"},
"geometry":{ "type": "Point", "coordinates": [-82.035589,36.357069]}},
{ "type": "Feature", "properties": {"Name":"Byrdstown town","State":"Tennessee","State_Abbrev":"TN"},
"geometry":{ "type": "Point", "coordinates": [-85.134193,36.573626]}},
{ "type": "Feature", "properties": {"Name":"Calhoun town","State":"Tennessee","State_Abbrev":"TN"},
"geometry":{ "type": "Point", "coordinates": [-84.741456,35.301834]}},
{ "type": "Feature", "properties": {"Name":"Camden city","State":"Tennessee","State_Abbrev":"TN"},
"geometry":{ "type": "Point", "coordinates": [-88.104609,36.066251]}},
{ "type": "Feature", "properties": {"Name":"Carthage town","State":"Tennessee","State_Abbrev":"TN"},
"geometry":{ "type": "Point", "coordinates": [-85.942885,36.256557]}},
{ "type": "Feature", "properties": {"Name":"Caryville town","State":"Tennessee","State_Abbrev":"TN"},
"geometry":{ "type": "Point", "coordinates": [-84.199713,36.311661]}},
{ "type": "Feature", "properties": {"Name":"Castalian Springs CDP","State":"Tennessee","State_Abbrev":"TN"},
"geometry":{ "type": "Point", "coordinates": [-86.306778,36.401198]}},
{ "type": "Feature", "properties": {"Name":"Cedar Hill city","State":"Tennessee","State_Abbrev":"TN"},
"geometry":{ "type": "Point", "coordinates": [-87.001252,36.551193]}},
{ "type": "Feature", "properties": {"Name":"Celina city","State":"Tennessee","State_Abbrev":"TN"},
"geometry":{ "type": "Point", "coordinates": [-85.503754,36.547611]}},
{ "type": "Feature", "properties": {"Name":"Centertown town","State":"Tennessee","State_Abbrev":"TN"},
"geometry":{ "type": "Point", "coordinates": [-85.919742,35.725116]}},
{ "type": "Feature", "properties": {"Name":"Centerville town","State":"Tennessee","State_Abbrev":"TN"},
"geometry":{ "type": "Point", "coordinates": [-87.438292,35.8262]}},
{ "type": "Feature", "properties": {"Name":"Central CDP","State":"Tennessee","State_Abbrev":"TN"},
"geometry":{ "type": "Point", "coordinates": [-82.296864,36.333803]}},
{ "type": "Feature", "properties": {"Name":"Chapel Hill town","State":"Tennessee","State_Abbrev":"TN"},
"geometry":{ "type": "Point", "coordinates": [-86.696896,35.628318]}},
{ "type": "Feature", "properties": {"Name":"Charleston city","State":"Tennessee","State_Abbrev":"TN"},
"geometry":{ "type": "Point", "coordinates": [-84.761672,35.286511]}},
{ "type": "Feature", "properties": {"Name":"Charlotte town","State":"Tennessee","State_Abbrev":"TN"},
"geometry":{ "type": "Point", "coordinates": [-87.338884,36.186136]}},
{ "type": "Feature", "properties": {"Name":"Chattanooga city","State":"Tennessee","State_Abbrev":"TN"},
"geometry":{ "type": "Point", "coordinates": [-85.248386,35.065958]}},
{ "type": "Feature", "properties": {"Name":"Chesterfield CDP","State":"Tennessee","State_Abbrev":"TN"},
"geometry":{ "type": "Point", "coordinates": [-88.266975,35.652772]}},
{ "type": "Feature", "properties": {"Name":"Chewalla CDP","State":"Tennessee","State_Abbrev":"TN"},
"geometry":{ "type": "Point", "coordinates": [-88.642673,35.020862]}},
{ "type": "Feature", "properties": {"Name":"Childers Hill CDP","State":"Tennessee","State_Abbrev":"TN"},
"geometry":{ "type": "Point", "coordinates": [-88.326711,35.081499]}},
{ "type": "Feature", "properties": {"Name":"Christiana CDP","State":"Tennessee","State_Abbrev":"TN"},
"geometry":{ "type": "Point", "coordinates": [-86.412922,35.719269]}},
{ "type": "Feature", "properties": {"Name":"Church Hill city","State":"Tennessee","State_Abbrev":"TN"},
"geometry":{ "type": "Point", "coordinates": [-82.714098,36.519626]}},
{ "type": "Feature", "properties": {"Name":"Clarkrange CDP","State":"Tennessee","State_Abbrev":"TN"},
"geometry":{ "type": "Point", "coordinates": [-85.009605,36.18572]}},
{ "type": "Feature", "properties": {"Name":"Clarksburg town","State":"Tennessee","State_Abbrev":"TN"},
"geometry":{ "type": "Point", "coordinates": [-88.393721,35.87048]}},
{ "type": "Feature", "properties": {"Name":"Clarksville city","State":"Tennessee","State_Abbrev":"TN"},
"geometry":{ "type": "Point", "coordinates": [-87.345216,36.56643]}},
{ "type": "Feature", "properties": {"Name":"Cleveland city","State":"Tennessee","State_Abbrev":"TN"},
"geometry":{ "type": "Point", "coordinates": [-84.871288,35.180044]}},
{ "type": "Feature", "properties": {"Name":"Clifton city","State":"Tennessee","State_Abbrev":"TN"},
"geometry":{ "type": "Point", "coordinates": [-87.991172,35.377286]}},
{ "type": "Feature", "properties": {"Name":"Clinton city","State":"Tennessee","State_Abbrev":"TN"},
"geometry":{ "type": "Point", "coordinates": [-84.128945,36.097338]}},
{ "type": "Feature", "properties": {"Name":"Coalfield CDP","State":"Tennessee","State_Abbrev":"TN"},
"geometry":{ "type": "Point", "coordinates": [-84.442491,36.022835]}},
{ "type": "Feature", "properties": {"Name":"Coalmont city","State":"Tennessee","State_Abbrev":"TN"},
"geometry":{ "type": "Point", "coordinates": [-85.713781,35.344173]}},
{ "type": "Feature", "properties": {"Name":"Coker Creek CDP","State":"Tennessee","State_Abbrev":"TN"},
"geometry":{ "type": "Point", "coordinates": [-84.28821,35.263214]}},
{ "type": "Feature", "properties": {"Name":"Collegedale city","State":"Tennessee","State_Abbrev":"TN"},
"geometry":{ "type": "Point", "coordinates": [-85.048799,35.052602]}},
{ "type": "Feature", "properties": {"Name":"Collierville town","State":"Tennessee","State_Abbrev":"TN"},
"geometry":{ "type": "Point", "coordinates": [-89.697076,35.048925]}},
{ "type": "Feature", "properties": {"Name":"Collinwood city","State":"Tennessee","State_Abbrev":"TN"},
"geometry":{ "type": "Point", "coordinates": [-87.744093,35.17451]}},
{ "type": "Feature", "properties": {"Name":"Colonial Heights CDP","State":"Tennessee","State_Abbrev":"TN"},
"geometry":{ "type": "Point", "coordinates": [-82.490623,36.49445]}},
{ "type": "Feature", "properties": {"Name":"Columbia city","State":"Tennessee","State_Abbrev":"TN"},
"geometry":{ "type": "Point", "coordinates": [-87.049766,35.622509]}},
{ "type": "Feature", "properties": {"Name":"Conasauga CDP","State":"Tennessee","State_Abbrev":"TN"},
"geometry":{ "type": "Point", "coordinates": [-84.727607,35.005212]}},
{ "type": "Feature", "properties": {"Name":"Cookeville city","State":"Tennessee","State_Abbrev":"TN"},
"geometry":{ "type": "Point", "coordinates": [-85.512653,36.146926]}},
{ "type": "Feature", "properties": {"Name":"Coopertown town","State":"Tennessee","State_Abbrev":"TN"},
"geometry":{ "type": "Point", "coordinates": [-86.965786,36.414238]}},
{ "type": "Feature", "properties": {"Name":"Copperhill city","State":"Tennessee","State_Abbrev":"TN"},
"geometry":{ "type": "Point", "coordinates": [-84.391339,34.998971]}},
{ "type": "Feature", "properties": {"Name":"Cornersville town","State":"Tennessee","State_Abbrev":"TN"},
"geometry":{ "type": "Point", "coordinates": [-86.858376,35.363395]}},
{ "type": "Feature", "properties": {"Name":"Cosby CDP","State":"Tennessee","State_Abbrev":"TN"},
"geometry":{ "type": "Point", "coordinates": [-83.245657,35.795132]}},
{ "type": "Feature", "properties": {"Name":"Cottage Grove town","State":"Tennessee","State_Abbrev":"TN"},
"geometry":{ "type": "Point", "coordinates": [-88.478957,36.378173]}},
{ "type": "Feature", "properties": {"Name":"Cottontown CDP","State":"Tennessee","State_Abbrev":"TN"},
"geometry":{ "type": "Point", "coordinates": [-86.533597,36.448941]}},
{ "type": "Feature", "properties": {"Name":"Counce CDP","State":"Tennessee","State_Abbrev":"TN"},
"geometry":{ "type": "Point", "coordinates": [-88.2717,35.040447]}},
{ "type": "Feature", "properties": {"Name":"Covington city","State":"Tennessee","State_Abbrev":"TN"},
"geometry":{ "type": "Point", "coordinates": [-89.648088,35.565812]}},
{ "type": "Feature", "properties": {"Name":"Cowan city","State":"Tennessee","State_Abbrev":"TN"},
"geometry":{ "type": "Point", "coordinates": [-86.014118,35.163028]}},
{ "type": "Feature", "properties": {"Name":"Crab Orchard city","State":"Tennessee","State_Abbrev":"TN"},
"geometry":{ "type": "Point", "coordinates": [-84.884714,35.906604]}},
{ "type": "Feature", "properties": {"Name":"Cross Plains city","State":"Tennessee","State_Abbrev":"TN"},
"geometry":{ "type": "Point", "coordinates": [-86.676636,36.541247]}},
{ "type": "Feature", "properties": {"Name":"Crossville city","State":"Tennessee","State_Abbrev":"TN"},
"geometry":{ "type": "Point", "coordinates": [-85.030249,35.953422]}},
{ "type": "Feature", "properties": {"Name":"Crump city","State":"Tennessee","State_Abbrev":"TN"},
"geometry":{ "type": "Point", "coordinates": [-88.346135,35.230128]}},
{ "type": "Feature", "properties": {"Name":"Cumberland City town","State":"Tennessee","State_Abbrev":"TN"},
"geometry":{ "type": "Point", "coordinates": [-87.639869,36.379739]}},
{ "type": "Feature", "properties": {"Name":"Cumberland Gap town","State":"Tennessee","State_Abbrev":"TN"},
"geometry":{ "type": "Point", "coordinates": [-83.66579,36.597415]}},
{ "type": "Feature", "properties": {"Name":"Dancyville CDP","State":"Tennessee","State_Abbrev":"TN"},
"geometry":{ "type": "Point", "coordinates": [-89.297041,35.4067]}},
{ "type": "Feature", "properties": {"Name":"Dandridge town","State":"Tennessee","State_Abbrev":"TN"},
"geometry":{ "type": "Point", "coordinates": [-83.429831,36.030124]}},
{ "type": "Feature", "properties": {"Name":"Darden CDP","State":"Tennessee","State_Abbrev":"TN"},
"geometry":{ "type": "Point", "coordinates": [-88.226111,35.638402]}},
{ "type": "Feature", "properties": {"Name":"Dayton city","State":"Tennessee","State_Abbrev":"TN"},
"geometry":{ "type": "Point", "coordinates": [-85.008652,35.495406]}},
{ "type": "Feature", "properties": {"Name":"Decatur town","State":"Tennessee","State_Abbrev":"TN"},
"geometry":{ "type": "Point", "coordinates": [-84.793319,35.529137]}},
{ "type": "Feature", "properties": {"Name":"Decaturville town","State":"Tennessee","State_Abbrev":"TN"},
"geometry":{ "type": "Point", "coordinates": [-88.11951,35.581907]}},
{ "type": "Feature", "properties": {"Name":"Decherd city","State":"Tennessee","State_Abbrev":"TN"},
"geometry":{ "type": "Point", "coordinates": [-86.074705,35.215851]}},
{ "type": "Feature", "properties": {"Name":"Delano CDP","State":"Tennessee","State_Abbrev":"TN"},
"geometry":{ "type": "Point", "coordinates": [-84.561726,35.25645]}},
{ "type": "Feature", "properties": {"Name":"Dellrose CDP","State":"Tennessee","State_Abbrev":"TN"},
"geometry":{ "type": "Point", "coordinates": [-86.80352,35.11583]}},
{ "type": "Feature", "properties": {"Name":"Dickson city","State":"Tennessee","State_Abbrev":"TN"},
"geometry":{ "type": "Point", "coordinates": [-87.368842,36.06332]}},
{ "type": "Feature", "properties": {"Name":"Dodson Branch CDP","State":"Tennessee","State_Abbrev":"TN"},
"geometry":{ "type": "Point", "coordinates": [-85.532187,36.314886]}},
{ "type": "Feature", "properties": {"Name":"Dover city","State":"Tennessee","State_Abbrev":"TN"},
"geometry":{ "type": "Point", "coordinates": [-87.843775,36.481588]}},
{ "type": "Feature", "properties": {"Name":"Dowelltown town","State":"Tennessee","State_Abbrev":"TN"},
"geometry":{ "type": "Point", "coordinates": [-85.942575,36.012509]}},
{ "type": "Feature", "properties": {"Name":"Doyle town","State":"Tennessee","State_Abbrev":"TN"},
"geometry":{ "type": "Point", "coordinates": [-85.512084,35.855273]}},
{ "type": "Feature", "properties": {"Name":"Dresden town","State":"Tennessee","State_Abbrev":"TN"},
"geometry":{ "type": "Point", "coordinates": [-88.6991,36.279924]}},
{ "type": "Feature", "properties": {"Name":"Ducktown city","State":"Tennessee","State_Abbrev":"TN"},
"geometry":{ "type": "Point", "coordinates": [-84.384832,35.036033]}},
{ "type": "Feature", "properties": {"Name":"Dukedom CDP","State":"Tennessee","State_Abbrev":"TN"},
"geometry":{ "type": "Point", "coordinates": [-88.721924,36.493955]}},
{ "type": "Feature", "properties": {"Name":"Dunlap city","State":"Tennessee","State_Abbrev":"TN"},
"geometry":{ "type": "Point", "coordinates": [-85.389828,35.36753]}},
{ "type": "Feature", "properties": {"Name":"Dyer city","State":"Tennessee","State_Abbrev":"TN"},
"geometry":{ "type": "Point", "coordinates": [-88.993923,36.071623]}},
{ "type": "Feature", "properties": {"Name":"Dyersburg city","State":"Tennessee","State_Abbrev":"TN"},
"geometry":{ "type": "Point", "coordinates": [-89.37797,36.046823]}},
{ "type": "Feature", "properties": {"Name":"Eagleton Village CDP","State":"Tennessee","State_Abbrev":"TN"},
"geometry":{ "type": "Point", "coordinates": [-83.936225,35.788178]}},
{ "type": "Feature", "properties": {"Name":"Eagleville city","State":"Tennessee","State_Abbrev":"TN"},
"geometry":{ "type": "Point", "coordinates": [-86.652341,35.738971]}},
{ "type": "Feature", "properties": {"Name":"East Cleveland CDP","State":"Tennessee","State_Abbrev":"TN"},
"geometry":{ "type": "Point", "coordinates": [-84.854087,35.152592]}},
{ "type": "Feature", "properties": {"Name":"East Ridge city","State":"Tennessee","State_Abbrev":"TN"},
"geometry":{ "type": "Point", "coordinates": [-85.228507,34.997302]}},
{ "type": "Feature", "properties": {"Name":"Eastview town","State":"Tennessee","State_Abbrev":"TN"},
"geometry":{ "type": "Point", "coordinates": [-88.551685,35.087663]}},
{ "type": "Feature", "properties": {"Name":"Elgin CDP","State":"Tennessee","State_Abbrev":"TN"},
"geometry":{ "type": "Point", "coordinates": [-84.609059,36.328397]}},
{ "type": "Feature", "properties": {"Name":"Elizabethton city","State":"Tennessee","State_Abbrev":"TN"},
"geometry":{ "type": "Point", "coordinates": [-82.2378,36.339572]}},
{ "type": "Feature", "properties": {"Name":"Elkton city","State":"Tennessee","State_Abbrev":"TN"},
"geometry":{ "type": "Point", "coordinates": [-86.895811,35.062844]}},
{ "type": "Feature", "properties": {"Name":"Embreeville CDP","State":"Tennessee","State_Abbrev":"TN"},
"geometry":{ "type": "Point", "coordinates": [-82.448926,36.175869]}},
{ "type": "Feature", "properties": {"Name":"Englewood town","State":"Tennessee","State_Abbrev":"TN"},
"geometry":{ "type": "Point", "coordinates": [-84.488274,35.422852]}},
{ "type": "Feature", "properties": {"Name":"Enville town","State":"Tennessee","State_Abbrev":"TN"},
"geometry":{ "type": "Point", "coordinates": [-88.430313,35.391056]}},
{ "type": "Feature", "properties": {"Name":"Erin city","State":"Tennessee","State_Abbrev":"TN"},
"geometry":{ "type": "Point", "coordinates": [-87.700837,36.316278]}},
{ "type": "Feature", "properties": {"Name":"Erwin town","State":"Tennessee","State_Abbrev":"TN"},
"geometry":{ "type": "Point", "coordinates": [-82.411994,36.145833]}},
{ "type": "Feature", "properties": {"Name":"Essary Springs CDP","State":"Tennessee","State_Abbrev":"TN"},
"geometry":{ "type": "Point", "coordinates": [-88.802494,35.011269]}},
{ "type": "Feature", "properties": {"Name":"Estill Springs town","State":"Tennessee","State_Abbrev":"TN"},
"geometry":{ "type": "Point", "coordinates": [-86.133745,35.259226]}},
{ "type": "Feature", "properties": {"Name":"Ethridge town","State":"Tennessee","State_Abbrev":"TN"},
"geometry":{ "type": "Point", "coordinates": [-87.301322,35.321751]}},
{ "type": "Feature", "properties": {"Name":"Etowah city","State":"Tennessee","State_Abbrev":"TN"},
"geometry":{ "type": "Point", "coordinates": [-84.5282,35.338141]}},
{ "type": "Feature", "properties": {"Name":"Eva CDP","State":"Tennessee","State_Abbrev":"TN"},
"geometry":{ "type": "Point", "coordinates": [-88.007075,36.067853]}},
{ "type": "Feature", "properties": {"Name":"Fairfield CDP","State":"Tennessee","State_Abbrev":"TN"},
"geometry":{ "type": "Point", "coordinates": [-86.342491,36.620881]}},
{ "type": "Feature", "properties": {"Name":"Fairfield Glade CDP","State":"Tennessee","State_Abbrev":"TN"},
"geometry":{ "type": "Point", "coordinates": [-84.872738,36.003783]}},
{ "type": "Feature", "properties": {"Name":"Fairgarden CDP","State":"Tennessee","State_Abbrev":"TN"},
"geometry":{ "type": "Point", "coordinates": [-83.411961,35.898225]}},
{ "type": "Feature", "properties": {"Name":"Fairmount CDP","State":"Tennessee","State_Abbrev":"TN"},
"geometry":{ "type": "Point", "coordinates": [-85.330236,35.186456]}},
{ "type": "Feature", "properties": {"Name":"Fairview city","State":"Tennessee","State_Abbrev":"TN"},
"geometry":{ "type": "Point", "coordinates": [-87.12702,35.982389]}},
{ "type": "Feature", "properties": {"Name":"Fall Branch CDP","State":"Tennessee","State_Abbrev":"TN"},
"geometry":{ "type": "Point", "coordinates": [-82.624187,36.41615]}},
{ "type": "Feature", "properties": {"Name":"Falling Water CDP","State":"Tennessee","State_Abbrev":"TN"},
"geometry":{ "type": "Point", "coordinates": [-85.259423,35.195925]}},
{ "type": "Feature", "properties": {"Name":"Farner CDP","State":"Tennessee","State_Abbrev":"TN"},
"geometry":{ "type": "Point", "coordinates": [-84.319024,35.154361]}},
{ "type": "Feature", "properties": {"Name":"Farragut town","State":"Tennessee","State_Abbrev":"TN"},
"geometry":{ "type": "Point", "coordinates": [-84.180016,35.87618]}},
{ "type": "Feature", "properties": {"Name":"Fayetteville city","State":"Tennessee","State_Abbrev":"TN"},
"geometry":{ "type": "Point", "coordinates": [-86.563478,35.148964]}},
{ "type": "Feature", "properties": {"Name":"Fincastle CDP","State":"Tennessee","State_Abbrev":"TN"},
"geometry":{ "type": "Point", "coordinates": [-84.047922,36.403811]}},
{ "type": "Feature", "properties": {"Name":"Finger city","State":"Tennessee","State_Abbrev":"TN"},
"geometry":{ "type": "Point", "coordinates": [-88.616995,35.357019]}},
{ "type": "Feature", "properties": {"Name":"Finley CDP","State":"Tennessee","State_Abbrev":"TN"},
"geometry":{ "type": "Point", "coordinates": [-89.479891,36.035723]}},
{ "type": "Feature", "properties": {"Name":"Flat Top Mountain CDP","State":"Tennessee","State_Abbrev":"TN"},
"geometry":{ "type": "Point", "coordinates": [-85.200046,35.331901]}},
{ "type": "Feature", "properties": {"Name":"Flintville CDP","State":"Tennessee","State_Abbrev":"TN"},
"geometry":{ "type": "Point", "coordinates": [-86.416468,35.060165]}},
{ "type": "Feature", "properties": {"Name":"Forest Hills city","State":"Tennessee","State_Abbrev":"TN"},
"geometry":{ "type": "Point", "coordinates": [-86.83623,36.069968]}},
{ "type": "Feature", "properties": {"Name":"Fowlkes CDP","State":"Tennessee","State_Abbrev":"TN"},
"geometry":{ "type": "Point", "coordinates": [-89.387933,35.971969]}},
{ "type": "Feature", "properties": {"Name":"Frankewing CDP","State":"Tennessee","State_Abbrev":"TN"},
"geometry":{ "type": "Point", "coordinates": [-86.856838,35.194433]}},
{ "type": "Feature", "properties": {"Name":"Franklin city","State":"Tennessee","State_Abbrev":"TN"},
"geometry":{ "type": "Point", "coordinates": [-86.852161,35.914025]}},
{ "type": "Feature", "properties": {"Name":"Friendship city","State":"Tennessee","State_Abbrev":"TN"},
"geometry":{ "type": "Point", "coordinates": [-89.241445,35.908436]}},
{ "type": "Feature", "properties": {"Name":"Friendsville city","State":"Tennessee","State_Abbrev":"TN"},
"geometry":{ "type": "Point", "coordinates": [-84.131961,35.756353]}},
{ "type": "Feature", "properties": {"Name":"Gadsden town","State":"Tennessee","State_Abbrev":"TN"},
"geometry":{ "type": "Point", "coordinates": [-88.986126,35.776782]}},
{ "type": "Feature", "properties": {"Name":"Gainesboro town","State":"Tennessee","State_Abbrev":"TN"},
"geometry":{ "type": "Point", "coordinates": [-85.64868,36.363219]}},
{ "type": "Feature", "properties": {"Name":"Gallatin city","State":"Tennessee","State_Abbrev":"TN"},
"geometry":{ "type": "Point", "coordinates": [-86.467542,36.379414]}},
{ "type": "Feature", "properties": {"Name":"Gallaway city","State":"Tennessee","State_Abbrev":"TN"},
"geometry":{ "type": "Point", "coordinates": [-89.608146,35.322247]}},
{ "type": "Feature", "properties": {"Name":"Garland town","State":"Tennessee","State_Abbrev":"TN"},
"geometry":{ "type": "Point", "coordinates": [-89.753096,35.587779]}},
{ "type": "Feature", "properties": {"Name":"Gates town","State":"Tennessee","State_Abbrev":"TN"},
"geometry":{ "type": "Point", "coordinates": [-89.408085,35.840544]}},
{ "type": "Feature", "properties": {"Name":"Gatlinburg city","State":"Tennessee","State_Abbrev":"TN"},
"geometry":{ "type": "Point", "coordinates": [-83.493805,35.724979]}},
{ "type": "Feature", "properties": {"Name":"Germantown city","State":"Tennessee","State_Abbrev":"TN"},
"geometry":{ "type": "Point", "coordinates": [-89.782584,35.081957]}},
{ "type": "Feature", "properties": {"Name":"Gibson town","State":"Tennessee","State_Abbrev":"TN"},
"geometry":{ "type": "Point", "coordinates": [-88.843905,35.874289]}},
{ "type": "Feature", "properties": {"Name":"Gilt Edge city","State":"Tennessee","State_Abbrev":"TN"},
"geometry":{ "type": "Point", "coordinates": [-89.830734,35.534074]}},
{ "type": "Feature", "properties": {"Name":"Gladeville CDP","State":"Tennessee","State_Abbrev":"TN"},
"geometry":{ "type": "Point", "coordinates": [-86.431547,36.115741]}},
{ "type": "Feature", "properties": {"Name":"Gleason town","State":"Tennessee","State_Abbrev":"TN"},
"geometry":{ "type": "Point", "coordinates": [-88.610668,36.217382]}},
{ "type": "Feature", "properties": {"Name":"Goodlettsville city","State":"Tennessee","State_Abbrev":"TN"},
"geometry":{ "type": "Point", "coordinates": [-86.704229,36.33303]}},
{ "type": "Feature", "properties": {"Name":"Gordonsville town","State":"Tennessee","State_Abbrev":"TN"},
"geometry":{ "type": "Point", "coordinates": [-85.93149,36.186129]}},
{ "type": "Feature", "properties": {"Name":"Graball CDP","State":"Tennessee","State_Abbrev":"TN"},
"geometry":{ "type": "Point", "coordinates": [-86.43953,36.4837]}},
{ "type": "Feature", "properties": {"Name":"Grand Junction city","State":"Tennessee","State_Abbrev":"TN"},
"geometry":{ "type": "Point", "coordinates": [-89.188862,35.049955]}},
{ "type": "Feature", "properties": {"Name":"Gray CDP","State":"Tennessee","State_Abbrev":"TN"},
"geometry":{ "type": "Point", "coordinates": [-82.476467,36.421146]}},
{ "type": "Feature", "properties": {"Name":"Graysville town","State":"Tennessee","State_Abbrev":"TN"},
"geometry":{ "type": "Point", "coordinates": [-85.076359,35.449332]}},
{ "type": "Feature", "properties": {"Name":"Greenback city","State":"Tennessee","State_Abbrev":"TN"},
"geometry":{ "type": "Point", "coordinates": [-84.168215,35.64742]}},
{ "type": "Feature", "properties": {"Name":"Greenbrier town","State":"Tennessee","State_Abbrev":"TN"},
"geometry":{ "type": "Point", "coordinates": [-86.790152,36.421563]}},
{ "type": "Feature", "properties": {"Name":"Greeneville town","State":"Tennessee","State_Abbrev":"TN"},
"geometry":{ "type": "Point", "coordinates": [-82.819669,36.168016]}},
{ "type": "Feature", "properties": {"Name":"Greenfield city","State":"Tennessee","State_Abbrev":"TN"},
"geometry":{ "type": "Point", "coordinates": [-88.807279,36.165098]}},
{ "type": "Feature", "properties": {"Name":"Green Hill CDP","State":"Tennessee","State_Abbrev":"TN"},
"geometry":{ "type": "Point", "coordinates": [-86.573154,36.232132]}},
{ "type": "Feature", "properties": {"Name":"Greenvale CDP","State":"Tennessee","State_Abbrev":"TN"},
"geometry":{ "type": "Point", "coordinates": [-86.201211,36.005486]}},
{ "type": "Feature", "properties": {"Name":"Griffith Creek CDP","State":"Tennessee","State_Abbrev":"TN"},
"geometry":{ "type": "Point", "coordinates": [-85.53603,35.276049]}},
{ "type": "Feature", "properties": {"Name":"Grimsley CDP","State":"Tennessee","State_Abbrev":"TN"},
"geometry":{ "type": "Point", "coordinates": [-84.996942,36.276069]}},
{ "type": "Feature", "properties": {"Name":"Gruetli-Laager city","State":"Tennessee","State_Abbrev":"TN"},
"geometry":{ "type": "Point", "coordinates": [-85.637403,35.372571]}},
{ "type": "Feature", "properties": {"Name":"Guys town","State":"Tennessee","State_Abbrev":"TN"},
"geometry":{ "type": "Point", "coordinates": [-88.534949,35.01518]}},
{ "type": "Feature", "properties": {"Name":"Halls CDP","State":"Tennessee","State_Abbrev":"TN"},
"geometry":{ "type": "Point", "coordinates": [-83.934383,36.081676]}},
{ "type": "Feature", "properties": {"Name":"Halls town","State":"Tennessee","State_Abbrev":"TN"},
"geometry":{ "type": "Point", "coordinates": [-89.408713,35.881052]}},
{ "type": "Feature", "properties": {"Name":"Hampton CDP","State":"Tennessee","State_Abbrev":"TN"},
"geometry":{ "type": "Point", "coordinates": [-82.172789,36.277252]}},
{ "type": "Feature", "properties": {"Name":"Harriman city","State":"Tennessee","State_Abbrev":"TN"},
"geometry":{ "type": "Point", "coordinates": [-84.562583,35.930378]}},
{ "type": "Feature", "properties": {"Name":"Harrison CDP","State":"Tennessee","State_Abbrev":"TN"},
"geometry":{ "type": "Point", "coordinates": [-85.147132,35.125044]}},
{ "type": "Feature", "properties": {"Name":"Harrogate city","State":"Tennessee","State_Abbrev":"TN"},
"geometry":{ "type": "Point", "coordinates": [-83.646164,36.575228]}},
{ "type": "Feature", "properties": {"Name":"Hartsville/Trousdale County","State":"Tennessee","State_Abbrev":"TN"},
"geometry":{ "type": "Point", "coordinates": [-86.156691,36.39303]}},
{ "type": "Feature", "properties": {"Name":"Helenwood CDP","State":"Tennessee","State_Abbrev":"TN"},
"geometry":{ "type": "Point", "coordinates": [-84.553351,36.434203]}},
{ "type": "Feature", "properties": {"Name":"Henderson city","State":"Tennessee","State_Abbrev":"TN"},
"geometry":{ "type": "Point", "coordinates": [-88.656556,35.443074]}},
{ "type": "Feature", "properties": {"Name":"Hendersonville city","State":"Tennessee","State_Abbrev":"TN"},
"geometry":{ "type": "Point", "coordinates": [-86.598891,36.307294]}},
{ "type": "Feature", "properties": {"Name":"Henning town","State":"Tennessee","State_Abbrev":"TN"},
"geometry":{ "type": "Point", "coordinates": [-89.574329,35.68457]}},
{ "type": "Feature", "properties": {"Name":"Henry town","State":"Tennessee","State_Abbrev":"TN"},
"geometry":{ "type": "Point", "coordinates": [-88.411367,36.201105]}},
{ "type": "Feature", "properties": {"Name":"Hickman CDP","State":"Tennessee","State_Abbrev":"TN"},
"geometry":{ "type": "Point", "coordinates": [-85.941235,36.14518]}},
{ "type": "Feature", "properties": {"Name":"Hickory Valley town","State":"Tennessee","State_Abbrev":"TN"},
"geometry":{ "type": "Point", "coordinates": [-89.125983,35.154904]}},
{ "type": "Feature", "properties": {"Name":"Hilham CDP","State":"Tennessee","State_Abbrev":"TN"},
"geometry":{ "type": "Point", "coordinates": [-85.442069,36.410002]}},
{ "type": "Feature", "properties": {"Name":"Hillsboro CDP","State":"Tennessee","State_Abbrev":"TN"},
"geometry":{ "type": "Point", "coordinates": [-85.954094,35.404432]}},
{ "type": "Feature", "properties": {"Name":"Hohenwald city","State":"Tennessee","State_Abbrev":"TN"},
"geometry":{ "type": "Point", "coordinates": [-87.553916,35.551503]}},
{ "type": "Feature", "properties": {"Name":"Holladay CDP","State":"Tennessee","State_Abbrev":"TN"},
"geometry":{ "type": "Point", "coordinates": [-88.144936,35.87195]}},
{ "type": "Feature", "properties": {"Name":"Hollow Rock town","State":"Tennessee","State_Abbrev":"TN"},
"geometry":{ "type": "Point", "coordinates": [-88.269207,36.035346]}},
{ "type": "Feature", "properties": {"Name":"Hopewell CDP","State":"Tennessee","State_Abbrev":"TN"},
"geometry":{ "type": "Point", "coordinates": [-84.913871,35.238816]}},
{ "type": "Feature", "properties": {"Name":"Hornbeak town","State":"Tennessee","State_Abbrev":"TN"},
"geometry":{ "type": "Point", "coordinates": [-89.298254,36.335148]}},
{ "type": "Feature", "properties": {"Name":"Hornsby town","State":"Tennessee","State_Abbrev":"TN"},
"geometry":{ "type": "Point", "coordinates": [-88.829619,35.22871]}},
{ "type": "Feature", "properties": {"Name":"Humboldt city","State":"Tennessee","State_Abbrev":"TN"},
"geometry":{ "type": "Point", "coordinates": [-88.904477,35.827395]}},
{ "type": "Feature", "properties": {"Name":"Hunter CDP","State":"Tennessee","State_Abbrev":"TN"},
"geometry":{ "type": "Point", "coordinates": [-82.150553,36.401915]}},
{ "type": "Feature", "properties": {"Name":"Huntingdon town","State":"Tennessee","State_Abbrev":"TN"},
"geometry":{ "type": "Point", "coordinates": [-88.41725,36.006102]}},
{ "type": "Feature", "properties": {"Name":"Huntland town","State":"Tennessee","State_Abbrev":"TN"},
"geometry":{ "type": "Point", "coordinates": [-86.268927,35.057884]}},
{ "type": "Feature", "properties": {"Name":"Huntsville town","State":"Tennessee","State_Abbrev":"TN"},
"geometry":{ "type": "Point", "coordinates": [-84.509846,36.41766]}},
{ "type": "Feature", "properties": {"Name":"Huron CDP","State":"Tennessee","State_Abbrev":"TN"},
"geometry":{ "type": "Point", "coordinates": [-88.536041,35.593505]}},
{ "type": "Feature", "properties": {"Name":"Iron City CDP","State":"Tennessee","State_Abbrev":"TN"},
"geometry":{ "type": "Point", "coordinates": [-87.585468,35.022616]}},
{ "type": "Feature", "properties": {"Name":"Jacksboro town","State":"Tennessee","State_Abbrev":"TN"},
"geometry":{ "type": "Point", "coordinates": [-84.192679,36.335164]}},
{ "type": "Feature", "properties": {"Name":"Jacks Creek CDP","State":"Tennessee","State_Abbrev":"TN"},
"geometry":{ "type": "Point", "coordinates": [-88.514578,35.469125]}},
{ "type": "Feature", "properties": {"Name":"Jackson city","State":"Tennessee","State_Abbrev":"TN"},
"geometry":{ "type": "Point", "coordinates": [-88.834972,35.654148]}},
{ "type": "Feature", "properties": {"Name":"Jamestown city","State":"Tennessee","State_Abbrev":"TN"},
"geometry":{ "type": "Point", "coordinates": [-84.932748,36.430977]}},
{ "type": "Feature", "properties": {"Name":"Jasper town","State":"Tennessee","State_Abbrev":"TN"},
"geometry":{ "type": "Point", "coordinates": [-85.621162,35.068255]}},
{ "type": "Feature", "properties": {"Name":"Jefferson City city","State":"Tennessee","State_Abbrev":"TN"},
"geometry":{ "type": "Point", "coordinates": [-83.483318,36.120803]}},
{ "type": "Feature", "properties": {"Name":"Jellico city","State":"Tennessee","State_Abbrev":"TN"},
"geometry":{ "type": "Point", "coordinates": [-84.116199,36.571562]}},
{ "type": "Feature", "properties": {"Name":"John Sevier CDP","State":"Tennessee","State_Abbrev":"TN"},
"geometry":{ "type": "Point", "coordinates": [-83.825769,36.037947]}},
{ "type": "Feature", "properties": {"Name":"Johnson City city","State":"Tennessee","State_Abbrev":"TN"},
"geometry":{ "type": "Point", "coordinates": [-82.380915,36.342325]}},
{ "type": "Feature", "properties": {"Name":"Jonesborough town","State":"Tennessee","State_Abbrev":"TN"},
"geometry":{ "type": "Point", "coordinates": [-82.476309,36.295969]}},
{ "type": "Feature", "properties": {"Name":"Kahite CDP","State":"Tennessee","State_Abbrev":"TN"},
"geometry":{ "type": "Point", "coordinates": [-84.236464,35.568689]}},
{ "type": "Feature", "properties": {"Name":"Karns CDP","State":"Tennessee","State_Abbrev":"TN"},
"geometry":{ "type": "Point", "coordinates": [-84.109135,35.977788]}},
{ "type": "Feature", "properties": {"Name":"Kenton town","State":"Tennessee","State_Abbrev":"TN"},
"geometry":{ "type": "Point", "coordinates": [-89.01802,36.202189]}},
{ "type": "Feature", "properties": {"Name":"Kimball town","State":"Tennessee","State_Abbrev":"TN"},
"geometry":{ "type": "Point", "coordinates": [-85.674015,35.0469]}},
{ "type": "Feature", "properties": {"Name":"Kingsport city","State":"Tennessee","State_Abbrev":"TN"},
"geometry":{ "type": "Point", "coordinates": [-82.54464,36.519894]}},
{ "type": "Feature", "properties": {"Name":"Kingston city","State":"Tennessee","State_Abbrev":"TN"},
"geometry":{ "type": "Point", "coordinates": [-84.504486,35.872669]}},
{ "type": "Feature", "properties": {"Name":"Kingston Springs town","State":"Tennessee","State_Abbrev":"TN"},
"geometry":{ "type": "Point", "coordinates": [-87.108965,36.081868]}},
{ "type": "Feature", "properties": {"Name":"Knoxville city","State":"Tennessee","State_Abbrev":"TN"},
"geometry":{ "type": "Point", "coordinates": [-83.94927,35.97068]}},
{ "type": "Feature", "properties": {"Name":"Lafayette city","State":"Tennessee","State_Abbrev":"TN"},
"geometry":{ "type": "Point", "coordinates": [-86.030593,36.524047]}},
{ "type": "Feature", "properties": {"Name":"La Follette city","State":"Tennessee","State_Abbrev":"TN"},
"geometry":{ "type": "Point", "coordinates": [-84.125649,36.371716]}},
{ "type": "Feature", "properties": {"Name":"La Grange town","State":"Tennessee","State_Abbrev":"TN"},
"geometry":{ "type": "Point", "coordinates": [-89.24087,35.04765]}},
{ "type": "Feature", "properties": {"Name":"Lakeland city","State":"Tennessee","State_Abbrev":"TN"},
"geometry":{ "type": "Point", "coordinates": [-89.724981,35.26283]}},
{ "type": "Feature", "properties": {"Name":"Lakesite city","State":"Tennessee","State_Abbrev":"TN"},
"geometry":{ "type": "Point", "coordinates": [-85.141238,35.202719]}},
{ "type": "Feature", "properties": {"Name":"Lake Tansi CDP","State":"Tennessee","State_Abbrev":"TN"},
"geometry":{ "type": "Point", "coordinates": [-85.060577,35.870276]}},
{ "type": "Feature", "properties": {"Name":"Lakewood Park CDP","State":"Tennessee","State_Abbrev":"TN"},
"geometry":{ "type": "Point", "coordinates": [-86.135366,35.648635]}},
{ "type": "Feature", "properties": {"Name":"La Vergne city","State":"Tennessee","State_Abbrev":"TN"},
"geometry":{ "type": "Point", "coordinates": [-86.559384,36.022237]}},
{ "type": "Feature", "properties": {"Name":"Lavinia CDP","State":"Tennessee","State_Abbrev":"TN"},
"geometry":{ "type": "Point", "coordinates": [-88.652683,35.850834]}},
{ "type": "Feature", "properties": {"Name":"Lawrenceburg city","State":"Tennessee","State_Abbrev":"TN"},
"geometry":{ "type": "Point", "coordinates": [-87.332502,35.249713]}},
{ "type": "Feature", "properties": {"Name":"Lebanon city","State":"Tennessee","State_Abbrev":"TN"},
"geometry":{ "type": "Point", "coordinates": [-86.345532,36.205203]}},
{ "type": "Feature", "properties": {"Name":"Lenoir City city","State":"Tennessee","State_Abbrev":"TN"},
"geometry":{ "type": "Point", "coordinates": [-84.283015,35.815836]}},
{ "type": "Feature", "properties": {"Name":"Lenox CDP","State":"Tennessee","State_Abbrev":"TN"},
"geometry":{ "type": "Point", "coordinates": [-89.497252,36.087644]}},
{ "type": "Feature", "properties": {"Name":"Leoma CDP","State":"Tennessee","State_Abbrev":"TN"},
"geometry":{ "type": "Point", "coordinates": [-87.346502,35.158146]}},
{ "type": "Feature", "properties": {"Name":"Lewisburg city","State":"Tennessee","State_Abbrev":"TN"},
"geometry":{ "type": "Point", "coordinates": [-86.79071,35.451575]}},
{ "type": "Feature", "properties": {"Name":"Lexington city","State":"Tennessee","State_Abbrev":"TN"},
"geometry":{ "type": "Point", "coordinates": [-88.375313,35.642128]}},
{ "type": "Feature", "properties": {"Name":"Liberty town","State":"Tennessee","State_Abbrev":"TN"},
"geometry":{ "type": "Point", "coordinates": [-85.977845,36.004547]}},
{ "type": "Feature", "properties": {"Name":"Linden town","State":"Tennessee","State_Abbrev":"TN"},
"geometry":{ "type": "Point", "coordinates": [-87.843017,35.612269]}},
{ "type": "Feature", "properties": {"Name":"Livingston town","State":"Tennessee","State_Abbrev":"TN"},
"geometry":{ "type": "Point", "coordinates": [-85.326101,36.386637]}},
{ "type": "Feature", "properties": {"Name":"Lobelville city","State":"Tennessee","State_Abbrev":"TN"},
"geometry":{ "type": "Point", "coordinates": [-87.797505,35.751653]}},
{ "type": "Feature", "properties": {"Name":"Lone Oak CDP","State":"Tennessee","State_Abbrev":"TN"},
"geometry":{ "type": "Point", "coordinates": [-85.368479,35.200757]}},
{ "type": "Feature", "properties": {"Name":"Lookout Mountain town","State":"Tennessee","State_Abbrev":"TN"},
"geometry":{ "type": "Point", "coordinates": [-85.351577,34.994485]}},
{ "type": "Feature", "properties": {"Name":"Loretto city","State":"Tennessee","State_Abbrev":"TN"},
"geometry":{ "type": "Point", "coordinates": [-87.439456,35.080967]}},
{ "type": "Feature", "properties": {"Name":"Loudon city","State":"Tennessee","State_Abbrev":"TN"},
"geometry":{ "type": "Point", "coordinates": [-84.362102,35.737244]}},
{ "type": "Feature", "properties": {"Name":"Louisville city","State":"Tennessee","State_Abbrev":"TN"},
"geometry":{ "type": "Point", "coordinates": [-84.052653,35.82269]}},
{ "type": "Feature", "properties": {"Name":"Luray CDP","State":"Tennessee","State_Abbrev":"TN"},
"geometry":{ "type": "Point", "coordinates": [-88.570246,35.601704]}},
{ "type": "Feature", "properties": {"Name":"Luttrell town","State":"Tennessee","State_Abbrev":"TN"},
"geometry":{ "type": "Point", "coordinates": [-83.748494,36.209619]}},
{ "type": "Feature", "properties": {"Name":"Lyles CDP","State":"Tennessee","State_Abbrev":"TN"},
"geometry":{ "type": "Point", "coordinates": [-87.344979,35.919496]}},
{ "type": "Feature", "properties": {"Name":"Lynchburg, Moore County metropolitan government","State":"Tennessee","State_Abbrev":"TN"},
"geometry":{ "type": "Point", "coordinates": [-86.358684,35.288888]}},
{ "type": "Feature", "properties": {"Name":"Lynnville town","State":"Tennessee","State_Abbrev":"TN"},
"geometry":{ "type": "Point", "coordinates": [-87.005437,35.378104]}},
{ "type": "Feature", "properties": {"Name":"McDonald CDP","State":"Tennessee","State_Abbrev":"TN"},
"geometry":{ "type": "Point", "coordinates": [-84.985289,35.108782]}},
{ "type": "Feature", "properties": {"Name":"McEwen city","State":"Tennessee","State_Abbrev":"TN"},
"geometry":{ "type": "Point", "coordinates": [-87.635517,36.109837]}},
{ "type": "Feature", "properties": {"Name":"McKenzie city","State":"Tennessee","State_Abbrev":"TN"},
"geometry":{ "type": "Point", "coordinates": [-88.507107,36.136643]}},
{ "type": "Feature", "properties": {"Name":"McLemoresville town","State":"Tennessee","State_Abbrev":"TN"},
"geometry":{ "type": "Point", "coordinates": [-88.580123,35.98625]}},
{ "type": "Feature", "properties": {"Name":"McMinnville city","State":"Tennessee","State_Abbrev":"TN"},
"geometry":{ "type": "Point", "coordinates": [-85.781219,35.686302]}},
{ "type": "Feature", "properties": {"Name":"Madisonville city","State":"Tennessee","State_Abbrev":"TN"},
"geometry":{ "type": "Point", "coordinates": [-84.362972,35.523204]}},
{ "type": "Feature", "properties": {"Name":"Manchester city","State":"Tennessee","State_Abbrev":"TN"},
"geometry":{ "type": "Point", "coordinates": [-86.072895,35.464125]}},
{ "type": "Feature", "properties": {"Name":"Martin city","State":"Tennessee","State_Abbrev":"TN"},
"geometry":{ "type": "Point", "coordinates": [-88.851365,36.337885]}},
{ "type": "Feature", "properties": {"Name":"Maryville city","State":"Tennessee","State_Abbrev":"TN"},
"geometry":{ "type": "Point", "coordinates": [-83.978816,35.746803]}},
{ "type": "Feature", "properties": {"Name":"Mascot CDP","State":"Tennessee","State_Abbrev":"TN"},
"geometry":{ "type": "Point", "coordinates": [-83.763913,36.068731]}},
{ "type": "Feature", "properties": {"Name":"Mason town","State":"Tennessee","State_Abbrev":"TN"},
"geometry":{ "type": "Point", "coordinates": [-89.541212,35.412826]}},
{ "type": "Feature", "properties": {"Name":"Maury City town","State":"Tennessee","State_Abbrev":"TN"},
"geometry":{ "type": "Point", "coordinates": [-89.223868,35.814475]}},
{ "type": "Feature", "properties": {"Name":"Mayland CDP","State":"Tennessee","State_Abbrev":"TN"},
"geometry":{ "type": "Point", "coordinates": [-85.20694,36.045896]}},
{ "type": "Feature", "properties": {"Name":"Maynardville city","State":"Tennessee","State_Abbrev":"TN"},
"geometry":{ "type": "Point", "coordinates": [-83.805677,36.246953]}},
{ "type": "Feature", "properties": {"Name":"Medina city","State":"Tennessee","State_Abbrev":"TN"},
"geometry":{ "type": "Point", "coordinates": [-88.790458,35.817047]}},
{ "type": "Feature", "properties": {"Name":"Medon city","State":"Tennessee","State_Abbrev":"TN"},
"geometry":{ "type": "Point", "coordinates": [-88.862651,35.452075]}},
{ "type": "Feature", "properties": {"Name":"Memphis city","State":"Tennessee","State_Abbrev":"TN"},
"geometry":{ "type": "Point", "coordinates": [-89.967455,35.109026]}},
{ "type": "Feature", "properties": {"Name":"Mercer CDP","State":"Tennessee","State_Abbrev":"TN"},
"geometry":{ "type": "Point", "coordinates": [-89.039372,35.474523]}},
{ "type": "Feature", "properties": {"Name":"Michie town","State":"Tennessee","State_Abbrev":"TN"},
"geometry":{ "type": "Point", "coordinates": [-88.425713,35.060432]}},
{ "type": "Feature", "properties": {"Name":"Middleton city","State":"Tennessee","State_Abbrev":"TN"},
"geometry":{ "type": "Point", "coordinates": [-88.89418,35.06932]}},
{ "type": "Feature", "properties": {"Name":"Middle Valley CDP","State":"Tennessee","State_Abbrev":"TN"},
"geometry":{ "type": "Point", "coordinates": [-85.197462,35.190745]}},
{ "type": "Feature", "properties": {"Name":"Midtown CDP","State":"Tennessee","State_Abbrev":"TN"},
"geometry":{ "type": "Point", "coordinates": [-84.574772,35.88033]}},
{ "type": "Feature", "properties": {"Name":"Milan city","State":"Tennessee","State_Abbrev":"TN"},
"geometry":{ "type": "Point", "coordinates": [-88.753963,35.91203]}},
{ "type": "Feature", "properties": {"Name":"Milledgeville town","State":"Tennessee","State_Abbrev":"TN"},
"geometry":{ "type": "Point", "coordinates": [-88.366061,35.377598]}},
{ "type": "Feature", "properties": {"Name":"Millersville city","State":"Tennessee","State_Abbrev":"TN"},
"geometry":{ "type": "Point", "coordinates": [-86.71105,36.396817]}},
{ "type": "Feature", "properties": {"Name":"Millington city","State":"Tennessee","State_Abbrev":"TN"},
"geometry":{ "type": "Point", "coordinates": [-89.899539,35.333714]}},
{ "type": "Feature", "properties": {"Name":"Minor Hill city","State":"Tennessee","State_Abbrev":"TN"},
"geometry":{ "type": "Point", "coordinates": [-87.160722,35.056619]}},
{ "type": "Feature", "properties": {"Name":"Miston CDP","State":"Tennessee","State_Abbrev":"TN"},
"geometry":{ "type": "Point", "coordinates": [-89.494007,36.160409]}},
{ "type": "Feature", "properties": {"Name":"Mitchellville city","State":"Tennessee","State_Abbrev":"TN"},
"geometry":{ "type": "Point", "coordinates": [-86.539957,36.634345]}},
{ "type": "Feature", "properties": {"Name":"Monteagle town","State":"Tennessee","State_Abbrev":"TN"},
"geometry":{ "type": "Point", "coordinates": [-85.850242,35.235845]}},
{ "type": "Feature", "properties": {"Name":"Monterey town","State":"Tennessee","State_Abbrev":"TN"},
"geometry":{ "type": "Point", "coordinates": [-85.264271,36.144623]}},
{ "type": "Feature", "properties": {"Name":"Mooresburg CDP","State":"Tennessee","State_Abbrev":"TN"},
"geometry":{ "type": "Point", "coordinates": [-83.235197,36.350737]}},
{ "type": "Feature", "properties": {"Name":"Morris Chapel CDP","State":"Tennessee","State_Abbrev":"TN"},
"geometry":{ "type": "Point", "coordinates": [-88.355796,35.313929]}},
{ "type": "Feature", "properties": {"Name":"Morrison town","State":"Tennessee","State_Abbrev":"TN"},
"geometry":{ "type": "Point", "coordinates": [-85.907448,35.607118]}},
{ "type": "Feature", "properties": {"Name":"Morristown city","State":"Tennessee","State_Abbrev":"TN"},
"geometry":{ "type": "Point", "coordinates": [-83.300032,36.204351]}},
{ "type": "Feature", "properties": {"Name":"Moscow city","State":"Tennessee","State_Abbrev":"TN"},
"geometry":{ "type": "Point", "coordinates": [-89.382277,35.062418]}},
{ "type": "Feature", "properties": {"Name":"Mosheim town","State":"Tennessee","State_Abbrev":"TN"},
"geometry":{ "type": "Point", "coordinates": [-82.965833,36.195641]}},
{ "type": "Feature", "properties": {"Name":"Mountain City town","State":"Tennessee","State_Abbrev":"TN"},
"geometry":{ "type": "Point", "coordinates": [-81.804891,36.469565]}},
{ "type": "Feature", "properties": {"Name":"Mount Carmel town","State":"Tennessee","State_Abbrev":"TN"},
"geometry":{ "type": "Point", "coordinates": [-82.66777,36.564875]}},
{ "type": "Feature", "properties": {"Name":"Mount Juliet city","State":"Tennessee","State_Abbrev":"TN"},
"geometry":{ "type": "Point", "coordinates": [-86.509489,36.1992]}},
{ "type": "Feature", "properties": {"Name":"Mount Pleasant city","State":"Tennessee","State_Abbrev":"TN"},
"geometry":{ "type": "Point", "coordinates": [-87.186928,35.54815]}},
{ "type": "Feature", "properties": {"Name":"Mowbray Mountain CDP","State":"Tennessee","State_Abbrev":"TN"},
"geometry":{ "type": "Point", "coordinates": [-85.222552,35.275117]}},
{ "type": "Feature", "properties": {"Name":"Munford city","State":"Tennessee","State_Abbrev":"TN"},
"geometry":{ "type": "Point", "coordinates": [-89.815922,35.442869]}},
{ "type": "Feature", "properties": {"Name":"Murfreesboro city","State":"Tennessee","State_Abbrev":"TN"},
"geometry":{ "type": "Point", "coordinates": [-86.421224,35.853915]}},
{ "type": "Feature", "properties": {"Name":"Nashville-Davidson metropolitan government (balance)","State":"Tennessee","State_Abbrev":"TN"},
"geometry":{ "type": "Point", "coordinates": [-86.785002,36.1718]}},
{ "type": "Feature", "properties": {"Name":"Newbern town","State":"Tennessee","State_Abbrev":"TN"},
"geometry":{ "type": "Point", "coordinates": [-89.271363,36.116881]}},
{ "type": "Feature", "properties": {"Name":"New Deal CDP","State":"Tennessee","State_Abbrev":"TN"},
"geometry":{ "type": "Point", "coordinates": [-86.562867,36.513864]}},
{ "type": "Feature", "properties": {"Name":"New Hope city","State":"Tennessee","State_Abbrev":"TN"},
"geometry":{ "type": "Point", "coordinates": [-85.668442,34.999428]}},
{ "type": "Feature", "properties": {"Name":"New Johnsonville city","State":"Tennessee","State_Abbrev":"TN"},
"geometry":{ "type": "Point", "coordinates": [-87.969457,36.016466]}},
{ "type": "Feature", "properties": {"Name":"New Market town","State":"Tennessee","State_Abbrev":"TN"},
"geometry":{ "type": "Point", "coordinates": [-83.557037,36.095522]}},
{ "type": "Feature", "properties": {"Name":"Newport city","State":"Tennessee","State_Abbrev":"TN"},
"geometry":{ "type": "Point", "coordinates": [-83.197624,35.961624]}},
{ "type": "Feature", "properties": {"Name":"New Tazewell town","State":"Tennessee","State_Abbrev":"TN"},
"geometry":{ "type": "Point", "coordinates": [-83.60521,36.438127]}},
{ "type": "Feature", "properties": {"Name":"New Union CDP","State":"Tennessee","State_Abbrev":"TN"},
"geometry":{ "type": "Point", "coordinates": [-86.083241,35.533951]}},
{ "type": "Feature", "properties": {"Name":"Niota city","State":"Tennessee","State_Abbrev":"TN"},
"geometry":{ "type": "Point", "coordinates": [-84.549854,35.517166]}},
{ "type": "Feature", "properties": {"Name":"Nixon CDP","State":"Tennessee","State_Abbrev":"TN"},
"geometry":{ "type": "Point", "coordinates": [-88.258227,35.11479]}},
{ "type": "Feature", "properties": {"Name":"Nolensville town","State":"Tennessee","State_Abbrev":"TN"},
"geometry":{ "type": "Point", "coordinates": [-86.671921,35.957114]}},
{ "type": "Feature", "properties": {"Name":"Norene CDP","State":"Tennessee","State_Abbrev":"TN"},
"geometry":{ "type": "Point", "coordinates": [-86.238175,36.054061]}},
{ "type": "Feature", "properties": {"Name":"Normandy town","State":"Tennessee","State_Abbrev":"TN"},
"geometry":{ "type": "Point", "coordinates": [-86.258217,35.452249]}},
{ "type": "Feature", "properties": {"Name":"Norris city","State":"Tennessee","State_Abbrev":"TN"},
"geometry":{ "type": "Point", "coordinates": [-84.062921,36.213706]}},
{ "type": "Feature", "properties": {"Name":"Oakdale town","State":"Tennessee","State_Abbrev":"TN"},
"geometry":{ "type": "Point", "coordinates": [-84.556683,35.992746]}},
{ "type": "Feature", "properties": {"Name":"Oak Grove CDP","State":"Tennessee","State_Abbrev":"TN"},
"geometry":{ "type": "Point", "coordinates": [-86.37809,36.572167]}},
{ "type": "Feature", "properties": {"Name":"Oak Grove CDP","State":"Tennessee","State_Abbrev":"TN"},
"geometry":{ "type": "Point", "coordinates": [-82.434054,36.425062]}},
{ "type": "Feature", "properties": {"Name":"Oak Hill city","State":"Tennessee","State_Abbrev":"TN"},
"geometry":{ "type": "Point", "coordinates": [-86.793127,36.068447]}},
{ "type": "Feature", "properties": {"Name":"Oakland town","State":"Tennessee","State_Abbrev":"TN"},
"geometry":{ "type": "Point", "coordinates": [-89.538172,35.226102]}},
{ "type": "Feature", "properties": {"Name":"Oak Ridge city","State":"Tennessee","State_Abbrev":"TN"},
"geometry":{ "type": "Point", "coordinates": [-84.290549,35.966483]}},
{ "type": "Feature", "properties": {"Name":"Obion town","State":"Tennessee","State_Abbrev":"TN"},
"geometry":{ "type": "Point", "coordinates": [-89.182588,36.25577]}},
{ "type": "Feature", "properties": {"Name":"Ocoee CDP","State":"Tennessee","State_Abbrev":"TN"},
"geometry":{ "type": "Point", "coordinates": [-84.716729,35.123508]}},
{ "type": "Feature", "properties": {"Name":"Oliver Springs town","State":"Tennessee","State_Abbrev":"TN"},
"geometry":{ "type": "Point", "coordinates": [-84.328487,36.039859]}},
{ "type": "Feature", "properties": {"Name":"Olivet CDP","State":"Tennessee","State_Abbrev":"TN"},
"geometry":{ "type": "Point", "coordinates": [-88.193899,35.204752]}},
{ "type": "Feature", "properties": {"Name":"Oneida town","State":"Tennessee","State_Abbrev":"TN"},
"geometry":{ "type": "Point", "coordinates": [-84.510819,36.515667]}},
{ "type": "Feature", "properties": {"Name":"Ooltewah CDP","State":"Tennessee","State_Abbrev":"TN"},
"geometry":{ "type": "Point", "coordinates": [-85.054466,35.072335]}},
{ "type": "Feature", "properties": {"Name":"Orebank CDP","State":"Tennessee","State_Abbrev":"TN"},
"geometry":{ "type": "Point", "coordinates": [-82.464071,36.555955]}},
{ "type": "Feature", "properties": {"Name":"Orlinda city","State":"Tennessee","State_Abbrev":"TN"},
"geometry":{ "type": "Point", "coordinates": [-86.701561,36.593839]}},
{ "type": "Feature", "properties": {"Name":"Orme town","State":"Tennessee","State_Abbrev":"TN"},
"geometry":{ "type": "Point", "coordinates": [-85.80481,35.0147]}},
{ "type": "Feature", "properties": {"Name":"Palmer town","State":"Tennessee","State_Abbrev":"TN"},
"geometry":{ "type": "Point", "coordinates": [-85.565599,35.357562]}},
{ "type": "Feature", "properties": {"Name":"Palmersville CDP","State":"Tennessee","State_Abbrev":"TN"},
"geometry":{ "type": "Point", "coordinates": [-88.584223,36.408409]}},
{ "type": "Feature", "properties": {"Name":"Paris city","State":"Tennessee","State_Abbrev":"TN"},
"geometry":{ "type": "Point", "coordinates": [-88.308057,36.292739]}},
{ "type": "Feature", "properties": {"Name":"Park City CDP","State":"Tennessee","State_Abbrev":"TN"},
"geometry":{ "type": "Point", "coordinates": [-86.584122,35.077877]}},
{ "type": "Feature", "properties": {"Name":"Parker's Crossroads city","State":"Tennessee","State_Abbrev":"TN"},
"geometry":{ "type": "Point", "coordinates": [-88.39055,35.789383]}},
{ "type": "Feature", "properties": {"Name":"Parrottsville town","State":"Tennessee","State_Abbrev":"TN"},
"geometry":{ "type": "Point", "coordinates": [-83.091548,36.00823]}},
{ "type": "Feature", "properties": {"Name":"Parsons city","State":"Tennessee","State_Abbrev":"TN"},
"geometry":{ "type": "Point", "coordinates": [-88.123058,35.651216]}},
{ "type": "Feature", "properties": {"Name":"Pegram town","State":"Tennessee","State_Abbrev":"TN"},
"geometry":{ "type": "Point", "coordinates": [-87.056529,36.103664]}},
{ "type": "Feature", "properties": {"Name":"Pelham CDP","State":"Tennessee","State_Abbrev":"TN"},
"geometry":{ "type": "Point", "coordinates": [-85.87029,35.334137]}},
{ "type": "Feature", "properties": {"Name":"Petersburg town","State":"Tennessee","State_Abbrev":"TN"},
"geometry":{ "type": "Point", "coordinates": [-86.64058,35.317347]}},
{ "type": "Feature", "properties": {"Name":"Petros CDP","State":"Tennessee","State_Abbrev":"TN"},
"geometry":{ "type": "Point", "coordinates": [-84.450322,36.102773]}},
{ "type": "Feature", "properties": {"Name":"Philadelphia city","State":"Tennessee","State_Abbrev":"TN"},
"geometry":{ "type": "Point", "coordinates": [-84.399914,35.67905]}},
{ "type": "Feature", "properties": {"Name":"Pigeon Forge city","State":"Tennessee","State_Abbrev":"TN"},
"geometry":{ "type": "Point", "coordinates": [-83.563784,35.798005]}},
{ "type": "Feature", "properties": {"Name":"Pikeville city","State":"Tennessee","State_Abbrev":"TN"},
"geometry":{ "type": "Point", "coordinates": [-85.193362,35.615358]}},
{ "type": "Feature", "properties": {"Name":"Pine Crest CDP","State":"Tennessee","State_Abbrev":"TN"},
"geometry":{ "type": "Point", "coordinates": [-82.308919,36.293202]}},
{ "type": "Feature", "properties": {"Name":"Pinson CDP","State":"Tennessee","State_Abbrev":"TN"},
"geometry":{ "type": "Point", "coordinates": [-88.741273,35.479]}},
{ "type": "Feature", "properties": {"Name":"Piperton city","State":"Tennessee","State_Abbrev":"TN"},
"geometry":{ "type": "Point", "coordinates": [-89.609631,35.052754]}},
{ "type": "Feature", "properties": {"Name":"Pittman Center town","State":"Tennessee","State_Abbrev":"TN"},
"geometry":{ "type": "Point", "coordinates": [-83.388492,35.759506]}},
{ "type": "Feature", "properties": {"Name":"Plainview city","State":"Tennessee","State_Abbrev":"TN"},
"geometry":{ "type": "Point", "coordinates": [-83.793326,36.180707]}},
{ "type": "Feature", "properties": {"Name":"Pleasant Hill town","State":"Tennessee","State_Abbrev":"TN"},
"geometry":{ "type": "Point", "coordinates": [-85.201987,35.97389]}},
{ "type": "Feature", "properties": {"Name":"Pleasant View city","State":"Tennessee","State_Abbrev":"TN"},
"geometry":{ "type": "Point", "coordinates": [-87.045493,36.389288]}},
{ "type": "Feature", "properties": {"Name":"Pocahontas CDP","State":"Tennessee","State_Abbrev":"TN"},
"geometry":{ "type": "Point", "coordinates": [-88.801903,35.054731]}},
{ "type": "Feature", "properties": {"Name":"Portland city","State":"Tennessee","State_Abbrev":"TN"},
"geometry":{ "type": "Point", "coordinates": [-86.526621,36.597486]}},
{ "type": "Feature", "properties": {"Name":"Powell CDP","State":"Tennessee","State_Abbrev":"TN"},
"geometry":{ "type": "Point", "coordinates": [-84.029652,36.035851]}},
{ "type": "Feature", "properties": {"Name":"Powells Crossroads town","State":"Tennessee","State_Abbrev":"TN"},
"geometry":{ "type": "Point", "coordinates": [-85.484776,35.184817]}},
{ "type": "Feature", "properties": {"Name":"Prospect CDP","State":"Tennessee","State_Abbrev":"TN"},
"geometry":{ "type": "Point", "coordinates": [-86.998944,35.02189]}},
{ "type": "Feature", "properties": {"Name":"Pulaski city","State":"Tennessee","State_Abbrev":"TN"},
"geometry":{ "type": "Point", "coordinates": [-87.034934,35.193264]}},
{ "type": "Feature", "properties": {"Name":"Puryear city","State":"Tennessee","State_Abbrev":"TN"},
"geometry":{ "type": "Point", "coordinates": [-88.332423,36.441368]}},
{ "type": "Feature", "properties": {"Name":"Ramer city","State":"Tennessee","State_Abbrev":"TN"},
"geometry":{ "type": "Point", "coordinates": [-88.614889,35.071873]}},
{ "type": "Feature", "properties": {"Name":"Randolph CDP","State":"Tennessee","State_Abbrev":"TN"},
"geometry":{ "type": "Point", "coordinates": [-89.884601,35.518863]}},
{ "type": "Feature", "properties": {"Name":"Rarity Bay CDP","State":"Tennessee","State_Abbrev":"TN"},
"geometry":{ "type": "Point", "coordinates": [-84.253738,35.634812]}},
{ "type": "Feature", "properties": {"Name":"Red Bank city","State":"Tennessee","State_Abbrev":"TN"},
"geometry":{ "type": "Point", "coordinates": [-85.296162,35.111695]}},
{ "type": "Feature", "properties": {"Name":"Red Boiling Springs city","State":"Tennessee","State_Abbrev":"TN"},
"geometry":{ "type": "Point", "coordinates": [-85.848174,36.530175]}},
{ "type": "Feature", "properties": {"Name":"Riceville CDP","State":"Tennessee","State_Abbrev":"TN"},
"geometry":{ "type": "Point", "coordinates": [-84.698855,35.389475]}},
{ "type": "Feature", "properties": {"Name":"Ridgely town","State":"Tennessee","State_Abbrev":"TN"},
"geometry":{ "type": "Point", "coordinates": [-89.48062,36.263214]}},
{ "type": "Feature", "properties": {"Name":"Ridgeside city","State":"Tennessee","State_Abbrev":"TN"},
"geometry":{ "type": "Point", "coordinates": [-85.247008,35.034917]}},
{ "type": "Feature", "properties": {"Name":"Ridgetop city","State":"Tennessee","State_Abbrev":"TN"},
"geometry":{ "type": "Point", "coordinates": [-86.767724,36.403749]}},
{ "type": "Feature", "properties": {"Name":"Ripley city","State":"Tennessee","State_Abbrev":"TN"},
"geometry":{ "type": "Point", "coordinates": [-89.534107,35.746081]}},
{ "type": "Feature", "properties": {"Name":"Rives town","State":"Tennessee","State_Abbrev":"TN"},
"geometry":{ "type": "Point", "coordinates": [-89.049605,36.356161]}},
{ "type": "Feature", "properties": {"Name":"Roan Mountain CDP","State":"Tennessee","State_Abbrev":"TN"},
"geometry":{ "type": "Point", "coordinates": [-82.070538,36.186662]}},
{ "type": "Feature", "properties": {"Name":"Robbins CDP","State":"Tennessee","State_Abbrev":"TN"},
"geometry":{ "type": "Point", "coordinates": [-84.583878,36.353659]}},
{ "type": "Feature", "properties": {"Name":"Rockford city","State":"Tennessee","State_Abbrev":"TN"},
"geometry":{ "type": "Point", "coordinates": [-83.935287,35.839687]}},
{ "type": "Feature", "properties": {"Name":"Rockvale CDP","State":"Tennessee","State_Abbrev":"TN"},
"geometry":{ "type": "Point", "coordinates": [-86.520983,35.766879]}},
{ "type": "Feature", "properties": {"Name":"Rockwood city","State":"Tennessee","State_Abbrev":"TN"},
"geometry":{ "type": "Point", "coordinates": [-84.674943,35.870081]}},
{ "type": "Feature", "properties": {"Name":"Rocky Top city","State":"Tennessee","State_Abbrev":"TN"},
"geometry":{ "type": "Point", "coordinates": [-84.154789,36.22493]}},
{ "type": "Feature", "properties": {"Name":"Rogersville town","State":"Tennessee","State_Abbrev":"TN"},
"geometry":{ "type": "Point", "coordinates": [-83.004184,36.40826]}},
{ "type": "Feature", "properties": {"Name":"Rossville town","State":"Tennessee","State_Abbrev":"TN"},
"geometry":{ "type": "Point", "coordinates": [-89.54171,35.038031]}},
{ "type": "Feature", "properties": {"Name":"Rural Hill CDP","State":"Tennessee","State_Abbrev":"TN"},
"geometry":{ "type": "Point", "coordinates": [-86.51471,36.118287]}},
{ "type": "Feature", "properties": {"Name":"Russellville CDP","State":"Tennessee","State_Abbrev":"TN"},
"geometry":{ "type": "Point", "coordinates": [-83.196774,36.258013]}},
{ "type": "Feature", "properties": {"Name":"Rutherford town","State":"Tennessee","State_Abbrev":"TN"},
"geometry":{ "type": "Point", "coordinates": [-88.992851,36.122081]}},
{ "type": "Feature", "properties": {"Name":"Rutledge town","State":"Tennessee","State_Abbrev":"TN"},
"geometry":{ "type": "Point", "coordinates": [-83.532716,36.274373]}},
{ "type": "Feature", "properties": {"Name":"St. Joseph city","State":"Tennessee","State_Abbrev":"TN"},
"geometry":{ "type": "Point", "coordinates": [-87.500778,35.032979]}},
{ "type": "Feature", "properties": {"Name":"Sale Creek CDP","State":"Tennessee","State_Abbrev":"TN"},
"geometry":{ "type": "Point", "coordinates": [-85.082389,35.386419]}},
{ "type": "Feature", "properties": {"Name":"Saltillo town","State":"Tennessee","State_Abbrev":"TN"},
"geometry":{ "type": "Point", "coordinates": [-88.253597,35.380464]}},
{ "type": "Feature", "properties": {"Name":"Samburg town","State":"Tennessee","State_Abbrev":"TN"},
"geometry":{ "type": "Point", "coordinates": [-89.352448,36.381703]}},
{ "type": "Feature", "properties": {"Name":"Sardis town","State":"Tennessee","State_Abbrev":"TN"},
"geometry":{ "type": "Point", "coordinates": [-88.291187,35.442436]}},
{ "type": "Feature", "properties": {"Name":"Saulsbury town","State":"Tennessee","State_Abbrev":"TN"},
"geometry":{ "type": "Point", "coordinates": [-89.088333,35.048786]}},
{ "type": "Feature", "properties": {"Name":"Savannah city","State":"Tennessee","State_Abbrev":"TN"},
"geometry":{ "type": "Point", "coordinates": [-88.235062,35.220926]}},
{ "type": "Feature", "properties": {"Name":"Scotts Hill town","State":"Tennessee","State_Abbrev":"TN"},
"geometry":{ "type": "Point", "coordinates": [-88.252308,35.518306]}},
{ "type": "Feature", "properties": {"Name":"Selmer town","State":"Tennessee","State_Abbrev":"TN"},
"geometry":{ "type": "Point", "coordinates": [-88.595102,35.170593]}},
{ "type": "Feature", "properties": {"Name":"Sequatchie CDP","State":"Tennessee","State_Abbrev":"TN"},
"geometry":{ "type": "Point", "coordinates": [-85.596569,35.111487]}},
{ "type": "Feature", "properties": {"Name":"Sevierville city","State":"Tennessee","State_Abbrev":"TN"},
"geometry":{ "type": "Point", "coordinates": [-83.579861,35.889691]}},
{ "type": "Feature", "properties": {"Name":"Sewanee CDP","State":"Tennessee","State_Abbrev":"TN"},
"geometry":{ "type": "Point", "coordinates": [-85.921476,35.19788]}},
{ "type": "Feature", "properties": {"Name":"Seymour CDP","State":"Tennessee","State_Abbrev":"TN"},
"geometry":{ "type": "Point", "coordinates": [-83.761629,35.882655]}},
{ "type": "Feature", "properties": {"Name":"Shackle Island CDP","State":"Tennessee","State_Abbrev":"TN"},
"geometry":{ "type": "Point", "coordinates": [-86.616782,36.377518]}},
{ "type": "Feature", "properties": {"Name":"Sharon town","State":"Tennessee","State_Abbrev":"TN"},
"geometry":{ "type": "Point", "coordinates": [-88.825146,36.235102]}},
{ "type": "Feature", "properties": {"Name":"Shelbyville city","State":"Tennessee","State_Abbrev":"TN"},
"geometry":{ "type": "Point", "coordinates": [-86.451674,35.49866]}},
{ "type": "Feature", "properties": {"Name":"Sherwood CDP","State":"Tennessee","State_Abbrev":"TN"},
"geometry":{ "type": "Point", "coordinates": [-85.92591,35.074888]}},
{ "type": "Feature", "properties": {"Name":"Shiloh CDP","State":"Tennessee","State_Abbrev":"TN"},
"geometry":{ "type": "Point", "coordinates": [-88.364533,35.109845]}},
{ "type": "Feature", "properties": {"Name":"Signal Mountain town","State":"Tennessee","State_Abbrev":"TN"},
"geometry":{ "type": "Point", "coordinates": [-85.341469,35.143893]}},
{ "type": "Feature", "properties": {"Name":"Silerton town","State":"Tennessee","State_Abbrev":"TN"},
"geometry":{ "type": "Point", "coordinates": [-88.809941,35.34235]}},
{ "type": "Feature", "properties": {"Name":"Slayden town","State":"Tennessee","State_Abbrev":"TN"},
"geometry":{ "type": "Point", "coordinates": [-87.465614,36.291314]}},
{ "type": "Feature", "properties": {"Name":"Smithville city","State":"Tennessee","State_Abbrev":"TN"},
"geometry":{ "type": "Point", "coordinates": [-85.821117,35.958362]}},
{ "type": "Feature", "properties": {"Name":"Smyrna town","State":"Tennessee","State_Abbrev":"TN"},
"geometry":{ "type": "Point", "coordinates": [-86.528617,35.969019]}},
{ "type": "Feature", "properties": {"Name":"Sneedville town","State":"Tennessee","State_Abbrev":"TN"},
"geometry":{ "type": "Point", "coordinates": [-83.210028,36.535672]}},
{ "type": "Feature", "properties": {"Name":"Soddy-Daisy city","State":"Tennessee","State_Abbrev":"TN"},
"geometry":{ "type": "Point", "coordinates": [-85.172121,35.261575]}},
{ "type": "Feature", "properties": {"Name":"Somerville town","State":"Tennessee","State_Abbrev":"TN"},
"geometry":{ "type": "Point", "coordinates": [-89.375355,35.232205]}},
{ "type": "Feature", "properties": {"Name":"South Carthage town","State":"Tennessee","State_Abbrev":"TN"},
"geometry":{ "type": "Point", "coordinates": [-85.957462,36.239702]}},
{ "type": "Feature", "properties": {"Name":"South Cleveland CDP","State":"Tennessee","State_Abbrev":"TN"},
"geometry":{ "type": "Point", "coordinates": [-84.909732,35.109298]}},
{ "type": "Feature", "properties": {"Name":"South Fulton city","State":"Tennessee","State_Abbrev":"TN"},
"geometry":{ "type": "Point", "coordinates": [-88.883654,36.49334]}},
{ "type": "Feature", "properties": {"Name":"South Pittsburg city","State":"Tennessee","State_Abbrev":"TN"},
"geometry":{ "type": "Point", "coordinates": [-85.718225,35.011154]}},
{ "type": "Feature", "properties": {"Name":"Sparta city","State":"Tennessee","State_Abbrev":"TN"},
"geometry":{ "type": "Point", "coordinates": [-85.47264,35.934736]}},
{ "type": "Feature", "properties": {"Name":"Spencer town","State":"Tennessee","State_Abbrev":"TN"},
"geometry":{ "type": "Point", "coordinates": [-85.456052,35.73924]}},
{ "type": "Feature", "properties": {"Name":"Spring City town","State":"Tennessee","State_Abbrev":"TN"},
"geometry":{ "type": "Point", "coordinates": [-84.864229,35.686385]}},
{ "type": "Feature", "properties": {"Name":"Springfield city","State":"Tennessee","State_Abbrev":"TN"},
"geometry":{ "type": "Point", "coordinates": [-86.872209,36.493599]}},
{ "type": "Feature", "properties": {"Name":"Spring Hill city","State":"Tennessee","State_Abbrev":"TN"},
"geometry":{ "type": "Point", "coordinates": [-86.916833,35.746621]}},
{ "type": "Feature", "properties": {"Name":"Spurgeon CDP","State":"Tennessee","State_Abbrev":"TN"},
"geometry":{ "type": "Point", "coordinates": [-82.461254,36.444433]}},
{ "type": "Feature", "properties": {"Name":"Stanton town","State":"Tennessee","State_Abbrev":"TN"},
"geometry":{ "type": "Point", "coordinates": [-89.401373,35.461332]}},
{ "type": "Feature", "properties": {"Name":"Stantonville town","State":"Tennessee","State_Abbrev":"TN"},
"geometry":{ "type": "Point", "coordinates": [-88.430176,35.156934]}},
{ "type": "Feature", "properties": {"Name":"Statesville CDP","State":"Tennessee","State_Abbrev":"TN"},
"geometry":{ "type": "Point", "coordinates": [-86.120605,36.019829]}},
{ "type": "Feature", "properties": {"Name":"Strawberry Plains CDP","State":"Tennessee","State_Abbrev":"TN"},
"geometry":{ "type": "Point", "coordinates": [-83.645185,36.064315]}},
{ "type": "Feature", "properties": {"Name":"Sullivan Gardens CDP","State":"Tennessee","State_Abbrev":"TN"},
"geometry":{ "type": "Point", "coordinates": [-82.59113,36.487701]}},
{ "type": "Feature", "properties": {"Name":"Summertown CDP","State":"Tennessee","State_Abbrev":"TN"},
"geometry":{ "type": "Point", "coordinates": [-87.30846,35.434421]}},
{ "type": "Feature", "properties": {"Name":"Sunbright city","State":"Tennessee","State_Abbrev":"TN"},
"geometry":{ "type": "Point", "coordinates": [-84.679964,36.242686]}},
{ "type": "Feature", "properties": {"Name":"Surgoinsville town","State":"Tennessee","State_Abbrev":"TN"},
"geometry":{ "type": "Point", "coordinates": [-82.86088,36.47244]}},
{ "type": "Feature", "properties": {"Name":"Sweetwater city","State":"Tennessee","State_Abbrev":"TN"},
"geometry":{ "type": "Point", "coordinates": [-84.471379,35.602553]}},
{ "type": "Feature", "properties": {"Name":"Taft CDP","State":"Tennessee","State_Abbrev":"TN"},
"geometry":{ "type": "Point", "coordinates": [-86.717664,35.02614]}},
{ "type": "Feature", "properties": {"Name":"Tazewell town","State":"Tennessee","State_Abbrev":"TN"},
"geometry":{ "type": "Point", "coordinates": [-83.567034,36.462502]}},
{ "type": "Feature", "properties": {"Name":"Telford CDP","State":"Tennessee","State_Abbrev":"TN"},
"geometry":{ "type": "Point", "coordinates": [-82.547762,36.253418]}},
{ "type": "Feature", "properties": {"Name":"Tellico Plains town","State":"Tennessee","State_Abbrev":"TN"},
"geometry":{ "type": "Point", "coordinates": [-84.298138,35.366495]}},
{ "type": "Feature", "properties": {"Name":"Tellico Village CDP","State":"Tennessee","State_Abbrev":"TN"},
"geometry":{ "type": "Point", "coordinates": [-84.263596,35.697885]}},
{ "type": "Feature", "properties": {"Name":"Tennessee Ridge town","State":"Tennessee","State_Abbrev":"TN"},
"geometry":{ "type": "Point", "coordinates": [-87.767946,36.318093]}},
{ "type": "Feature", "properties": {"Name":"Thompson's Station town","State":"Tennessee","State_Abbrev":"TN"},
"geometry":{ "type": "Point", "coordinates": [-86.910077,35.812608]}},
{ "type": "Feature", "properties": {"Name":"Three Way city","State":"Tennessee","State_Abbrev":"TN"},
"geometry":{ "type": "Point", "coordinates": [-88.857222,35.772016]}},
{ "type": "Feature", "properties": {"Name":"Tiptonville town","State":"Tennessee","State_Abbrev":"TN"},
"geometry":{ "type": "Point", "coordinates": [-89.475327,36.376076]}},
{ "type": "Feature", "properties": {"Name":"Toone town","State":"Tennessee","State_Abbrev":"TN"},
"geometry":{ "type": "Point", "coordinates": [-88.954189,35.356485]}},
{ "type": "Feature", "properties": {"Name":"Townsend city","State":"Tennessee","State_Abbrev":"TN"},
"geometry":{ "type": "Point", "coordinates": [-83.752995,35.676321]}},
{ "type": "Feature", "properties": {"Name":"Tracy City town","State":"Tennessee","State_Abbrev":"TN"},
"geometry":{ "type": "Point", "coordinates": [-85.755668,35.263044]}},
{ "type": "Feature", "properties": {"Name":"Trenton city","State":"Tennessee","State_Abbrev":"TN"},
"geometry":{ "type": "Point", "coordinates": [-88.945218,35.973196]}},
{ "type": "Feature", "properties": {"Name":"Trezevant town","State":"Tennessee","State_Abbrev":"TN"},
"geometry":{ "type": "Point", "coordinates": [-88.620604,36.01094]}},
{ "type": "Feature", "properties": {"Name":"Trimble town","State":"Tennessee","State_Abbrev":"TN"},
"geometry":{ "type": "Point", "coordinates": [-89.187969,36.20202]}},
{ "type": "Feature", "properties": {"Name":"Troy town","State":"Tennessee","State_Abbrev":"TN"},
"geometry":{ "type": "Point", "coordinates": [-89.158201,36.341911]}},
{ "type": "Feature", "properties": {"Name":"Tuckers Crossroads CDP","State":"Tennessee","State_Abbrev":"TN"},
"geometry":{ "type": "Point", "coordinates": [-86.167638,36.206622]}},
{ "type": "Feature", "properties": {"Name":"Tullahoma city","State":"Tennessee","State_Abbrev":"TN"},
"geometry":{ "type": "Point", "coordinates": [-86.218277,35.373311]}},
{ "type": "Feature", "properties": {"Name":"Tusculum city","State":"Tennessee","State_Abbrev":"TN"},
"geometry":{ "type": "Point", "coordinates": [-82.745391,36.175006]}},
{ "type": "Feature", "properties": {"Name":"Unicoi town","State":"Tennessee","State_Abbrev":"TN"},
"geometry":{ "type": "Point", "coordinates": [-82.329224,36.221771]}},
{ "type": "Feature", "properties": {"Name":"Union City city","State":"Tennessee","State_Abbrev":"TN"},
"geometry":{ "type": "Point", "coordinates": [-89.04772,36.427088]}},
{ "type": "Feature", "properties": {"Name":"Unionville CDP","State":"Tennessee","State_Abbrev":"TN"},
"geometry":{ "type": "Point", "coordinates": [-86.573883,35.611753]}},
{ "type": "Feature", "properties": {"Name":"Valley Forge CDP","State":"Tennessee","State_Abbrev":"TN"},
"geometry":{ "type": "Point", "coordinates": [-82.194809,36.304246]}},
{ "type": "Feature", "properties": {"Name":"Vanleer town","State":"Tennessee","State_Abbrev":"TN"},
"geometry":{ "type": "Point", "coordinates": [-87.448314,36.236742]}},
{ "type": "Feature", "properties": {"Name":"Viola town","State":"Tennessee","State_Abbrev":"TN"},
"geometry":{ "type": "Point", "coordinates": [-85.859567,35.542427]}},
{ "type": "Feature", "properties": {"Name":"Vonore town","State":"Tennessee","State_Abbrev":"TN"},
"geometry":{ "type": "Point", "coordinates": [-84.234492,35.597163]}},
{ "type": "Feature", "properties": {"Name":"Walden town","State":"Tennessee","State_Abbrev":"TN"},
"geometry":{ "type": "Point", "coordinates": [-85.309851,35.163488]}},
{ "type": "Feature", "properties": {"Name":"Walland CDP","State":"Tennessee","State_Abbrev":"TN"},
"geometry":{ "type": "Point", "coordinates": [-83.806818,35.732045]}},
{ "type": "Feature", "properties": {"Name":"Walnut Grove CDP","State":"Tennessee","State_Abbrev":"TN"},
"geometry":{ "type": "Point", "coordinates": [-88.06414,35.047911]}},
{ "type": "Feature", "properties": {"Name":"Walnut Grove CDP","State":"Tennessee","State_Abbrev":"TN"},
"geometry":{ "type": "Point", "coordinates": [-86.605692,36.488977]}},
{ "type": "Feature", "properties": {"Name":"Walnut Hill CDP","State":"Tennessee","State_Abbrev":"TN"},
"geometry":{ "type": "Point", "coordinates": [-82.265725,36.567868]}},
{ "type": "Feature", "properties": {"Name":"Walterhill CDP","State":"Tennessee","State_Abbrev":"TN"},
"geometry":{ "type": "Point", "coordinates": [-86.367849,35.957291]}},
{ "type": "Feature", "properties": {"Name":"Wartburg city","State":"Tennessee","State_Abbrev":"TN"},
"geometry":{ "type": "Point", "coordinates": [-84.586403,36.103953]}},
{ "type": "Feature", "properties": {"Name":"Wartrace town","State":"Tennessee","State_Abbrev":"TN"},
"geometry":{ "type": "Point", "coordinates": [-86.330137,35.52533]}},
{ "type": "Feature", "properties": {"Name":"Watauga city","State":"Tennessee","State_Abbrev":"TN"},
"geometry":{ "type": "Point", "coordinates": [-82.292003,36.368282]}},
{ "type": "Feature", "properties": {"Name":"Watertown city","State":"Tennessee","State_Abbrev":"TN"},
"geometry":{ "type": "Point", "coordinates": [-86.139439,36.10065]}},
{ "type": "Feature", "properties": {"Name":"Waverly city","State":"Tennessee","State_Abbrev":"TN"},
"geometry":{ "type": "Point", "coordinates": [-87.784668,36.093935]}},
{ "type": "Feature", "properties": {"Name":"Waynesboro city","State":"Tennessee","State_Abbrev":"TN"},
"geometry":{ "type": "Point", "coordinates": [-87.759332,35.323503]}},
{ "type": "Feature", "properties": {"Name":"Westmoreland town","State":"Tennessee","State_Abbrev":"TN"},
"geometry":{ "type": "Point", "coordinates": [-86.243956,36.565359]}},
{ "type": "Feature", "properties": {"Name":"Westpoint CDP","State":"Tennessee","State_Abbrev":"TN"},
"geometry":{ "type": "Point", "coordinates": [-87.537625,35.134862]}},
{ "type": "Feature", "properties": {"Name":"White Bluff town","State":"Tennessee","State_Abbrev":"TN"},
"geometry":{ "type": "Point", "coordinates": [-87.211874,36.100947]}},
{ "type": "Feature", "properties": {"Name":"White House city","State":"Tennessee","State_Abbrev":"TN"},
"geometry":{ "type": "Point", "coordinates": [-86.66649,36.465081]}},
{ "type": "Feature", "properties": {"Name":"White Pine town","State":"Tennessee","State_Abbrev":"TN"},
"geometry":{ "type": "Point", "coordinates": [-83.285661,36.101255]}},
{ "type": "Feature", "properties": {"Name":"Whiteside CDP","State":"Tennessee","State_Abbrev":"TN"},
"geometry":{ "type": "Point", "coordinates": [-85.486845,34.994556]}},
{ "type": "Feature", "properties": {"Name":"Whiteville town","State":"Tennessee","State_Abbrev":"TN"},
"geometry":{ "type": "Point", "coordinates": [-89.149744,35.317931]}},
{ "type": "Feature", "properties": {"Name":"Whitlock CDP","State":"Tennessee","State_Abbrev":"TN"},
"geometry":{ "type": "Point", "coordinates": [-88.361828,36.366865]}},
{ "type": "Feature", "properties": {"Name":"Whitwell city","State":"Tennessee","State_Abbrev":"TN"},
"geometry":{ "type": "Point", "coordinates": [-85.521532,35.192393]}},
{ "type": "Feature", "properties": {"Name":"Wildersville CDP","State":"Tennessee","State_Abbrev":"TN"},
"geometry":{ "type": "Point", "coordinates": [-88.356143,35.776654]}},
{ "type": "Feature", "properties": {"Name":"Wildwood CDP","State":"Tennessee","State_Abbrev":"TN"},
"geometry":{ "type": "Point", "coordinates": [-83.868543,35.799857]}},
{ "type": "Feature", "properties": {"Name":"Wildwood Lake CDP","State":"Tennessee","State_Abbrev":"TN"},
"geometry":{ "type": "Point", "coordinates": [-84.847707,35.088202]}},
{ "type": "Feature", "properties": {"Name":"Williston city","State":"Tennessee","State_Abbrev":"TN"},
"geometry":{ "type": "Point", "coordinates": [-89.375391,35.158496]}},
{ "type": "Feature", "properties": {"Name":"Winchester city","State":"Tennessee","State_Abbrev":"TN"},
"geometry":{ "type": "Point", "coordinates": [-86.104898,35.189104]}},
{ "type": "Feature", "properties": {"Name":"Winfield town","State":"Tennessee","State_Abbrev":"TN"},
"geometry":{ "type": "Point", "coordinates": [-84.446306,36.563181]}},
{ "type": "Feature", "properties": {"Name":"Woodbury town","State":"Tennessee","State_Abbrev":"TN"},
"geometry":{ "type": "Point", "coordinates": [-86.072434,35.82473]}},
{ "type": "Feature", "properties": {"Name":"Woodland Mills city","State":"Tennessee","State_Abbrev":"TN"},
"geometry":{ "type": "Point", "coordinates": [-89.110423,36.476652]}},
{ "type": "Feature", "properties": {"Name":"Wrigley CDP","State":"Tennessee","State_Abbrev":"TN"},
"geometry":{ "type": "Point", "coordinates": [-87.35366,35.89979]}},
{ "type": "Feature", "properties": {"Name":"Wynnburg CDP","State":"Tennessee","State_Abbrev":"TN"},
"geometry":{ "type": "Point", "coordinates": [-89.468553,36.330021]}},
{ "type": "Feature", "properties": {"Name":"Yorkville city","State":"Tennessee","State_Abbrev":"TN"},
"geometry":{ "type": "Point", "coordinates": [-89.118336,36.097601]}},
{ "type": "Feature", "properties": {"Name":"Yuma CDP","State":"Tennessee","State_Abbrev":"TN"},
"geometry":{ "type": "Point", "coordinates": [-88.337197,35.843769]}}]}
