{"type":"FeatureCollection","features":[
{ "type": "Feature", "properties": {"Name":"Alpine city","State":"Utah","State_Abbrev":"UT"},
"geometry":{ "type": "Point", "coordinates": [-111.77244,40.462954]}},
{ "type": "Feature", "properties": {"Name":"Alta town","State":"Utah","State_Abbrev":"UT"},
"geometry":{ "type": "Point", "coordinates": [-111.620321,40.582406]}},
{ "type": "Feature", "properties": {"Name":"Altamont town","State":"Utah","State_Abbrev":"UT"},
"geometry":{ "type": "Point", "coordinates": [-110.288022,40.358977]}},
{ "type": "Feature", "properties": {"Name":"Alton town","State":"Utah","State_Abbrev":"UT"},
"geometry":{ "type": "Point", "coordinates": [-112.510275,37.426539]}},
{ "type": "Feature", "properties": {"Name":"Amalga town","State":"Utah","State_Abbrev":"UT"},
"geometry":{ "type": "Point", "coordinates": [-111.897155,41.856255]}},
{ "type": "Feature", "properties": {"Name":"American Fork city","State":"Utah","State_Abbrev":"UT"},
"geometry":{ "type": "Point", "coordinates": [-111.795074,40.377877]}},
{ "type": "Feature", "properties": {"Name":"Aneth CDP","State":"Utah","State_Abbrev":"UT"},
"geometry":{ "type": "Point", "coordinates": [-109.165168,37.206491]}},
{ "type": "Feature", "properties": {"Name":"Annabella town","State":"Utah","State_Abbrev":"UT"},
"geometry":{ "type": "Point", "coordinates": [-112.058567,38.706006]}},
{ "type": "Feature", "properties": {"Name":"Antimony town","State":"Utah","State_Abbrev":"UT"},
"geometry":{ "type": "Point", "coordinates": [-111.982319,38.103029]}},
{ "type": "Feature", "properties": {"Name":"Apple Valley town","State":"Utah","State_Abbrev":"UT"},
"geometry":{ "type": "Point", "coordinates": [-113.1034,37.080972]}},
{ "type": "Feature", "properties": {"Name":"Aurora city","State":"Utah","State_Abbrev":"UT"},
"geometry":{ "type": "Point", "coordinates": [-111.933549,38.920062]}},
{ "type": "Feature", "properties": {"Name":"Avon CDP","State":"Utah","State_Abbrev":"UT"},
"geometry":{ "type": "Point", "coordinates": [-111.812433,41.535328]}},
{ "type": "Feature", "properties": {"Name":"Ballard town","State":"Utah","State_Abbrev":"UT"},
"geometry":{ "type": "Point", "coordinates": [-109.949353,40.294914]}},
{ "type": "Feature", "properties": {"Name":"Bear River City city","State":"Utah","State_Abbrev":"UT"},
"geometry":{ "type": "Point", "coordinates": [-112.124948,41.612369]}},
{ "type": "Feature", "properties": {"Name":"Beaver city","State":"Utah","State_Abbrev":"UT"},
"geometry":{ "type": "Point", "coordinates": [-112.638285,38.275921]}},
{ "type": "Feature", "properties": {"Name":"Benjamin CDP","State":"Utah","State_Abbrev":"UT"},
"geometry":{ "type": "Point", "coordinates": [-111.72897,40.096866]}},
{ "type": "Feature", "properties": {"Name":"Benson CDP","State":"Utah","State_Abbrev":"UT"},
"geometry":{ "type": "Point", "coordinates": [-111.925852,41.752857]}},
{ "type": "Feature", "properties": {"Name":"Beryl Junction CDP","State":"Utah","State_Abbrev":"UT"},
"geometry":{ "type": "Point", "coordinates": [-113.653495,37.700983]}},
{ "type": "Feature", "properties": {"Name":"Bicknell town","State":"Utah","State_Abbrev":"UT"},
"geometry":{ "type": "Point", "coordinates": [-111.544178,38.340656]}},
{ "type": "Feature", "properties": {"Name":"Big Water town","State":"Utah","State_Abbrev":"UT"},
"geometry":{ "type": "Point", "coordinates": [-111.660762,37.072874]}},
{ "type": "Feature", "properties": {"Name":"Blanding city","State":"Utah","State_Abbrev":"UT"},
"geometry":{ "type": "Point", "coordinates": [-109.51295,37.623144]}},
{ "type": "Feature", "properties": {"Name":"Bluebell CDP","State":"Utah","State_Abbrev":"UT"},
"geometry":{ "type": "Point", "coordinates": [-110.223817,40.351374]}},
{ "type": "Feature", "properties": {"Name":"Bluff town","State":"Utah","State_Abbrev":"UT"},
"geometry":{ "type": "Point", "coordinates": [-109.596104,37.290346]}},
{ "type": "Feature", "properties": {"Name":"Bluffdale city","State":"Utah","State_Abbrev":"UT"},
"geometry":{ "type": "Point", "coordinates": [-111.940262,40.474551]}},
{ "type": "Feature", "properties": {"Name":"Bonanza CDP","State":"Utah","State_Abbrev":"UT"},
"geometry":{ "type": "Point", "coordinates": [-109.188439,40.030474]}},
{ "type": "Feature", "properties": {"Name":"Boulder town","State":"Utah","State_Abbrev":"UT"},
"geometry":{ "type": "Point", "coordinates": [-111.431854,37.922785]}},
{ "type": "Feature", "properties": {"Name":"Bountiful city","State":"Utah","State_Abbrev":"UT"},
"geometry":{ "type": "Point", "coordinates": [-111.8612,40.872483]}},
{ "type": "Feature", "properties": {"Name":"Brian Head town","State":"Utah","State_Abbrev":"UT"},
"geometry":{ "type": "Point", "coordinates": [-112.84157,37.697723]}},
{ "type": "Feature", "properties": {"Name":"Brigham City city","State":"Utah","State_Abbrev":"UT"},
"geometry":{ "type": "Point", "coordinates": [-112.051418,41.505904]}},
{ "type": "Feature", "properties": {"Name":"Brighton town","State":"Utah","State_Abbrev":"UT"},
"geometry":{ "type": "Point", "coordinates": [-111.603923,40.610656]}},
{ "type": "Feature", "properties": {"Name":"Bryce Canyon City town","State":"Utah","State_Abbrev":"UT"},
"geometry":{ "type": "Point", "coordinates": [-112.161567,37.68196]}},
{ "type": "Feature", "properties": {"Name":"Cache CDP","State":"Utah","State_Abbrev":"UT"},
"geometry":{ "type": "Point", "coordinates": [-112.005677,41.82865]}},
{ "type": "Feature", "properties": {"Name":"Cannonville town","State":"Utah","State_Abbrev":"UT"},
"geometry":{ "type": "Point", "coordinates": [-112.051607,37.573853]}},
{ "type": "Feature", "properties": {"Name":"Carbonville CDP","State":"Utah","State_Abbrev":"UT"},
"geometry":{ "type": "Point", "coordinates": [-110.833262,39.626877]}},
{ "type": "Feature", "properties": {"Name":"Castle Dale city","State":"Utah","State_Abbrev":"UT"},
"geometry":{ "type": "Point", "coordinates": [-111.022683,39.221672]}},
{ "type": "Feature", "properties": {"Name":"Castle Valley town","State":"Utah","State_Abbrev":"UT"},
"geometry":{ "type": "Point", "coordinates": [-109.396042,38.632119]}},
{ "type": "Feature", "properties": {"Name":"Cedar City city","State":"Utah","State_Abbrev":"UT"},
"geometry":{ "type": "Point", "coordinates": [-113.095473,37.683735]}},
{ "type": "Feature", "properties": {"Name":"Cedar Fort town","State":"Utah","State_Abbrev":"UT"},
"geometry":{ "type": "Point", "coordinates": [-112.108602,40.34137]}},
{ "type": "Feature", "properties": {"Name":"Cedar Highlands CDP","State":"Utah","State_Abbrev":"UT"},
"geometry":{ "type": "Point", "coordinates": [-113.041037,37.635842]}},
{ "type": "Feature", "properties": {"Name":"Cedar Hills city","State":"Utah","State_Abbrev":"UT"},
"geometry":{ "type": "Point", "coordinates": [-111.754266,40.412028]}},
{ "type": "Feature", "properties": {"Name":"Centerfield town","State":"Utah","State_Abbrev":"UT"},
"geometry":{ "type": "Point", "coordinates": [-111.818423,39.127455]}},
{ "type": "Feature", "properties": {"Name":"Centerville city","State":"Utah","State_Abbrev":"UT"},
"geometry":{ "type": "Point", "coordinates": [-111.883339,40.926297]}},
{ "type": "Feature", "properties": {"Name":"Central CDP","State":"Utah","State_Abbrev":"UT"},
"geometry":{ "type": "Point", "coordinates": [-113.626248,37.415005]}},
{ "type": "Feature", "properties": {"Name":"Central Valley town","State":"Utah","State_Abbrev":"UT"},
"geometry":{ "type": "Point", "coordinates": [-112.096682,38.699262]}},
{ "type": "Feature", "properties": {"Name":"Charleston town","State":"Utah","State_Abbrev":"UT"},
"geometry":{ "type": "Point", "coordinates": [-111.459488,40.467276]}},
{ "type": "Feature", "properties": {"Name":"Circleville town","State":"Utah","State_Abbrev":"UT"},
"geometry":{ "type": "Point", "coordinates": [-112.27161,38.168403]}},
{ "type": "Feature", "properties": {"Name":"Clarkston town","State":"Utah","State_Abbrev":"UT"},
"geometry":{ "type": "Point", "coordinates": [-112.050376,41.920481]}},
{ "type": "Feature", "properties": {"Name":"Clawson town","State":"Utah","State_Abbrev":"UT"},
"geometry":{ "type": "Point", "coordinates": [-111.098932,39.131395]}},
{ "type": "Feature", "properties": {"Name":"Clear Creek CDP","State":"Utah","State_Abbrev":"UT"},
"geometry":{ "type": "Point", "coordinates": [-111.15484,39.643343]}},
{ "type": "Feature", "properties": {"Name":"Clearfield city","State":"Utah","State_Abbrev":"UT"},
"geometry":{ "type": "Point", "coordinates": [-112.01792,41.097012]}},
{ "type": "Feature", "properties": {"Name":"Cleveland town","State":"Utah","State_Abbrev":"UT"},
"geometry":{ "type": "Point", "coordinates": [-110.855499,39.349469]}},
{ "type": "Feature", "properties": {"Name":"Clinton city","State":"Utah","State_Abbrev":"UT"},
"geometry":{ "type": "Point", "coordinates": [-112.066417,41.13874]}},
{ "type": "Feature", "properties": {"Name":"Coalville city","State":"Utah","State_Abbrev":"UT"},
"geometry":{ "type": "Point", "coordinates": [-111.421376,40.907337]}},
{ "type": "Feature", "properties": {"Name":"Copperton metro township","State":"Utah","State_Abbrev":"UT"},
"geometry":{ "type": "Point", "coordinates": [-112.09792,40.566115]}},
{ "type": "Feature", "properties": {"Name":"Corinne city","State":"Utah","State_Abbrev":"UT"},
"geometry":{ "type": "Point", "coordinates": [-112.125015,41.551464]}},
{ "type": "Feature", "properties": {"Name":"Cornish town","State":"Utah","State_Abbrev":"UT"},
"geometry":{ "type": "Point", "coordinates": [-111.958734,41.967158]}},
{ "type": "Feature", "properties": {"Name":"Cottonwood Heights city","State":"Utah","State_Abbrev":"UT"},
"geometry":{ "type": "Point", "coordinates": [-111.814551,40.613679]}},
{ "type": "Feature", "properties": {"Name":"Cove CDP","State":"Utah","State_Abbrev":"UT"},
"geometry":{ "type": "Point", "coordinates": [-111.779388,41.968258]}},
{ "type": "Feature", "properties": {"Name":"Dammeron Valley CDP","State":"Utah","State_Abbrev":"UT"},
"geometry":{ "type": "Point", "coordinates": [-113.66587,37.304173]}},
{ "type": "Feature", "properties": {"Name":"Daniel town","State":"Utah","State_Abbrev":"UT"},
"geometry":{ "type": "Point", "coordinates": [-111.409514,40.46672]}},
{ "type": "Feature", "properties": {"Name":"Delta city","State":"Utah","State_Abbrev":"UT"},
"geometry":{ "type": "Point", "coordinates": [-112.543758,39.36327]}},
{ "type": "Feature", "properties": {"Name":"Deseret CDP","State":"Utah","State_Abbrev":"UT"},
"geometry":{ "type": "Point", "coordinates": [-112.651116,39.287621]}},
{ "type": "Feature", "properties": {"Name":"Deweyville town","State":"Utah","State_Abbrev":"UT"},
"geometry":{ "type": "Point", "coordinates": [-112.088345,41.693024]}},
{ "type": "Feature", "properties": {"Name":"Draper city","State":"Utah","State_Abbrev":"UT"},
"geometry":{ "type": "Point", "coordinates": [-111.860651,40.495191]}},
{ "type": "Feature", "properties": {"Name":"Duchesne city","State":"Utah","State_Abbrev":"UT"},
"geometry":{ "type": "Point", "coordinates": [-110.394146,40.175296]}},
{ "type": "Feature", "properties": {"Name":"Dugway CDP","State":"Utah","State_Abbrev":"UT"},
"geometry":{ "type": "Point", "coordinates": [-112.754054,40.230686]}},
{ "type": "Feature", "properties": {"Name":"Dutch John town","State":"Utah","State_Abbrev":"UT"},
"geometry":{ "type": "Point", "coordinates": [-109.403119,40.92707]}},
{ "type": "Feature", "properties": {"Name":"Eagle Mountain city","State":"Utah","State_Abbrev":"UT"},
"geometry":{ "type": "Point", "coordinates": [-112.01154,40.314171]}},
{ "type": "Feature", "properties": {"Name":"East Basin CDP","State":"Utah","State_Abbrev":"UT"},
"geometry":{ "type": "Point", "coordinates": [-111.469066,40.736798]}},
{ "type": "Feature", "properties": {"Name":"East Carbon city","State":"Utah","State_Abbrev":"UT"},
"geometry":{ "type": "Point", "coordinates": [-110.42945,39.533025]}},
{ "type": "Feature", "properties": {"Name":"Echo CDP","State":"Utah","State_Abbrev":"UT"},
"geometry":{ "type": "Point", "coordinates": [-111.439246,40.980259]}},
{ "type": "Feature", "properties": {"Name":"Eden CDP","State":"Utah","State_Abbrev":"UT"},
"geometry":{ "type": "Point", "coordinates": [-111.803782,41.30616]}},
{ "type": "Feature", "properties": {"Name":"Elberta CDP","State":"Utah","State_Abbrev":"UT"},
"geometry":{ "type": "Point", "coordinates": [-111.956923,39.95579]}},
{ "type": "Feature", "properties": {"Name":"Elk Ridge city","State":"Utah","State_Abbrev":"UT"},
"geometry":{ "type": "Point", "coordinates": [-111.677997,40.01036]}},
{ "type": "Feature", "properties": {"Name":"Elmo town","State":"Utah","State_Abbrev":"UT"},
"geometry":{ "type": "Point", "coordinates": [-110.815613,39.38771]}},
{ "type": "Feature", "properties": {"Name":"Elsinore town","State":"Utah","State_Abbrev":"UT"},
"geometry":{ "type": "Point", "coordinates": [-112.140051,38.683763]}},
{ "type": "Feature", "properties": {"Name":"Elwood town","State":"Utah","State_Abbrev":"UT"},
"geometry":{ "type": "Point", "coordinates": [-112.136645,41.67321]}},
{ "type": "Feature", "properties": {"Name":"Emery town","State":"Utah","State_Abbrev":"UT"},
"geometry":{ "type": "Point", "coordinates": [-111.252238,38.925179]}},
{ "type": "Feature", "properties": {"Name":"Emigration Canyon metro township","State":"Utah","State_Abbrev":"UT"},
"geometry":{ "type": "Point", "coordinates": [-111.741398,40.788573]}},
{ "type": "Feature", "properties": {"Name":"Enoch city","State":"Utah","State_Abbrev":"UT"},
"geometry":{ "type": "Point", "coordinates": [-113.045138,37.766683]}},
{ "type": "Feature", "properties": {"Name":"Enterprise CDP","State":"Utah","State_Abbrev":"UT"},
"geometry":{ "type": "Point", "coordinates": [-111.730713,41.106986]}},
{ "type": "Feature", "properties": {"Name":"Enterprise city","State":"Utah","State_Abbrev":"UT"},
"geometry":{ "type": "Point", "coordinates": [-113.743029,37.571633]}},
{ "type": "Feature", "properties": {"Name":"Ephraim city","State":"Utah","State_Abbrev":"UT"},
"geometry":{ "type": "Point", "coordinates": [-111.58453,39.356167]}},
{ "type": "Feature", "properties": {"Name":"Erda CDP","State":"Utah","State_Abbrev":"UT"},
"geometry":{ "type": "Point", "coordinates": [-112.315681,40.604802]}},
{ "type": "Feature", "properties": {"Name":"Escalante city","State":"Utah","State_Abbrev":"UT"},
"geometry":{ "type": "Point", "coordinates": [-111.598396,37.76488]}},
{ "type": "Feature", "properties": {"Name":"Eureka city","State":"Utah","State_Abbrev":"UT"},
"geometry":{ "type": "Point", "coordinates": [-112.115075,39.958661]}},
{ "type": "Feature", "properties": {"Name":"Fairfield town","State":"Utah","State_Abbrev":"UT"},
"geometry":{ "type": "Point", "coordinates": [-112.075224,40.235991]}},
{ "type": "Feature", "properties": {"Name":"Fairview city","State":"Utah","State_Abbrev":"UT"},
"geometry":{ "type": "Point", "coordinates": [-111.436859,39.629967]}},
{ "type": "Feature", "properties": {"Name":"Farmington city","State":"Utah","State_Abbrev":"UT"},
"geometry":{ "type": "Point", "coordinates": [-111.906306,40.984669]}},
{ "type": "Feature", "properties": {"Name":"Farr West city","State":"Utah","State_Abbrev":"UT"},
"geometry":{ "type": "Point", "coordinates": [-112.03179,41.301537]}},
{ "type": "Feature", "properties": {"Name":"Fayette town","State":"Utah","State_Abbrev":"UT"},
"geometry":{ "type": "Point", "coordinates": [-111.854191,39.224637]}},
{ "type": "Feature", "properties": {"Name":"Ferron city","State":"Utah","State_Abbrev":"UT"},
"geometry":{ "type": "Point", "coordinates": [-111.133627,39.091598]}},
{ "type": "Feature", "properties": {"Name":"Fielding town","State":"Utah","State_Abbrev":"UT"},
"geometry":{ "type": "Point", "coordinates": [-112.11734,41.812413]}},
{ "type": "Feature", "properties": {"Name":"Fillmore city","State":"Utah","State_Abbrev":"UT"},
"geometry":{ "type": "Point", "coordinates": [-112.338652,38.964156]}},
{ "type": "Feature", "properties": {"Name":"Flaming Gorge CDP","State":"Utah","State_Abbrev":"UT"},
"geometry":{ "type": "Point", "coordinates": [-109.475931,40.88915]}},
{ "type": "Feature", "properties": {"Name":"Fort Duchesne CDP","State":"Utah","State_Abbrev":"UT"},
"geometry":{ "type": "Point", "coordinates": [-109.877241,40.281802]}},
{ "type": "Feature", "properties": {"Name":"Fountain Green city","State":"Utah","State_Abbrev":"UT"},
"geometry":{ "type": "Point", "coordinates": [-111.641301,39.628094]}},
{ "type": "Feature", "properties": {"Name":"Francis town","State":"Utah","State_Abbrev":"UT"},
"geometry":{ "type": "Point", "coordinates": [-111.28223,40.612511]}},
{ "type": "Feature", "properties": {"Name":"Fremont CDP","State":"Utah","State_Abbrev":"UT"},
"geometry":{ "type": "Point", "coordinates": [-111.614953,38.455449]}},
{ "type": "Feature", "properties": {"Name":"Fruit Heights city","State":"Utah","State_Abbrev":"UT"},
"geometry":{ "type": "Point", "coordinates": [-111.904594,41.02893]}},
{ "type": "Feature", "properties": {"Name":"Garden CDP","State":"Utah","State_Abbrev":"UT"},
"geometry":{ "type": "Point", "coordinates": [-111.41703,41.874269]}},
{ "type": "Feature", "properties": {"Name":"Garden City town","State":"Utah","State_Abbrev":"UT"},
"geometry":{ "type": "Point", "coordinates": [-111.412159,41.937088]}},
{ "type": "Feature", "properties": {"Name":"Garland city","State":"Utah","State_Abbrev":"UT"},
"geometry":{ "type": "Point", "coordinates": [-112.162704,41.736187]}},
{ "type": "Feature", "properties": {"Name":"Genola town","State":"Utah","State_Abbrev":"UT"},
"geometry":{ "type": "Point", "coordinates": [-111.847985,40.011993]}},
{ "type": "Feature", "properties": {"Name":"Glendale town","State":"Utah","State_Abbrev":"UT"},
"geometry":{ "type": "Point", "coordinates": [-112.603503,37.334232]}},
{ "type": "Feature", "properties": {"Name":"Glenwood town","State":"Utah","State_Abbrev":"UT"},
"geometry":{ "type": "Point", "coordinates": [-111.987597,38.762449]}},
{ "type": "Feature", "properties": {"Name":"Goshen town","State":"Utah","State_Abbrev":"UT"},
"geometry":{ "type": "Point", "coordinates": [-111.900826,39.951114]}},
{ "type": "Feature", "properties": {"Name":"Granite CDP","State":"Utah","State_Abbrev":"UT"},
"geometry":{ "type": "Point", "coordinates": [-111.791252,40.575662]}},
{ "type": "Feature", "properties": {"Name":"Grantsville city","State":"Utah","State_Abbrev":"UT"},
"geometry":{ "type": "Point", "coordinates": [-112.469077,40.611347]}},
{ "type": "Feature", "properties": {"Name":"Green River city","State":"Utah","State_Abbrev":"UT"},
"geometry":{ "type": "Point", "coordinates": [-110.173424,38.99346]}},
{ "type": "Feature", "properties": {"Name":"Gunnison city","State":"Utah","State_Abbrev":"UT"},
"geometry":{ "type": "Point", "coordinates": [-111.813516,39.15693]}},
{ "type": "Feature", "properties": {"Name":"Halchita CDP","State":"Utah","State_Abbrev":"UT"},
"geometry":{ "type": "Point", "coordinates": [-109.9037,37.150558]}},
{ "type": "Feature", "properties": {"Name":"Halls Crossing CDP","State":"Utah","State_Abbrev":"UT"},
"geometry":{ "type": "Point", "coordinates": [-110.665443,37.465816]}},
{ "type": "Feature", "properties": {"Name":"Hanksville town","State":"Utah","State_Abbrev":"UT"},
"geometry":{ "type": "Point", "coordinates": [-110.713454,38.371999]}},
{ "type": "Feature", "properties": {"Name":"Harrisville city","State":"Utah","State_Abbrev":"UT"},
"geometry":{ "type": "Point", "coordinates": [-111.98597,41.285318]}},
{ "type": "Feature", "properties": {"Name":"Hatch town","State":"Utah","State_Abbrev":"UT"},
"geometry":{ "type": "Point", "coordinates": [-112.434877,37.649192]}},
{ "type": "Feature", "properties": {"Name":"Heber city","State":"Utah","State_Abbrev":"UT"},
"geometry":{ "type": "Point", "coordinates": [-111.387199,40.54171]}},
{ "type": "Feature", "properties": {"Name":"Helper city","State":"Utah","State_Abbrev":"UT"},
"geometry":{ "type": "Point", "coordinates": [-110.859603,39.689694]}},
{ "type": "Feature", "properties": {"Name":"Henefer town","State":"Utah","State_Abbrev":"UT"},
"geometry":{ "type": "Point", "coordinates": [-111.493273,41.013814]}},
{ "type": "Feature", "properties": {"Name":"Henrieville town","State":"Utah","State_Abbrev":"UT"},
"geometry":{ "type": "Point", "coordinates": [-112.001906,37.563891]}},
{ "type": "Feature", "properties": {"Name":"Herriman city","State":"Utah","State_Abbrev":"UT"},
"geometry":{ "type": "Point", "coordinates": [-112.020343,40.491728]}},
{ "type": "Feature", "properties": {"Name":"Hideout town","State":"Utah","State_Abbrev":"UT"},
"geometry":{ "type": "Point", "coordinates": [-111.405842,40.645965]}},
{ "type": "Feature", "properties": {"Name":"Highland city","State":"Utah","State_Abbrev":"UT"},
"geometry":{ "type": "Point", "coordinates": [-111.79559,40.427556]}},
{ "type": "Feature", "properties": {"Name":"Hildale city","State":"Utah","State_Abbrev":"UT"},
"geometry":{ "type": "Point", "coordinates": [-112.982544,37.025434]}},
{ "type": "Feature", "properties": {"Name":"Hinckley town","State":"Utah","State_Abbrev":"UT"},
"geometry":{ "type": "Point", "coordinates": [-112.67363,39.333602]}},
{ "type": "Feature", "properties": {"Name":"Hobble Creek CDP","State":"Utah","State_Abbrev":"UT"},
"geometry":{ "type": "Point", "coordinates": [-111.496707,40.19172]}},
{ "type": "Feature", "properties": {"Name":"Holden town","State":"Utah","State_Abbrev":"UT"},
"geometry":{ "type": "Point", "coordinates": [-112.270413,39.100095]}},
{ "type": "Feature", "properties": {"Name":"Holladay city","State":"Utah","State_Abbrev":"UT"},
"geometry":{ "type": "Point", "coordinates": [-111.822697,40.659924]}},
{ "type": "Feature", "properties": {"Name":"Honeyville city","State":"Utah","State_Abbrev":"UT"},
"geometry":{ "type": "Point", "coordinates": [-112.085745,41.636119]}},
{ "type": "Feature", "properties": {"Name":"Hooper city","State":"Utah","State_Abbrev":"UT"},
"geometry":{ "type": "Point", "coordinates": [-112.34196,41.162582]}},
{ "type": "Feature", "properties": {"Name":"Howell town","State":"Utah","State_Abbrev":"UT"},
"geometry":{ "type": "Point", "coordinates": [-112.448024,41.778746]}},
{ "type": "Feature", "properties": {"Name":"Hoytsville CDP","State":"Utah","State_Abbrev":"UT"},
"geometry":{ "type": "Point", "coordinates": [-111.384734,40.875766]}},
{ "type": "Feature", "properties": {"Name":"Huntington city","State":"Utah","State_Abbrev":"UT"},
"geometry":{ "type": "Point", "coordinates": [-110.96281,39.330116]}},
{ "type": "Feature", "properties": {"Name":"Huntsville town","State":"Utah","State_Abbrev":"UT"},
"geometry":{ "type": "Point", "coordinates": [-111.771262,41.259782]}},
{ "type": "Feature", "properties": {"Name":"Hurricane city","State":"Utah","State_Abbrev":"UT"},
"geometry":{ "type": "Point", "coordinates": [-113.358862,37.148473]}},
{ "type": "Feature", "properties": {"Name":"Hyde Park city","State":"Utah","State_Abbrev":"UT"},
"geometry":{ "type": "Point", "coordinates": [-111.811323,41.801082]}},
{ "type": "Feature", "properties": {"Name":"Hyrum city","State":"Utah","State_Abbrev":"UT"},
"geometry":{ "type": "Point", "coordinates": [-111.845514,41.632797]}},
{ "type": "Feature", "properties": {"Name":"Independence town","State":"Utah","State_Abbrev":"UT"},
"geometry":{ "type": "Point", "coordinates": [-111.295708,40.410836]}},
{ "type": "Feature", "properties": {"Name":"Interlaken town","State":"Utah","State_Abbrev":"UT"},
"geometry":{ "type": "Point", "coordinates": [-111.475348,40.541184]}},
{ "type": "Feature", "properties": {"Name":"Ivins city","State":"Utah","State_Abbrev":"UT"},
"geometry":{ "type": "Point", "coordinates": [-113.68083,37.173803]}},
{ "type": "Feature", "properties": {"Name":"Jensen CDP","State":"Utah","State_Abbrev":"UT"},
"geometry":{ "type": "Point", "coordinates": [-109.355572,40.369529]}},
{ "type": "Feature", "properties": {"Name":"Joseph town","State":"Utah","State_Abbrev":"UT"},
"geometry":{ "type": "Point", "coordinates": [-112.219824,38.624845]}},
{ "type": "Feature", "properties": {"Name":"Junction town","State":"Utah","State_Abbrev":"UT"},
"geometry":{ "type": "Point", "coordinates": [-112.224615,38.236148]}},
{ "type": "Feature", "properties": {"Name":"Kamas city","State":"Utah","State_Abbrev":"UT"},
"geometry":{ "type": "Point", "coordinates": [-111.272214,40.649923]}},
{ "type": "Feature", "properties": {"Name":"Kanab city","State":"Utah","State_Abbrev":"UT"},
"geometry":{ "type": "Point", "coordinates": [-112.529991,37.034652]}},
{ "type": "Feature", "properties": {"Name":"Kanarraville town","State":"Utah","State_Abbrev":"UT"},
"geometry":{ "type": "Point", "coordinates": [-113.180983,37.537837]}},
{ "type": "Feature", "properties": {"Name":"Kanosh town","State":"Utah","State_Abbrev":"UT"},
"geometry":{ "type": "Point", "coordinates": [-112.437425,38.801396]}},
{ "type": "Feature", "properties": {"Name":"Kaysville city","State":"Utah","State_Abbrev":"UT"},
"geometry":{ "type": "Point", "coordinates": [-111.945074,41.029342]}},
{ "type": "Feature", "properties": {"Name":"Kearns metro township","State":"Utah","State_Abbrev":"UT"},
"geometry":{ "type": "Point", "coordinates": [-112.00939,40.651944]}},
{ "type": "Feature", "properties": {"Name":"Kenilworth CDP","State":"Utah","State_Abbrev":"UT"},
"geometry":{ "type": "Point", "coordinates": [-110.814539,39.680325]}},
{ "type": "Feature", "properties": {"Name":"Kingston town","State":"Utah","State_Abbrev":"UT"},
"geometry":{ "type": "Point", "coordinates": [-112.179266,38.206668]}},
{ "type": "Feature", "properties": {"Name":"Koosharem town","State":"Utah","State_Abbrev":"UT"},
"geometry":{ "type": "Point", "coordinates": [-111.881919,38.513402]}},
{ "type": "Feature", "properties": {"Name":"Lake Shore CDP","State":"Utah","State_Abbrev":"UT"},
"geometry":{ "type": "Point", "coordinates": [-111.736181,40.129442]}},
{ "type": "Feature", "properties": {"Name":"Laketown town","State":"Utah","State_Abbrev":"UT"},
"geometry":{ "type": "Point", "coordinates": [-111.332682,41.82932]}},
{ "type": "Feature", "properties": {"Name":"Lapoint CDP","State":"Utah","State_Abbrev":"UT"},
"geometry":{ "type": "Point", "coordinates": [-109.796978,40.404217]}},
{ "type": "Feature", "properties": {"Name":"La Sal CDP","State":"Utah","State_Abbrev":"UT"},
"geometry":{ "type": "Point", "coordinates": [-109.265651,38.301147]}},
{ "type": "Feature", "properties": {"Name":"La Verkin city","State":"Utah","State_Abbrev":"UT"},
"geometry":{ "type": "Point", "coordinates": [-113.250555,37.231529]}},
{ "type": "Feature", "properties": {"Name":"Layton city","State":"Utah","State_Abbrev":"UT"},
"geometry":{ "type": "Point", "coordinates": [-111.960727,41.077423]}},
{ "type": "Feature", "properties": {"Name":"Leamington town","State":"Utah","State_Abbrev":"UT"},
"geometry":{ "type": "Point", "coordinates": [-112.285226,39.531311]}},
{ "type": "Feature", "properties": {"Name":"Leeds town","State":"Utah","State_Abbrev":"UT"},
"geometry":{ "type": "Point", "coordinates": [-113.34707,37.237186]}},
{ "type": "Feature", "properties": {"Name":"Lehi city","State":"Utah","State_Abbrev":"UT"},
"geometry":{ "type": "Point", "coordinates": [-111.871998,40.414183]}},
{ "type": "Feature", "properties": {"Name":"Levan town","State":"Utah","State_Abbrev":"UT"},
"geometry":{ "type": "Point", "coordinates": [-111.860579,39.556156]}},
{ "type": "Feature", "properties": {"Name":"Lewiston city","State":"Utah","State_Abbrev":"UT"},
"geometry":{ "type": "Point", "coordinates": [-111.885815,41.968452]}},
{ "type": "Feature", "properties": {"Name":"Liberty CDP","State":"Utah","State_Abbrev":"UT"},
"geometry":{ "type": "Point", "coordinates": [-111.86488,41.342536]}},
{ "type": "Feature", "properties": {"Name":"Lindon city","State":"Utah","State_Abbrev":"UT"},
"geometry":{ "type": "Point", "coordinates": [-111.717267,40.341998]}},
{ "type": "Feature", "properties": {"Name":"Loa town","State":"Utah","State_Abbrev":"UT"},
"geometry":{ "type": "Point", "coordinates": [-111.645139,38.403769]}},
{ "type": "Feature", "properties": {"Name":"Logan city","State":"Utah","State_Abbrev":"UT"},
"geometry":{ "type": "Point", "coordinates": [-111.841764,41.740256]}},
{ "type": "Feature", "properties": {"Name":"Lyman town","State":"Utah","State_Abbrev":"UT"},
"geometry":{ "type": "Point", "coordinates": [-111.589338,38.396627]}},
{ "type": "Feature", "properties": {"Name":"Lynndyl town","State":"Utah","State_Abbrev":"UT"},
"geometry":{ "type": "Point", "coordinates": [-112.393444,39.508585]}},
{ "type": "Feature", "properties": {"Name":"Maeser CDP","State":"Utah","State_Abbrev":"UT"},
"geometry":{ "type": "Point", "coordinates": [-109.57862,40.471838]}},
{ "type": "Feature", "properties": {"Name":"Magna metro township","State":"Utah","State_Abbrev":"UT"},
"geometry":{ "type": "Point", "coordinates": [-112.18273,40.759538]}},
{ "type": "Feature", "properties": {"Name":"Manila town","State":"Utah","State_Abbrev":"UT"},
"geometry":{ "type": "Point", "coordinates": [-109.721033,40.992158]}},
{ "type": "Feature", "properties": {"Name":"Manti city","State":"Utah","State_Abbrev":"UT"},
"geometry":{ "type": "Point", "coordinates": [-111.635053,39.266859]}},
{ "type": "Feature", "properties": {"Name":"Mantua town","State":"Utah","State_Abbrev":"UT"},
"geometry":{ "type": "Point", "coordinates": [-111.935739,41.497983]}},
{ "type": "Feature", "properties": {"Name":"Mapleton city","State":"Utah","State_Abbrev":"UT"},
"geometry":{ "type": "Point", "coordinates": [-111.574246,40.118757]}},
{ "type": "Feature", "properties": {"Name":"Marion CDP","State":"Utah","State_Abbrev":"UT"},
"geometry":{ "type": "Point", "coordinates": [-111.277319,40.681022]}},
{ "type": "Feature", "properties": {"Name":"Marriott-Slaterville city","State":"Utah","State_Abbrev":"UT"},
"geometry":{ "type": "Point", "coordinates": [-112.036252,41.261051]}},
{ "type": "Feature", "properties": {"Name":"Marysvale town","State":"Utah","State_Abbrev":"UT"},
"geometry":{ "type": "Point", "coordinates": [-112.261968,38.436649]}},
{ "type": "Feature", "properties": {"Name":"Mayfield town","State":"Utah","State_Abbrev":"UT"},
"geometry":{ "type": "Point", "coordinates": [-111.70804,39.119309]}},
{ "type": "Feature", "properties": {"Name":"Meadow town","State":"Utah","State_Abbrev":"UT"},
"geometry":{ "type": "Point", "coordinates": [-112.407142,38.886223]}},
{ "type": "Feature", "properties": {"Name":"Mendon city","State":"Utah","State_Abbrev":"UT"},
"geometry":{ "type": "Point", "coordinates": [-111.977688,41.710188]}},
{ "type": "Feature", "properties": {"Name":"Mexican Hat CDP","State":"Utah","State_Abbrev":"UT"},
"geometry":{ "type": "Point", "coordinates": [-109.883578,37.174258]}},
{ "type": "Feature", "properties": {"Name":"Midvale city","State":"Utah","State_Abbrev":"UT"},
"geometry":{ "type": "Point", "coordinates": [-111.892822,40.614723]}},
{ "type": "Feature", "properties": {"Name":"Midway city","State":"Utah","State_Abbrev":"UT"},
"geometry":{ "type": "Point", "coordinates": [-111.475488,40.520364]}},
{ "type": "Feature", "properties": {"Name":"Milford city","State":"Utah","State_Abbrev":"UT"},
"geometry":{ "type": "Point", "coordinates": [-113.012265,38.394503]}},
{ "type": "Feature", "properties": {"Name":"Millcreek city","State":"Utah","State_Abbrev":"UT"},
"geometry":{ "type": "Point", "coordinates": [-111.829559,40.689017]}},
{ "type": "Feature", "properties": {"Name":"Millville city","State":"Utah","State_Abbrev":"UT"},
"geometry":{ "type": "Point", "coordinates": [-111.821221,41.685206]}},
{ "type": "Feature", "properties": {"Name":"Minersville town","State":"Utah","State_Abbrev":"UT"},
"geometry":{ "type": "Point", "coordinates": [-112.978989,38.248011]}},
{ "type": "Feature", "properties": {"Name":"Moab city","State":"Utah","State_Abbrev":"UT"},
"geometry":{ "type": "Point", "coordinates": [-109.547833,38.570104]}},
{ "type": "Feature", "properties": {"Name":"Modena CDP","State":"Utah","State_Abbrev":"UT"},
"geometry":{ "type": "Point", "coordinates": [-113.92746,37.794712]}},
{ "type": "Feature", "properties": {"Name":"Mona city","State":"Utah","State_Abbrev":"UT"},
"geometry":{ "type": "Point", "coordinates": [-111.841529,39.811804]}},
{ "type": "Feature", "properties": {"Name":"Monroe city","State":"Utah","State_Abbrev":"UT"},
"geometry":{ "type": "Point", "coordinates": [-112.119612,38.623009]}},
{ "type": "Feature", "properties": {"Name":"Montezuma Creek CDP","State":"Utah","State_Abbrev":"UT"},
"geometry":{ "type": "Point", "coordinates": [-109.30371,37.2515]}},
{ "type": "Feature", "properties": {"Name":"Monticello city","State":"Utah","State_Abbrev":"UT"},
"geometry":{ "type": "Point", "coordinates": [-109.3362,37.868534]}},
{ "type": "Feature", "properties": {"Name":"Morgan city","State":"Utah","State_Abbrev":"UT"},
"geometry":{ "type": "Point", "coordinates": [-111.680192,41.041431]}},
{ "type": "Feature", "properties": {"Name":"Moroni city","State":"Utah","State_Abbrev":"UT"},
"geometry":{ "type": "Point", "coordinates": [-111.583067,39.527028]}},
{ "type": "Feature", "properties": {"Name":"Mountain Green CDP","State":"Utah","State_Abbrev":"UT"},
"geometry":{ "type": "Point", "coordinates": [-111.787635,41.147673]}},
{ "type": "Feature", "properties": {"Name":"Mount Pleasant city","State":"Utah","State_Abbrev":"UT"},
"geometry":{ "type": "Point", "coordinates": [-111.455865,39.540744]}},
{ "type": "Feature", "properties": {"Name":"Murray city","State":"Utah","State_Abbrev":"UT"},
"geometry":{ "type": "Point", "coordinates": [-111.886568,40.650654]}},
{ "type": "Feature", "properties": {"Name":"Myton city","State":"Utah","State_Abbrev":"UT"},
"geometry":{ "type": "Point", "coordinates": [-110.062512,40.193265]}},
{ "type": "Feature", "properties": {"Name":"Naples city","State":"Utah","State_Abbrev":"UT"},
"geometry":{ "type": "Point", "coordinates": [-109.491273,40.431749]}},
{ "type": "Feature", "properties": {"Name":"Navajo Mountain CDP","State":"Utah","State_Abbrev":"UT"},
"geometry":{ "type": "Point", "coordinates": [-110.789935,37.047029]}},
{ "type": "Feature", "properties": {"Name":"Neola CDP","State":"Utah","State_Abbrev":"UT"},
"geometry":{ "type": "Point", "coordinates": [-110.03082,40.434806]}},
{ "type": "Feature", "properties": {"Name":"Nephi city","State":"Utah","State_Abbrev":"UT"},
"geometry":{ "type": "Point", "coordinates": [-111.832991,39.705266]}},
{ "type": "Feature", "properties": {"Name":"Newcastle CDP","State":"Utah","State_Abbrev":"UT"},
"geometry":{ "type": "Point", "coordinates": [-113.564366,37.662854]}},
{ "type": "Feature", "properties": {"Name":"New Harmony town","State":"Utah","State_Abbrev":"UT"},
"geometry":{ "type": "Point", "coordinates": [-113.309559,37.480216]}},
{ "type": "Feature", "properties": {"Name":"Newton town","State":"Utah","State_Abbrev":"UT"},
"geometry":{ "type": "Point", "coordinates": [-111.990752,41.86116]}},
{ "type": "Feature", "properties": {"Name":"Nibley city","State":"Utah","State_Abbrev":"UT"},
"geometry":{ "type": "Point", "coordinates": [-111.846778,41.672956]}},
{ "type": "Feature", "properties": {"Name":"North Logan city","State":"Utah","State_Abbrev":"UT"},
"geometry":{ "type": "Point", "coordinates": [-111.806654,41.775541]}},
{ "type": "Feature", "properties": {"Name":"North Ogden city","State":"Utah","State_Abbrev":"UT"},
"geometry":{ "type": "Point", "coordinates": [-111.959686,41.314613]}},
{ "type": "Feature", "properties": {"Name":"North Salt Lake city","State":"Utah","State_Abbrev":"UT"},
"geometry":{ "type": "Point", "coordinates": [-111.91878,40.847116]}},
{ "type": "Feature", "properties": {"Name":"Oak City town","State":"Utah","State_Abbrev":"UT"},
"geometry":{ "type": "Point", "coordinates": [-112.338342,39.374738]}},
{ "type": "Feature", "properties": {"Name":"Oakley city","State":"Utah","State_Abbrev":"UT"},
"geometry":{ "type": "Point", "coordinates": [-111.274099,40.740521]}},
{ "type": "Feature", "properties": {"Name":"Oasis CDP","State":"Utah","State_Abbrev":"UT"},
"geometry":{ "type": "Point", "coordinates": [-112.628951,39.292306]}},
{ "type": "Feature", "properties": {"Name":"Ogden city","State":"Utah","State_Abbrev":"UT"},
"geometry":{ "type": "Point", "coordinates": [-111.968147,41.228391]}},
{ "type": "Feature", "properties": {"Name":"Oljato-Monument Valley CDP","State":"Utah","State_Abbrev":"UT"},
"geometry":{ "type": "Point", "coordinates": [-110.251094,37.030747]}},
{ "type": "Feature", "properties": {"Name":"Ophir CDP","State":"Utah","State_Abbrev":"UT"},
"geometry":{ "type": "Point", "coordinates": [-112.255963,40.370055]}},
{ "type": "Feature", "properties": {"Name":"Orangeville city","State":"Utah","State_Abbrev":"UT"},
"geometry":{ "type": "Point", "coordinates": [-111.059173,39.230824]}},
{ "type": "Feature", "properties": {"Name":"Orderville town","State":"Utah","State_Abbrev":"UT"},
"geometry":{ "type": "Point", "coordinates": [-112.657397,37.253958]}},
{ "type": "Feature", "properties": {"Name":"Orem city","State":"Utah","State_Abbrev":"UT"},
"geometry":{ "type": "Point", "coordinates": [-111.699445,40.298065]}},
{ "type": "Feature", "properties": {"Name":"Palmyra CDP","State":"Utah","State_Abbrev":"UT"},
"geometry":{ "type": "Point", "coordinates": [-111.692804,40.134121]}},
{ "type": "Feature", "properties": {"Name":"Panguitch city","State":"Utah","State_Abbrev":"UT"},
"geometry":{ "type": "Point", "coordinates": [-112.434139,37.822774]}},
{ "type": "Feature", "properties": {"Name":"Paradise town","State":"Utah","State_Abbrev":"UT"},
"geometry":{ "type": "Point", "coordinates": [-111.833349,41.568176]}},
{ "type": "Feature", "properties": {"Name":"Paragonah town","State":"Utah","State_Abbrev":"UT"},
"geometry":{ "type": "Point", "coordinates": [-112.77112,37.885361]}},
{ "type": "Feature", "properties": {"Name":"Park City city","State":"Utah","State_Abbrev":"UT"},
"geometry":{ "type": "Point", "coordinates": [-111.501929,40.652347]}},
{ "type": "Feature", "properties": {"Name":"Parowan city","State":"Utah","State_Abbrev":"UT"},
"geometry":{ "type": "Point", "coordinates": [-112.829619,37.832577]}},
{ "type": "Feature", "properties": {"Name":"Payson city","State":"Utah","State_Abbrev":"UT"},
"geometry":{ "type": "Point", "coordinates": [-111.738805,40.035882]}},
{ "type": "Feature", "properties": {"Name":"Peoa CDP","State":"Utah","State_Abbrev":"UT"},
"geometry":{ "type": "Point", "coordinates": [-111.329403,40.732573]}},
{ "type": "Feature", "properties": {"Name":"Perry city","State":"Utah","State_Abbrev":"UT"},
"geometry":{ "type": "Point", "coordinates": [-112.040541,41.464517]}},
{ "type": "Feature", "properties": {"Name":"Peter CDP","State":"Utah","State_Abbrev":"UT"},
"geometry":{ "type": "Point", "coordinates": [-112.000644,41.777428]}},
{ "type": "Feature", "properties": {"Name":"Pine Valley CDP","State":"Utah","State_Abbrev":"UT"},
"geometry":{ "type": "Point", "coordinates": [-113.506033,37.390369]}},
{ "type": "Feature", "properties": {"Name":"Plain City city","State":"Utah","State_Abbrev":"UT"},
"geometry":{ "type": "Point", "coordinates": [-112.094297,41.306699]}},
{ "type": "Feature", "properties": {"Name":"Pleasant Grove city","State":"Utah","State_Abbrev":"UT"},
"geometry":{ "type": "Point", "coordinates": [-111.741279,40.371497]}},
{ "type": "Feature", "properties": {"Name":"Pleasant View city","State":"Utah","State_Abbrev":"UT"},
"geometry":{ "type": "Point", "coordinates": [-112.001042,41.32489]}},
{ "type": "Feature", "properties": {"Name":"Plymouth town","State":"Utah","State_Abbrev":"UT"},
"geometry":{ "type": "Point", "coordinates": [-112.146778,41.873587]}},
{ "type": "Feature", "properties": {"Name":"Portage town","State":"Utah","State_Abbrev":"UT"},
"geometry":{ "type": "Point", "coordinates": [-112.24051,41.975633]}},
{ "type": "Feature", "properties": {"Name":"Price city","State":"Utah","State_Abbrev":"UT"},
"geometry":{ "type": "Point", "coordinates": [-110.800352,39.604001]}},
{ "type": "Feature", "properties": {"Name":"Providence city","State":"Utah","State_Abbrev":"UT"},
"geometry":{ "type": "Point", "coordinates": [-111.813304,41.70341]}},
{ "type": "Feature", "properties": {"Name":"Provo city","State":"Utah","State_Abbrev":"UT"},
"geometry":{ "type": "Point", "coordinates": [-111.645057,40.245312]}},
{ "type": "Feature", "properties": {"Name":"Randlett CDP","State":"Utah","State_Abbrev":"UT"},
"geometry":{ "type": "Point", "coordinates": [-109.83081,40.226748]}},
{ "type": "Feature", "properties": {"Name":"Randolph town","State":"Utah","State_Abbrev":"UT"},
"geometry":{ "type": "Point", "coordinates": [-111.184633,41.665525]}},
{ "type": "Feature", "properties": {"Name":"Redmond town","State":"Utah","State_Abbrev":"UT"},
"geometry":{ "type": "Point", "coordinates": [-111.867242,39.00526]}},
{ "type": "Feature", "properties": {"Name":"Richfield city","State":"Utah","State_Abbrev":"UT"},
"geometry":{ "type": "Point", "coordinates": [-112.093018,38.761272]}},
{ "type": "Feature", "properties": {"Name":"Richmond city","State":"Utah","State_Abbrev":"UT"},
"geometry":{ "type": "Point", "coordinates": [-111.807202,41.923643]}},
{ "type": "Feature", "properties": {"Name":"Riverdale city","State":"Utah","State_Abbrev":"UT"},
"geometry":{ "type": "Point", "coordinates": [-112.002244,41.173126]}},
{ "type": "Feature", "properties": {"Name":"River Heights city","State":"Utah","State_Abbrev":"UT"},
"geometry":{ "type": "Point", "coordinates": [-111.819122,41.722128]}},
{ "type": "Feature", "properties": {"Name":"Riverside CDP","State":"Utah","State_Abbrev":"UT"},
"geometry":{ "type": "Point", "coordinates": [-112.140315,41.810587]}},
{ "type": "Feature", "properties": {"Name":"Riverton city","State":"Utah","State_Abbrev":"UT"},
"geometry":{ "type": "Point", "coordinates": [-111.963515,40.517634]}},
{ "type": "Feature", "properties": {"Name":"Rockville town","State":"Utah","State_Abbrev":"UT"},
"geometry":{ "type": "Point", "coordinates": [-113.05479,37.147817]}},
{ "type": "Feature", "properties": {"Name":"Rocky Ridge town","State":"Utah","State_Abbrev":"UT"},
"geometry":{ "type": "Point", "coordinates": [-111.825747,39.919747]}},
{ "type": "Feature", "properties": {"Name":"Roosevelt city","State":"Utah","State_Abbrev":"UT"},
"geometry":{ "type": "Point", "coordinates": [-110.009329,40.292393]}},
{ "type": "Feature", "properties": {"Name":"Roy city","State":"Utah","State_Abbrev":"UT"},
"geometry":{ "type": "Point", "coordinates": [-112.048479,41.171459]}},
{ "type": "Feature", "properties": {"Name":"Rush Valley town","State":"Utah","State_Abbrev":"UT"},
"geometry":{ "type": "Point", "coordinates": [-112.450643,40.361285]}},
{ "type": "Feature", "properties": {"Name":"St. George city","State":"Utah","State_Abbrev":"UT"},
"geometry":{ "type": "Point", "coordinates": [-113.576534,37.077006]}},
{ "type": "Feature", "properties": {"Name":"Salem city","State":"Utah","State_Abbrev":"UT"},
"geometry":{ "type": "Point", "coordinates": [-111.672361,40.053815]}},
{ "type": "Feature", "properties": {"Name":"Salina city","State":"Utah","State_Abbrev":"UT"},
"geometry":{ "type": "Point", "coordinates": [-111.865194,38.938815]}},
{ "type": "Feature", "properties": {"Name":"Salt Lake City city","State":"Utah","State_Abbrev":"UT"},
"geometry":{ "type": "Point", "coordinates": [-111.930991,40.776928]}},
{ "type": "Feature", "properties": {"Name":"Samak CDP","State":"Utah","State_Abbrev":"UT"},
"geometry":{ "type": "Point", "coordinates": [-111.2413,40.638907]}},
{ "type": "Feature", "properties": {"Name":"Sandy city","State":"Utah","State_Abbrev":"UT"},
"geometry":{ "type": "Point", "coordinates": [-111.84987,40.571714]}},
{ "type": "Feature", "properties": {"Name":"Santa Clara city","State":"Utah","State_Abbrev":"UT"},
"geometry":{ "type": "Point", "coordinates": [-113.656646,37.131398]}},
{ "type": "Feature", "properties": {"Name":"Santaquin city","State":"Utah","State_Abbrev":"UT"},
"geometry":{ "type": "Point", "coordinates": [-111.794431,39.969893]}},
{ "type": "Feature", "properties": {"Name":"Saratoga Springs city","State":"Utah","State_Abbrev":"UT"},
"geometry":{ "type": "Point", "coordinates": [-111.91477,40.34467]}},
{ "type": "Feature", "properties": {"Name":"Scipio town","State":"Utah","State_Abbrev":"UT"},
"geometry":{ "type": "Point", "coordinates": [-112.104411,39.24908]}},
{ "type": "Feature", "properties": {"Name":"Scofield town","State":"Utah","State_Abbrev":"UT"},
"geometry":{ "type": "Point", "coordinates": [-111.16226,39.719827]}},
{ "type": "Feature", "properties": {"Name":"Sigurd town","State":"Utah","State_Abbrev":"UT"},
"geometry":{ "type": "Point", "coordinates": [-111.963141,38.86622]}},
{ "type": "Feature", "properties": {"Name":"Silver Summit CDP","State":"Utah","State_Abbrev":"UT"},
"geometry":{ "type": "Point", "coordinates": [-111.513907,40.748926]}},
{ "type": "Feature", "properties": {"Name":"Smithfield city","State":"Utah","State_Abbrev":"UT"},
"geometry":{ "type": "Point", "coordinates": [-111.82711,41.835103]}},
{ "type": "Feature", "properties": {"Name":"Snowville town","State":"Utah","State_Abbrev":"UT"},
"geometry":{ "type": "Point", "coordinates": [-112.716407,41.972822]}},
{ "type": "Feature", "properties": {"Name":"Snyderville CDP","State":"Utah","State_Abbrev":"UT"},
"geometry":{ "type": "Point", "coordinates": [-111.543375,40.704118]}},
{ "type": "Feature", "properties": {"Name":"South Jordan city","State":"Utah","State_Abbrev":"UT"},
"geometry":{ "type": "Point", "coordinates": [-111.978584,40.556905]}},
{ "type": "Feature", "properties": {"Name":"South Ogden city","State":"Utah","State_Abbrev":"UT"},
"geometry":{ "type": "Point", "coordinates": [-111.957694,41.172226]}},
{ "type": "Feature", "properties": {"Name":"South Salt Lake city","State":"Utah","State_Abbrev":"UT"},
"geometry":{ "type": "Point", "coordinates": [-111.898617,40.705649]}},
{ "type": "Feature", "properties": {"Name":"South Weber city","State":"Utah","State_Abbrev":"UT"},
"geometry":{ "type": "Point", "coordinates": [-111.938759,41.134197]}},
{ "type": "Feature", "properties": {"Name":"South Willard CDP","State":"Utah","State_Abbrev":"UT"},
"geometry":{ "type": "Point", "coordinates": [-112.040882,41.358299]}},
{ "type": "Feature", "properties": {"Name":"Spanish Fork city","State":"Utah","State_Abbrev":"UT"},
"geometry":{ "type": "Point", "coordinates": [-111.640822,40.110187]}},
{ "type": "Feature", "properties": {"Name":"Spanish Valley CDP","State":"Utah","State_Abbrev":"UT"},
"geometry":{ "type": "Point", "coordinates": [-109.420972,38.474263]}},
{ "type": "Feature", "properties": {"Name":"Spring City city","State":"Utah","State_Abbrev":"UT"},
"geometry":{ "type": "Point", "coordinates": [-111.491764,39.479865]}},
{ "type": "Feature", "properties": {"Name":"Springdale town","State":"Utah","State_Abbrev":"UT"},
"geometry":{ "type": "Point", "coordinates": [-113.005007,37.181673]}},
{ "type": "Feature", "properties": {"Name":"Spring Glen CDP","State":"Utah","State_Abbrev":"UT"},
"geometry":{ "type": "Point", "coordinates": [-110.846114,39.656065]}},
{ "type": "Feature", "properties": {"Name":"Spring Lake CDP","State":"Utah","State_Abbrev":"UT"},
"geometry":{ "type": "Point", "coordinates": [-111.750636,40.008534]}},
{ "type": "Feature", "properties": {"Name":"Springville city","State":"Utah","State_Abbrev":"UT"},
"geometry":{ "type": "Point", "coordinates": [-111.619525,40.164273]}},
{ "type": "Feature", "properties": {"Name":"Stansbury Park CDP","State":"Utah","State_Abbrev":"UT"},
"geometry":{ "type": "Point", "coordinates": [-112.299399,40.640722]}},
{ "type": "Feature", "properties": {"Name":"Sterling town","State":"Utah","State_Abbrev":"UT"},
"geometry":{ "type": "Point", "coordinates": [-111.690405,39.193321]}},
{ "type": "Feature", "properties": {"Name":"Stockton town","State":"Utah","State_Abbrev":"UT"},
"geometry":{ "type": "Point", "coordinates": [-112.37442,40.444132]}},
{ "type": "Feature", "properties": {"Name":"Summit CDP","State":"Utah","State_Abbrev":"UT"},
"geometry":{ "type": "Point", "coordinates": [-112.933135,37.805337]}},
{ "type": "Feature", "properties": {"Name":"Summit Park CDP","State":"Utah","State_Abbrev":"UT"},
"geometry":{ "type": "Point", "coordinates": [-111.587245,40.742334]}},
{ "type": "Feature", "properties": {"Name":"Sundance CDP","State":"Utah","State_Abbrev":"UT"},
"geometry":{ "type": "Point", "coordinates": [-111.590879,40.392723]}},
{ "type": "Feature", "properties": {"Name":"Sunset city","State":"Utah","State_Abbrev":"UT"},
"geometry":{ "type": "Point", "coordinates": [-112.028388,41.13806]}},
{ "type": "Feature", "properties": {"Name":"Sutherland CDP","State":"Utah","State_Abbrev":"UT"},
"geometry":{ "type": "Point", "coordinates": [-112.63994,39.389581]}},
{ "type": "Feature", "properties": {"Name":"Syracuse city","State":"Utah","State_Abbrev":"UT"},
"geometry":{ "type": "Point", "coordinates": [-112.068738,41.085847]}},
{ "type": "Feature", "properties": {"Name":"Tabiona town","State":"Utah","State_Abbrev":"UT"},
"geometry":{ "type": "Point", "coordinates": [-110.709559,40.354216]}},
{ "type": "Feature", "properties": {"Name":"Taylorsville city","State":"Utah","State_Abbrev":"UT"},
"geometry":{ "type": "Point", "coordinates": [-111.94933,40.656942]}},
{ "type": "Feature", "properties": {"Name":"Teasdale CDP","State":"Utah","State_Abbrev":"UT"},
"geometry":{ "type": "Point", "coordinates": [-111.472367,38.285097]}},
{ "type": "Feature", "properties": {"Name":"Thatcher CDP","State":"Utah","State_Abbrev":"UT"},
"geometry":{ "type": "Point", "coordinates": [-112.320063,41.681513]}},
{ "type": "Feature", "properties": {"Name":"Thompson Springs CDP","State":"Utah","State_Abbrev":"UT"},
"geometry":{ "type": "Point", "coordinates": [-109.703719,38.963575]}},
{ "type": "Feature", "properties": {"Name":"Timber Lakes CDP","State":"Utah","State_Abbrev":"UT"},
"geometry":{ "type": "Point", "coordinates": [-111.255838,40.474957]}},
{ "type": "Feature", "properties": {"Name":"Tooele city","State":"Utah","State_Abbrev":"UT"},
"geometry":{ "type": "Point", "coordinates": [-112.307843,40.539396]}},
{ "type": "Feature", "properties": {"Name":"Toquerville city","State":"Utah","State_Abbrev":"UT"},
"geometry":{ "type": "Point", "coordinates": [-113.295135,37.266546]}},
{ "type": "Feature", "properties": {"Name":"Torrey town","State":"Utah","State_Abbrev":"UT"},
"geometry":{ "type": "Point", "coordinates": [-111.427133,38.307337]}},
{ "type": "Feature", "properties": {"Name":"Tremonton city","State":"Utah","State_Abbrev":"UT"},
"geometry":{ "type": "Point", "coordinates": [-112.188861,41.718407]}},
{ "type": "Feature", "properties": {"Name":"Trenton town","State":"Utah","State_Abbrev":"UT"},
"geometry":{ "type": "Point", "coordinates": [-111.935809,41.913878]}},
{ "type": "Feature", "properties": {"Name":"Tropic town","State":"Utah","State_Abbrev":"UT"},
"geometry":{ "type": "Point", "coordinates": [-112.087959,37.633054]}},
{ "type": "Feature", "properties": {"Name":"Tselakai Dezza CDP","State":"Utah","State_Abbrev":"UT"},
"geometry":{ "type": "Point", "coordinates": [-109.609096,37.210008]}},
{ "type": "Feature", "properties": {"Name":"Uintah town","State":"Utah","State_Abbrev":"UT"},
"geometry":{ "type": "Point", "coordinates": [-111.932385,41.141357]}},
{ "type": "Feature", "properties": {"Name":"Vernal city","State":"Utah","State_Abbrev":"UT"},
"geometry":{ "type": "Point", "coordinates": [-109.538007,40.451701]}},
{ "type": "Feature", "properties": {"Name":"Vernon town","State":"Utah","State_Abbrev":"UT"},
"geometry":{ "type": "Point", "coordinates": [-112.445774,40.09559]}},
{ "type": "Feature", "properties": {"Name":"Veyo CDP","State":"Utah","State_Abbrev":"UT"},
"geometry":{ "type": "Point", "coordinates": [-113.693028,37.337502]}},
{ "type": "Feature", "properties": {"Name":"Vineyard town","State":"Utah","State_Abbrev":"UT"},
"geometry":{ "type": "Point", "coordinates": [-111.754784,40.305056]}},
{ "type": "Feature", "properties": {"Name":"Virgin town","State":"Utah","State_Abbrev":"UT"},
"geometry":{ "type": "Point", "coordinates": [-113.205539,37.194738]}},
{ "type": "Feature", "properties": {"Name":"Wales town","State":"Utah","State_Abbrev":"UT"},
"geometry":{ "type": "Point", "coordinates": [-111.636079,39.48518]}},
{ "type": "Feature", "properties": {"Name":"Wallsburg town","State":"Utah","State_Abbrev":"UT"},
"geometry":{ "type": "Point", "coordinates": [-111.419464,40.386871]}},
{ "type": "Feature", "properties": {"Name":"Wanship CDP","State":"Utah","State_Abbrev":"UT"},
"geometry":{ "type": "Point", "coordinates": [-111.415089,40.816759]}},
{ "type": "Feature", "properties": {"Name":"Washington city","State":"Utah","State_Abbrev":"UT"},
"geometry":{ "type": "Point", "coordinates": [-113.487759,37.126676]}},
{ "type": "Feature", "properties": {"Name":"Washington Terrace city","State":"Utah","State_Abbrev":"UT"},
"geometry":{ "type": "Point", "coordinates": [-111.978153,41.168318]}},
{ "type": "Feature", "properties": {"Name":"Wellington city","State":"Utah","State_Abbrev":"UT"},
"geometry":{ "type": "Point", "coordinates": [-110.734374,39.53586]}},
{ "type": "Feature", "properties": {"Name":"Wellsville city","State":"Utah","State_Abbrev":"UT"},
"geometry":{ "type": "Point", "coordinates": [-111.942094,41.623416]}},
{ "type": "Feature", "properties": {"Name":"Wendover city","State":"Utah","State_Abbrev":"UT"},
"geometry":{ "type": "Point", "coordinates": [-114.025097,40.724025]}},
{ "type": "Feature", "properties": {"Name":"West Bountiful city","State":"Utah","State_Abbrev":"UT"},
"geometry":{ "type": "Point", "coordinates": [-111.908454,40.901267]}},
{ "type": "Feature", "properties": {"Name":"West Haven city","State":"Utah","State_Abbrev":"UT"},
"geometry":{ "type": "Point", "coordinates": [-112.053612,41.209075]}},
{ "type": "Feature", "properties": {"Name":"West Jordan city","State":"Utah","State_Abbrev":"UT"},
"geometry":{ "type": "Point", "coordinates": [-112.000744,40.60246]}},
{ "type": "Feature", "properties": {"Name":"West Mountain CDP","State":"Utah","State_Abbrev":"UT"},
"geometry":{ "type": "Point", "coordinates": [-111.783353,40.051816]}},
{ "type": "Feature", "properties": {"Name":"West Point city","State":"Utah","State_Abbrev":"UT"},
"geometry":{ "type": "Point", "coordinates": [-112.098224,41.121721]}},
{ "type": "Feature", "properties": {"Name":"West Valley City city","State":"Utah","State_Abbrev":"UT"},
"geometry":{ "type": "Point", "coordinates": [-112.011759,40.688493]}},
{ "type": "Feature", "properties": {"Name":"West Wood CDP","State":"Utah","State_Abbrev":"UT"},
"geometry":{ "type": "Point", "coordinates": [-110.842424,39.605158]}},
{ "type": "Feature", "properties": {"Name":"White City metro township","State":"Utah","State_Abbrev":"UT"},
"geometry":{ "type": "Point", "coordinates": [-111.862641,40.568742]}},
{ "type": "Feature", "properties": {"Name":"White Mesa CDP","State":"Utah","State_Abbrev":"UT"},
"geometry":{ "type": "Point", "coordinates": [-109.459963,37.459621]}},
{ "type": "Feature", "properties": {"Name":"Whiterocks CDP","State":"Utah","State_Abbrev":"UT"},
"geometry":{ "type": "Point", "coordinates": [-109.94122,40.472147]}},
{ "type": "Feature", "properties": {"Name":"Willard city","State":"Utah","State_Abbrev":"UT"},
"geometry":{ "type": "Point", "coordinates": [-112.042539,41.403172]}},
{ "type": "Feature", "properties": {"Name":"Wolf Creek CDP","State":"Utah","State_Abbrev":"UT"},
"geometry":{ "type": "Point", "coordinates": [-111.828756,41.3253]}},
{ "type": "Feature", "properties": {"Name":"Woodland CDP","State":"Utah","State_Abbrev":"UT"},
"geometry":{ "type": "Point", "coordinates": [-111.235761,40.583797]}},
{ "type": "Feature", "properties": {"Name":"Woodland Hills city","State":"Utah","State_Abbrev":"UT"},
"geometry":{ "type": "Point", "coordinates": [-111.655808,40.013196]}},
{ "type": "Feature", "properties": {"Name":"Woodruff town","State":"Utah","State_Abbrev":"UT"},
"geometry":{ "type": "Point", "coordinates": [-111.163931,41.521183]}},
{ "type": "Feature", "properties": {"Name":"Woods Cross city","State":"Utah","State_Abbrev":"UT"},
"geometry":{ "type": "Point", "coordinates": [-111.917773,40.87319]}}]}
