{"type":"FeatureCollection","features":[
{ "type": "Feature", "properties": {"Name":"Albany village","State":"Vermont","State_Abbrev":"VT"},
"geometry":{ "type": "Point", "coordinates": [-72.381758,44.729932]}},
{ "type": "Feature", "properties": {"Name":"Alburgh village","State":"Vermont","State_Abbrev":"VT"},
"geometry":{ "type": "Point", "coordinates": [-73.30257,44.976728]}},
{ "type": "Feature", "properties": {"Name":"Algiers CDP","State":"Vermont","State_Abbrev":"VT"},
"geometry":{ "type": "Point", "coordinates": [-72.579559,42.820005]}},
{ "type": "Feature", "properties": {"Name":"Arlington CDP","State":"Vermont","State_Abbrev":"VT"},
"geometry":{ "type": "Point", "coordinates": [-73.146076,43.072883]}},
{ "type": "Feature", "properties": {"Name":"Ascutney CDP","State":"Vermont","State_Abbrev":"VT"},
"geometry":{ "type": "Point", "coordinates": [-72.405702,43.408312]}},
{ "type": "Feature", "properties": {"Name":"Bakersfield CDP","State":"Vermont","State_Abbrev":"VT"},
"geometry":{ "type": "Point", "coordinates": [-72.803277,44.782021]}},
{ "type": "Feature", "properties": {"Name":"Barnet CDP","State":"Vermont","State_Abbrev":"VT"},
"geometry":{ "type": "Point", "coordinates": [-72.04983,44.295484]}},
{ "type": "Feature", "properties": {"Name":"Barre city","State":"Vermont","State_Abbrev":"VT"},
"geometry":{ "type": "Point", "coordinates": [-72.507979,44.199088]}},
{ "type": "Feature", "properties": {"Name":"Barton village","State":"Vermont","State_Abbrev":"VT"},
"geometry":{ "type": "Point", "coordinates": [-72.178552,44.747972]}},
{ "type": "Feature", "properties": {"Name":"Beecher Falls CDP","State":"Vermont","State_Abbrev":"VT"},
"geometry":{ "type": "Point", "coordinates": [-71.487927,45.009587]}},
{ "type": "Feature", "properties": {"Name":"Bellows Falls village","State":"Vermont","State_Abbrev":"VT"},
"geometry":{ "type": "Point", "coordinates": [-72.459088,43.134554]}},
{ "type": "Feature", "properties": {"Name":"Bennington CDP","State":"Vermont","State_Abbrev":"VT"},
"geometry":{ "type": "Point", "coordinates": [-73.180181,42.871243]}},
{ "type": "Feature", "properties": {"Name":"Benson CDP","State":"Vermont","State_Abbrev":"VT"},
"geometry":{ "type": "Point", "coordinates": [-73.302976,43.710063]}},
{ "type": "Feature", "properties": {"Name":"Bethel CDP","State":"Vermont","State_Abbrev":"VT"},
"geometry":{ "type": "Point", "coordinates": [-72.634469,43.829706]}},
{ "type": "Feature", "properties": {"Name":"Bolton CDP","State":"Vermont","State_Abbrev":"VT"},
"geometry":{ "type": "Point", "coordinates": [-72.88601,44.374215]}},
{ "type": "Feature", "properties": {"Name":"Bolton Valley CDP","State":"Vermont","State_Abbrev":"VT"},
"geometry":{ "type": "Point", "coordinates": [-72.857466,44.416642]}},
{ "type": "Feature", "properties": {"Name":"Bradford CDP","State":"Vermont","State_Abbrev":"VT"},
"geometry":{ "type": "Point", "coordinates": [-72.124464,43.995926]}},
{ "type": "Feature", "properties": {"Name":"Brandon CDP","State":"Vermont","State_Abbrev":"VT"},
"geometry":{ "type": "Point", "coordinates": [-73.09028,43.810474]}},
{ "type": "Feature", "properties": {"Name":"Brattleboro CDP","State":"Vermont","State_Abbrev":"VT"},
"geometry":{ "type": "Point", "coordinates": [-72.559216,42.861623]}},
{ "type": "Feature", "properties": {"Name":"Bristol CDP","State":"Vermont","State_Abbrev":"VT"},
"geometry":{ "type": "Point", "coordinates": [-73.09131,44.137679]}},
{ "type": "Feature", "properties": {"Name":"Burlington city","State":"Vermont","State_Abbrev":"VT"},
"geometry":{ "type": "Point", "coordinates": [-73.238882,44.491927]}},
{ "type": "Feature", "properties": {"Name":"Cabot CDP","State":"Vermont","State_Abbrev":"VT"},
"geometry":{ "type": "Point", "coordinates": [-72.316688,44.406782]}},
{ "type": "Feature", "properties": {"Name":"Cambridge village","State":"Vermont","State_Abbrev":"VT"},
"geometry":{ "type": "Point", "coordinates": [-72.881406,44.637307]}},
{ "type": "Feature", "properties": {"Name":"Canaan CDP","State":"Vermont","State_Abbrev":"VT"},
"geometry":{ "type": "Point", "coordinates": [-71.527141,45.006738]}},
{ "type": "Feature", "properties": {"Name":"Castleton CDP","State":"Vermont","State_Abbrev":"VT"},
"geometry":{ "type": "Point", "coordinates": [-73.184824,43.605438]}},
{ "type": "Feature", "properties": {"Name":"Castleton Four Corners CDP","State":"Vermont","State_Abbrev":"VT"},
"geometry":{ "type": "Point", "coordinates": [-73.210573,43.611965]}},
{ "type": "Feature", "properties": {"Name":"Cavendish CDP","State":"Vermont","State_Abbrev":"VT"},
"geometry":{ "type": "Point", "coordinates": [-72.607864,43.385393]}},
{ "type": "Feature", "properties": {"Name":"Chelsea CDP","State":"Vermont","State_Abbrev":"VT"},
"geometry":{ "type": "Point", "coordinates": [-72.451214,43.991743]}},
{ "type": "Feature", "properties": {"Name":"Chester CDP","State":"Vermont","State_Abbrev":"VT"},
"geometry":{ "type": "Point", "coordinates": [-72.596291,43.269192]}},
{ "type": "Feature", "properties": {"Name":"Chimney Hill CDP","State":"Vermont","State_Abbrev":"VT"},
"geometry":{ "type": "Point", "coordinates": [-72.900891,42.884428]}},
{ "type": "Feature", "properties": {"Name":"Chittenden CDP","State":"Vermont","State_Abbrev":"VT"},
"geometry":{ "type": "Point", "coordinates": [-72.949464,43.703323]}},
{ "type": "Feature", "properties": {"Name":"Concord CDP","State":"Vermont","State_Abbrev":"VT"},
"geometry":{ "type": "Point", "coordinates": [-71.886404,44.435598]}},
{ "type": "Feature", "properties": {"Name":"Coventry CDP","State":"Vermont","State_Abbrev":"VT"},
"geometry":{ "type": "Point", "coordinates": [-72.270044,44.864935]}},
{ "type": "Feature", "properties": {"Name":"Danby CDP","State":"Vermont","State_Abbrev":"VT"},
"geometry":{ "type": "Point", "coordinates": [-72.99463,43.343667]}},
{ "type": "Feature", "properties": {"Name":"Danville CDP","State":"Vermont","State_Abbrev":"VT"},
"geometry":{ "type": "Point", "coordinates": [-72.141614,44.410261]}},
{ "type": "Feature", "properties": {"Name":"Derby Center village","State":"Vermont","State_Abbrev":"VT"},
"geometry":{ "type": "Point", "coordinates": [-72.136208,44.954564]}},
{ "type": "Feature", "properties": {"Name":"Derby Line village","State":"Vermont","State_Abbrev":"VT"},
"geometry":{ "type": "Point", "coordinates": [-72.107263,44.998695]}},
{ "type": "Feature", "properties": {"Name":"Dorset CDP","State":"Vermont","State_Abbrev":"VT"},
"geometry":{ "type": "Point", "coordinates": [-73.108367,43.26046]}},
{ "type": "Feature", "properties": {"Name":"East Barre CDP","State":"Vermont","State_Abbrev":"VT"},
"geometry":{ "type": "Point", "coordinates": [-72.449497,44.14834]}},
{ "type": "Feature", "properties": {"Name":"East Burke CDP","State":"Vermont","State_Abbrev":"VT"},
"geometry":{ "type": "Point", "coordinates": [-71.940967,44.587657]}},
{ "type": "Feature", "properties": {"Name":"East Charlotte CDP","State":"Vermont","State_Abbrev":"VT"},
"geometry":{ "type": "Point", "coordinates": [-73.190865,44.318368]}},
{ "type": "Feature", "properties": {"Name":"East Dorset CDP","State":"Vermont","State_Abbrev":"VT"},
"geometry":{ "type": "Point", "coordinates": [-73.007515,43.243724]}},
{ "type": "Feature", "properties": {"Name":"East Middlebury CDP","State":"Vermont","State_Abbrev":"VT"},
"geometry":{ "type": "Point", "coordinates": [-73.100235,43.976586]}},
{ "type": "Feature", "properties": {"Name":"East Montpelier CDP","State":"Vermont","State_Abbrev":"VT"},
"geometry":{ "type": "Point", "coordinates": [-72.491241,44.267319]}},
{ "type": "Feature", "properties": {"Name":"East Poultney CDP","State":"Vermont","State_Abbrev":"VT"},
"geometry":{ "type": "Point", "coordinates": [-73.215011,43.525649]}},
{ "type": "Feature", "properties": {"Name":"Enosburg Falls village","State":"Vermont","State_Abbrev":"VT"},
"geometry":{ "type": "Point", "coordinates": [-72.801952,44.910013]}},
{ "type": "Feature", "properties": {"Name":"Essex Junction village","State":"Vermont","State_Abbrev":"VT"},
"geometry":{ "type": "Point", "coordinates": [-73.114121,44.490288]}},
{ "type": "Feature", "properties": {"Name":"Fairfax CDP","State":"Vermont","State_Abbrev":"VT"},
"geometry":{ "type": "Point", "coordinates": [-73.009271,44.671277]}},
{ "type": "Feature", "properties": {"Name":"Fair Haven CDP","State":"Vermont","State_Abbrev":"VT"},
"geometry":{ "type": "Point", "coordinates": [-73.268898,43.592783]}},
{ "type": "Feature", "properties": {"Name":"Fairlee CDP","State":"Vermont","State_Abbrev":"VT"},
"geometry":{ "type": "Point", "coordinates": [-72.159137,43.893818]}},
{ "type": "Feature", "properties": {"Name":"Gilman CDP","State":"Vermont","State_Abbrev":"VT"},
"geometry":{ "type": "Point", "coordinates": [-71.712284,44.413981]}},
{ "type": "Feature", "properties": {"Name":"Glover CDP","State":"Vermont","State_Abbrev":"VT"},
"geometry":{ "type": "Point", "coordinates": [-72.199329,44.707108]}},
{ "type": "Feature", "properties": {"Name":"Grafton CDP","State":"Vermont","State_Abbrev":"VT"},
"geometry":{ "type": "Point", "coordinates": [-72.60853,43.170735]}},
{ "type": "Feature", "properties": {"Name":"Graniteville CDP","State":"Vermont","State_Abbrev":"VT"},
"geometry":{ "type": "Point", "coordinates": [-72.481395,44.145848]}},
{ "type": "Feature", "properties": {"Name":"Greensboro CDP","State":"Vermont","State_Abbrev":"VT"},
"geometry":{ "type": "Point", "coordinates": [-72.315503,44.578992]}},
{ "type": "Feature", "properties": {"Name":"Greensboro Bend CDP","State":"Vermont","State_Abbrev":"VT"},
"geometry":{ "type": "Point", "coordinates": [-72.265645,44.561395]}},
{ "type": "Feature", "properties": {"Name":"Groton CDP","State":"Vermont","State_Abbrev":"VT"},
"geometry":{ "type": "Point", "coordinates": [-72.201097,44.218915]}},
{ "type": "Feature", "properties": {"Name":"Hanksville CDP","State":"Vermont","State_Abbrev":"VT"},
"geometry":{ "type": "Point", "coordinates": [-72.96089,44.253368]}},
{ "type": "Feature", "properties": {"Name":"Hardwick CDP","State":"Vermont","State_Abbrev":"VT"},
"geometry":{ "type": "Point", "coordinates": [-72.364454,44.496963]}},
{ "type": "Feature", "properties": {"Name":"Harmonyville CDP","State":"Vermont","State_Abbrev":"VT"},
"geometry":{ "type": "Point", "coordinates": [-72.667429,43.036286]}},
{ "type": "Feature", "properties": {"Name":"Hartford Village CDP","State":"Vermont","State_Abbrev":"VT"},
"geometry":{ "type": "Point", "coordinates": [-72.337742,43.666738]}},
{ "type": "Feature", "properties": {"Name":"Hartland CDP","State":"Vermont","State_Abbrev":"VT"},
"geometry":{ "type": "Point", "coordinates": [-72.401149,43.542639]}},
{ "type": "Feature", "properties": {"Name":"Highgate Center CDP","State":"Vermont","State_Abbrev":"VT"},
"geometry":{ "type": "Point", "coordinates": [-73.038471,44.934919]}},
{ "type": "Feature", "properties": {"Name":"Highgate Springs CDP","State":"Vermont","State_Abbrev":"VT"},
"geometry":{ "type": "Point", "coordinates": [-73.105629,44.978326]}},
{ "type": "Feature", "properties": {"Name":"Hinesburg CDP","State":"Vermont","State_Abbrev":"VT"},
"geometry":{ "type": "Point", "coordinates": [-73.109207,44.333146]}},
{ "type": "Feature", "properties": {"Name":"Huntington CDP","State":"Vermont","State_Abbrev":"VT"},
"geometry":{ "type": "Point", "coordinates": [-72.989362,44.326403]}},
{ "type": "Feature", "properties": {"Name":"Huntington Center CDP","State":"Vermont","State_Abbrev":"VT"},
"geometry":{ "type": "Point", "coordinates": [-72.969163,44.289043]}},
{ "type": "Feature", "properties": {"Name":"Hyde Park village","State":"Vermont","State_Abbrev":"VT"},
"geometry":{ "type": "Point", "coordinates": [-72.608364,44.599081]}},
{ "type": "Feature", "properties": {"Name":"Irasburg CDP","State":"Vermont","State_Abbrev":"VT"},
"geometry":{ "type": "Point", "coordinates": [-72.290572,44.800772]}},
{ "type": "Feature", "properties": {"Name":"Island Pond CDP","State":"Vermont","State_Abbrev":"VT"},
"geometry":{ "type": "Point", "coordinates": [-71.885546,44.814026]}},
{ "type": "Feature", "properties": {"Name":"Jacksonville village","State":"Vermont","State_Abbrev":"VT"},
"geometry":{ "type": "Point", "coordinates": [-72.815564,42.79403]}},
{ "type": "Feature", "properties": {"Name":"Jamaica CDP","State":"Vermont","State_Abbrev":"VT"},
"geometry":{ "type": "Point", "coordinates": [-72.77457,43.095201]}},
{ "type": "Feature", "properties": {"Name":"Jeffersonville village","State":"Vermont","State_Abbrev":"VT"},
"geometry":{ "type": "Point", "coordinates": [-72.826096,44.64659]}},
{ "type": "Feature", "properties": {"Name":"Jericho village","State":"Vermont","State_Abbrev":"VT"},
"geometry":{ "type": "Point", "coordinates": [-72.990293,44.502675]}},
{ "type": "Feature", "properties": {"Name":"Johnson village","State":"Vermont","State_Abbrev":"VT"},
"geometry":{ "type": "Point", "coordinates": [-72.678702,44.636968]}},
{ "type": "Feature", "properties": {"Name":"Killington Village CDP","State":"Vermont","State_Abbrev":"VT"},
"geometry":{ "type": "Point", "coordinates": [-72.778421,43.650545]}},
{ "type": "Feature", "properties": {"Name":"Lincoln CDP","State":"Vermont","State_Abbrev":"VT"},
"geometry":{ "type": "Point", "coordinates": [-72.99377,44.102714]}},
{ "type": "Feature", "properties": {"Name":"Londonderry CDP","State":"Vermont","State_Abbrev":"VT"},
"geometry":{ "type": "Point", "coordinates": [-72.807969,43.230113]}},
{ "type": "Feature", "properties": {"Name":"Lowell CDP","State":"Vermont","State_Abbrev":"VT"},
"geometry":{ "type": "Point", "coordinates": [-72.432757,44.793476]}},
{ "type": "Feature", "properties": {"Name":"Ludlow village","State":"Vermont","State_Abbrev":"VT"},
"geometry":{ "type": "Point", "coordinates": [-72.699211,43.401856]}},
{ "type": "Feature", "properties": {"Name":"Lunenburg CDP","State":"Vermont","State_Abbrev":"VT"},
"geometry":{ "type": "Point", "coordinates": [-71.674197,44.453063]}},
{ "type": "Feature", "properties": {"Name":"Lyndon CDP","State":"Vermont","State_Abbrev":"VT"},
"geometry":{ "type": "Point", "coordinates": [-72.013761,44.515122]}},
{ "type": "Feature", "properties": {"Name":"Lyndon Center CDP","State":"Vermont","State_Abbrev":"VT"},
"geometry":{ "type": "Point", "coordinates": [-72.015613,44.540597]}},
{ "type": "Feature", "properties": {"Name":"Lyndonville village","State":"Vermont","State_Abbrev":"VT"},
"geometry":{ "type": "Point", "coordinates": [-72.000649,44.534969]}},
{ "type": "Feature", "properties": {"Name":"Manchester village","State":"Vermont","State_Abbrev":"VT"},
"geometry":{ "type": "Point", "coordinates": [-73.067098,43.160037]}},
{ "type": "Feature", "properties": {"Name":"Manchester Center CDP","State":"Vermont","State_Abbrev":"VT"},
"geometry":{ "type": "Point", "coordinates": [-73.035178,43.188397]}},
{ "type": "Feature", "properties": {"Name":"Marshfield village","State":"Vermont","State_Abbrev":"VT"},
"geometry":{ "type": "Point", "coordinates": [-72.349726,44.353357]}},
{ "type": "Feature", "properties": {"Name":"Middlebury CDP","State":"Vermont","State_Abbrev":"VT"},
"geometry":{ "type": "Point", "coordinates": [-73.157609,44.007904]}},
{ "type": "Feature", "properties": {"Name":"Middletown Springs CDP","State":"Vermont","State_Abbrev":"VT"},
"geometry":{ "type": "Point", "coordinates": [-73.123045,43.486568]}},
{ "type": "Feature", "properties": {"Name":"Milton CDP","State":"Vermont","State_Abbrev":"VT"},
"geometry":{ "type": "Point", "coordinates": [-73.12244,44.630376]}},
{ "type": "Feature", "properties": {"Name":"Montpelier city","State":"Vermont","State_Abbrev":"VT"},
"geometry":{ "type": "Point", "coordinates": [-72.571524,44.266448]}},
{ "type": "Feature", "properties": {"Name":"Morrisville village","State":"Vermont","State_Abbrev":"VT"},
"geometry":{ "type": "Point", "coordinates": [-72.589969,44.557227]}},
{ "type": "Feature", "properties": {"Name":"Newbury village","State":"Vermont","State_Abbrev":"VT"},
"geometry":{ "type": "Point", "coordinates": [-72.057719,44.080827]}},
{ "type": "Feature", "properties": {"Name":"Newfane village","State":"Vermont","State_Abbrev":"VT"},
"geometry":{ "type": "Point", "coordinates": [-72.655889,42.987414]}},
{ "type": "Feature", "properties": {"Name":"New Haven CDP","State":"Vermont","State_Abbrev":"VT"},
"geometry":{ "type": "Point", "coordinates": [-73.14537,44.133023]}},
{ "type": "Feature", "properties": {"Name":"Newport city","State":"Vermont","State_Abbrev":"VT"},
"geometry":{ "type": "Point", "coordinates": [-72.209558,44.936689]}},
{ "type": "Feature", "properties": {"Name":"Newport Center CDP","State":"Vermont","State_Abbrev":"VT"},
"geometry":{ "type": "Point", "coordinates": [-72.306113,44.95244]}},
{ "type": "Feature", "properties": {"Name":"North Bennington village","State":"Vermont","State_Abbrev":"VT"},
"geometry":{ "type": "Point", "coordinates": [-73.24093,42.920552]}},
{ "type": "Feature", "properties": {"Name":"North Clarendon CDP","State":"Vermont","State_Abbrev":"VT"},
"geometry":{ "type": "Point", "coordinates": [-72.968469,43.571193]}},
{ "type": "Feature", "properties": {"Name":"Northfield CDP","State":"Vermont","State_Abbrev":"VT"},
"geometry":{ "type": "Point", "coordinates": [-72.657101,44.146522]}},
{ "type": "Feature", "properties": {"Name":"North Hartland CDP","State":"Vermont","State_Abbrev":"VT"},
"geometry":{ "type": "Point", "coordinates": [-72.359722,43.596986]}},
{ "type": "Feature", "properties": {"Name":"North Hyde Park CDP","State":"Vermont","State_Abbrev":"VT"},
"geometry":{ "type": "Point", "coordinates": [-72.588854,44.664216]}},
{ "type": "Feature", "properties": {"Name":"North Pownal CDP","State":"Vermont","State_Abbrev":"VT"},
"geometry":{ "type": "Point", "coordinates": [-73.25732,42.798559]}},
{ "type": "Feature", "properties": {"Name":"North Springfield CDP","State":"Vermont","State_Abbrev":"VT"},
"geometry":{ "type": "Point", "coordinates": [-72.533788,43.329902]}},
{ "type": "Feature", "properties": {"Name":"North Troy village","State":"Vermont","State_Abbrev":"VT"},
"geometry":{ "type": "Point", "coordinates": [-72.403506,44.996327]}},
{ "type": "Feature", "properties": {"Name":"North Westminster CDP","State":"Vermont","State_Abbrev":"VT"},
"geometry":{ "type": "Point", "coordinates": [-72.456417,43.122393]}},
{ "type": "Feature", "properties": {"Name":"Norwich CDP","State":"Vermont","State_Abbrev":"VT"},
"geometry":{ "type": "Point", "coordinates": [-72.30566,43.718016]}},
{ "type": "Feature", "properties": {"Name":"Old Bennington village","State":"Vermont","State_Abbrev":"VT"},
"geometry":{ "type": "Point", "coordinates": [-73.214297,42.884855]}},
{ "type": "Feature", "properties": {"Name":"Orleans village","State":"Vermont","State_Abbrev":"VT"},
"geometry":{ "type": "Point", "coordinates": [-72.199501,44.80877]}},
{ "type": "Feature", "properties": {"Name":"Pawlet CDP","State":"Vermont","State_Abbrev":"VT"},
"geometry":{ "type": "Point", "coordinates": [-73.168393,43.338969]}},
{ "type": "Feature", "properties": {"Name":"Peacham CDP","State":"Vermont","State_Abbrev":"VT"},
"geometry":{ "type": "Point", "coordinates": [-72.172452,44.32958]}},
{ "type": "Feature", "properties": {"Name":"Pittsford CDP","State":"Vermont","State_Abbrev":"VT"},
"geometry":{ "type": "Point", "coordinates": [-73.025265,43.71234]}},
{ "type": "Feature", "properties": {"Name":"Plainfield CDP","State":"Vermont","State_Abbrev":"VT"},
"geometry":{ "type": "Point", "coordinates": [-72.431823,44.280961]}},
{ "type": "Feature", "properties": {"Name":"Poultney village","State":"Vermont","State_Abbrev":"VT"},
"geometry":{ "type": "Point", "coordinates": [-73.235967,43.517815]}},
{ "type": "Feature", "properties": {"Name":"Pownal CDP","State":"Vermont","State_Abbrev":"VT"},
"geometry":{ "type": "Point", "coordinates": [-73.234162,42.765345]}},
{ "type": "Feature", "properties": {"Name":"Pownal Center CDP","State":"Vermont","State_Abbrev":"VT"},
"geometry":{ "type": "Point", "coordinates": [-73.221503,42.79766]}},
{ "type": "Feature", "properties": {"Name":"Proctor CDP","State":"Vermont","State_Abbrev":"VT"},
"geometry":{ "type": "Point", "coordinates": [-73.045352,43.676401]}},
{ "type": "Feature", "properties": {"Name":"Proctorsville CDP","State":"Vermont","State_Abbrev":"VT"},
"geometry":{ "type": "Point", "coordinates": [-72.641468,43.380832]}},
{ "type": "Feature", "properties": {"Name":"Putney CDP","State":"Vermont","State_Abbrev":"VT"},
"geometry":{ "type": "Point", "coordinates": [-72.527696,42.971324]}},
{ "type": "Feature", "properties": {"Name":"Quechee CDP","State":"Vermont","State_Abbrev":"VT"},
"geometry":{ "type": "Point", "coordinates": [-72.418975,43.64451]}},
{ "type": "Feature", "properties": {"Name":"Randolph CDP","State":"Vermont","State_Abbrev":"VT"},
"geometry":{ "type": "Point", "coordinates": [-72.666361,43.926347]}},
{ "type": "Feature", "properties": {"Name":"Readsboro CDP","State":"Vermont","State_Abbrev":"VT"},
"geometry":{ "type": "Point", "coordinates": [-72.952062,42.765556]}},
{ "type": "Feature", "properties": {"Name":"Richford CDP","State":"Vermont","State_Abbrev":"VT"},
"geometry":{ "type": "Point", "coordinates": [-72.669443,44.994014]}},
{ "type": "Feature", "properties": {"Name":"Richmond CDP","State":"Vermont","State_Abbrev":"VT"},
"geometry":{ "type": "Point", "coordinates": [-73.001469,44.405738]}},
{ "type": "Feature", "properties": {"Name":"Rochester CDP","State":"Vermont","State_Abbrev":"VT"},
"geometry":{ "type": "Point", "coordinates": [-72.803593,43.870387]}},
{ "type": "Feature", "properties": {"Name":"Rutland city","State":"Vermont","State_Abbrev":"VT"},
"geometry":{ "type": "Point", "coordinates": [-72.977788,43.60967]}},
{ "type": "Feature", "properties": {"Name":"St. Albans city","State":"Vermont","State_Abbrev":"VT"},
"geometry":{ "type": "Point", "coordinates": [-73.084462,44.811538]}},
{ "type": "Feature", "properties": {"Name":"St. George CDP","State":"Vermont","State_Abbrev":"VT"},
"geometry":{ "type": "Point", "coordinates": [-73.131557,44.379745]}},
{ "type": "Feature", "properties": {"Name":"St. Johnsbury CDP","State":"Vermont","State_Abbrev":"VT"},
"geometry":{ "type": "Point", "coordinates": [-72.008582,44.430445]}},
{ "type": "Feature", "properties": {"Name":"Saxtons River village","State":"Vermont","State_Abbrev":"VT"},
"geometry":{ "type": "Point", "coordinates": [-72.511138,43.139367]}},
{ "type": "Feature", "properties": {"Name":"Sheffield CDP","State":"Vermont","State_Abbrev":"VT"},
"geometry":{ "type": "Point", "coordinates": [-72.115177,44.596085]}},
{ "type": "Feature", "properties": {"Name":"Shelburne CDP","State":"Vermont","State_Abbrev":"VT"},
"geometry":{ "type": "Point", "coordinates": [-73.217992,44.390452]}},
{ "type": "Feature", "properties": {"Name":"South Barre CDP","State":"Vermont","State_Abbrev":"VT"},
"geometry":{ "type": "Point", "coordinates": [-72.502255,44.160691]}},
{ "type": "Feature", "properties": {"Name":"South Burlington city","State":"Vermont","State_Abbrev":"VT"},
"geometry":{ "type": "Point", "coordinates": [-73.182623,44.436469]}},
{ "type": "Feature", "properties": {"Name":"South Hero CDP","State":"Vermont","State_Abbrev":"VT"},
"geometry":{ "type": "Point", "coordinates": [-73.301318,44.648436]}},
{ "type": "Feature", "properties": {"Name":"South Lincoln CDP","State":"Vermont","State_Abbrev":"VT"},
"geometry":{ "type": "Point", "coordinates": [-72.974529,44.059925]}},
{ "type": "Feature", "properties": {"Name":"South Londonderry CDP","State":"Vermont","State_Abbrev":"VT"},
"geometry":{ "type": "Point", "coordinates": [-72.808258,43.191434]}},
{ "type": "Feature", "properties": {"Name":"South Royalton CDP","State":"Vermont","State_Abbrev":"VT"},
"geometry":{ "type": "Point", "coordinates": [-72.512259,43.807051]}},
{ "type": "Feature", "properties": {"Name":"South Shaftsbury CDP","State":"Vermont","State_Abbrev":"VT"},
"geometry":{ "type": "Point", "coordinates": [-73.194627,42.9406]}},
{ "type": "Feature", "properties": {"Name":"South Woodstock CDP","State":"Vermont","State_Abbrev":"VT"},
"geometry":{ "type": "Point", "coordinates": [-72.527025,43.560217]}},
{ "type": "Feature", "properties": {"Name":"Springfield CDP","State":"Vermont","State_Abbrev":"VT"},
"geometry":{ "type": "Point", "coordinates": [-72.48187,43.296641]}},
{ "type": "Feature", "properties": {"Name":"Stamford CDP","State":"Vermont","State_Abbrev":"VT"},
"geometry":{ "type": "Point", "coordinates": [-73.060965,42.754844]}},
{ "type": "Feature", "properties": {"Name":"Stowe CDP","State":"Vermont","State_Abbrev":"VT"},
"geometry":{ "type": "Point", "coordinates": [-72.68377,44.467241]}},
{ "type": "Feature", "properties": {"Name":"Stratton Mountain CDP","State":"Vermont","State_Abbrev":"VT"},
"geometry":{ "type": "Point", "coordinates": [-72.905312,43.116202]}},
{ "type": "Feature", "properties": {"Name":"Sutton CDP","State":"Vermont","State_Abbrev":"VT"},
"geometry":{ "type": "Point", "coordinates": [-72.031527,44.630091]}},
{ "type": "Feature", "properties": {"Name":"Swanton village","State":"Vermont","State_Abbrev":"VT"},
"geometry":{ "type": "Point", "coordinates": [-73.119353,44.924538]}},
{ "type": "Feature", "properties": {"Name":"Townshend CDP","State":"Vermont","State_Abbrev":"VT"},
"geometry":{ "type": "Point", "coordinates": [-72.670371,43.049461]}},
{ "type": "Feature", "properties": {"Name":"Troy CDP","State":"Vermont","State_Abbrev":"VT"},
"geometry":{ "type": "Point", "coordinates": [-72.401641,44.911101]}},
{ "type": "Feature", "properties": {"Name":"Underhill Center CDP","State":"Vermont","State_Abbrev":"VT"},
"geometry":{ "type": "Point", "coordinates": [-72.89874,44.50805]}},
{ "type": "Feature", "properties": {"Name":"Underhill Flats CDP","State":"Vermont","State_Abbrev":"VT"},
"geometry":{ "type": "Point", "coordinates": [-72.946234,44.523259]}},
{ "type": "Feature", "properties": {"Name":"Vergennes city","State":"Vermont","State_Abbrev":"VT"},
"geometry":{ "type": "Point", "coordinates": [-73.255316,44.16766]}},
{ "type": "Feature", "properties": {"Name":"Waitsfield CDP","State":"Vermont","State_Abbrev":"VT"},
"geometry":{ "type": "Point", "coordinates": [-72.834513,44.183349]}},
{ "type": "Feature", "properties": {"Name":"Wallingford CDP","State":"Vermont","State_Abbrev":"VT"},
"geometry":{ "type": "Point", "coordinates": [-72.965999,43.472663]}},
{ "type": "Feature", "properties": {"Name":"Wardsboro CDP","State":"Vermont","State_Abbrev":"VT"},
"geometry":{ "type": "Point", "coordinates": [-72.788421,43.043815]}},
{ "type": "Feature", "properties": {"Name":"Waterbury CDP","State":"Vermont","State_Abbrev":"VT"},
"geometry":{ "type": "Point", "coordinates": [-72.749053,44.336415]}},
{ "type": "Feature", "properties": {"Name":"Waterbury Center CDP","State":"Vermont","State_Abbrev":"VT"},
"geometry":{ "type": "Point", "coordinates": [-72.72082,44.377996]}},
{ "type": "Feature", "properties": {"Name":"Websterville CDP","State":"Vermont","State_Abbrev":"VT"},
"geometry":{ "type": "Point", "coordinates": [-72.477642,44.157314]}},
{ "type": "Feature", "properties": {"Name":"Wells CDP","State":"Vermont","State_Abbrev":"VT"},
"geometry":{ "type": "Point", "coordinates": [-73.212275,43.418682]}},
{ "type": "Feature", "properties": {"Name":"Wells River village","State":"Vermont","State_Abbrev":"VT"},
"geometry":{ "type": "Point", "coordinates": [-72.067979,44.156476]}},
{ "type": "Feature", "properties": {"Name":"West Brattleboro CDP","State":"Vermont","State_Abbrev":"VT"},
"geometry":{ "type": "Point", "coordinates": [-72.600362,42.856521]}},
{ "type": "Feature", "properties": {"Name":"West Burke village","State":"Vermont","State_Abbrev":"VT"},
"geometry":{ "type": "Point", "coordinates": [-71.979303,44.643829]}},
{ "type": "Feature", "properties": {"Name":"West Charlotte CDP","State":"Vermont","State_Abbrev":"VT"},
"geometry":{ "type": "Point", "coordinates": [-73.257254,44.307338]}},
{ "type": "Feature", "properties": {"Name":"West Dummerston CDP","State":"Vermont","State_Abbrev":"VT"},
"geometry":{ "type": "Point", "coordinates": [-72.612833,42.929804]}},
{ "type": "Feature", "properties": {"Name":"Westford CDP","State":"Vermont","State_Abbrev":"VT"},
"geometry":{ "type": "Point", "coordinates": [-73.015994,44.603324]}},
{ "type": "Feature", "properties": {"Name":"Westminster village","State":"Vermont","State_Abbrev":"VT"},
"geometry":{ "type": "Point", "coordinates": [-72.454315,43.078539]}},
{ "type": "Feature", "properties": {"Name":"Weston CDP","State":"Vermont","State_Abbrev":"VT"},
"geometry":{ "type": "Point", "coordinates": [-72.793704,43.290739]}},
{ "type": "Feature", "properties": {"Name":"West Pawlet CDP","State":"Vermont","State_Abbrev":"VT"},
"geometry":{ "type": "Point", "coordinates": [-73.247572,43.354365]}},
{ "type": "Feature", "properties": {"Name":"West Rutland CDP","State":"Vermont","State_Abbrev":"VT"},
"geometry":{ "type": "Point", "coordinates": [-73.042958,43.596686]}},
{ "type": "Feature", "properties": {"Name":"West Woodstock CDP","State":"Vermont","State_Abbrev":"VT"},
"geometry":{ "type": "Point", "coordinates": [-72.552513,43.610383]}},
{ "type": "Feature", "properties": {"Name":"White River Junction CDP","State":"Vermont","State_Abbrev":"VT"},
"geometry":{ "type": "Point", "coordinates": [-72.329173,43.650026]}},
{ "type": "Feature", "properties": {"Name":"Whitingham CDP","State":"Vermont","State_Abbrev":"VT"},
"geometry":{ "type": "Point", "coordinates": [-72.883349,42.789194]}},
{ "type": "Feature", "properties": {"Name":"Wilder CDP","State":"Vermont","State_Abbrev":"VT"},
"geometry":{ "type": "Point", "coordinates": [-72.320418,43.677681]}},
{ "type": "Feature", "properties": {"Name":"Williamstown CDP","State":"Vermont","State_Abbrev":"VT"},
"geometry":{ "type": "Point", "coordinates": [-72.550501,44.117705]}},
{ "type": "Feature", "properties": {"Name":"Wilmington CDP","State":"Vermont","State_Abbrev":"VT"},
"geometry":{ "type": "Point", "coordinates": [-72.861064,42.869334]}},
{ "type": "Feature", "properties": {"Name":"Windsor CDP","State":"Vermont","State_Abbrev":"VT"},
"geometry":{ "type": "Point", "coordinates": [-72.39066,43.479211]}},
{ "type": "Feature", "properties": {"Name":"Winooski city","State":"Vermont","State_Abbrev":"VT"},
"geometry":{ "type": "Point", "coordinates": [-73.184857,44.495587]}},
{ "type": "Feature", "properties": {"Name":"Wolcott CDP","State":"Vermont","State_Abbrev":"VT"},
"geometry":{ "type": "Point", "coordinates": [-72.470074,44.551809]}},
{ "type": "Feature", "properties": {"Name":"Woodstock village","State":"Vermont","State_Abbrev":"VT"},
"geometry":{ "type": "Point", "coordinates": [-72.513003,43.62344]}},
{ "type": "Feature", "properties": {"Name":"Worcester CDP","State":"Vermont","State_Abbrev":"VT"},
"geometry":{ "type": "Point", "coordinates": [-72.550149,44.370033]}}]}
