{"type":"FeatureCollection","features":[
{ "type": "Feature", "properties": {"Name":"Abbs Valley CDP","State":"Virginia","State_Abbrev":"VA"},
"geometry":{ "type": "Point", "coordinates": [-81.460147,37.235392]}},
{ "type": "Feature", "properties": {"Name":"Abingdon town","State":"Virginia","State_Abbrev":"VA"},
"geometry":{ "type": "Point", "coordinates": [-81.971627,36.706665]}},
{ "type": "Feature", "properties": {"Name":"Accomac town","State":"Virginia","State_Abbrev":"VA"},
"geometry":{ "type": "Point", "coordinates": [-75.667784,37.719561]}},
{ "type": "Feature", "properties": {"Name":"Adwolf CDP","State":"Virginia","State_Abbrev":"VA"},
"geometry":{ "type": "Point", "coordinates": [-81.593646,36.798026]}},
{ "type": "Feature", "properties": {"Name":"Afton CDP","State":"Virginia","State_Abbrev":"VA"},
"geometry":{ "type": "Point", "coordinates": [-78.833445,38.022164]}},
{ "type": "Feature", "properties": {"Name":"Alberta town","State":"Virginia","State_Abbrev":"VA"},
"geometry":{ "type": "Point", "coordinates": [-77.893986,36.854006]}},
{ "type": "Feature", "properties": {"Name":"Aldie CDP","State":"Virginia","State_Abbrev":"VA"},
"geometry":{ "type": "Point", "coordinates": [-77.647985,38.97612]}},
{ "type": "Feature", "properties": {"Name":"Alexandria city","State":"Virginia","State_Abbrev":"VA"},
"geometry":{ "type": "Point", "coordinates": [-77.08367,38.819251]}},
{ "type": "Feature", "properties": {"Name":"Allison Gap CDP","State":"Virginia","State_Abbrev":"VA"},
"geometry":{ "type": "Point", "coordinates": [-81.786853,36.899778]}},
{ "type": "Feature", "properties": {"Name":"Allisonia CDP","State":"Virginia","State_Abbrev":"VA"},
"geometry":{ "type": "Point", "coordinates": [-80.718793,36.936866]}},
{ "type": "Feature", "properties": {"Name":"Altavista town","State":"Virginia","State_Abbrev":"VA"},
"geometry":{ "type": "Point", "coordinates": [-79.283378,37.123438]}},
{ "type": "Feature", "properties": {"Name":"Amelia Court House CDP","State":"Virginia","State_Abbrev":"VA"},
"geometry":{ "type": "Point", "coordinates": [-77.986639,37.335858]}},
{ "type": "Feature", "properties": {"Name":"Amherst town","State":"Virginia","State_Abbrev":"VA"},
"geometry":{ "type": "Point", "coordinates": [-79.051995,37.581894]}},
{ "type": "Feature", "properties": {"Name":"Amonate CDP","State":"Virginia","State_Abbrev":"VA"},
"geometry":{ "type": "Point", "coordinates": [-81.640566,37.190597]}},
{ "type": "Feature", "properties": {"Name":"Annandale CDP","State":"Virginia","State_Abbrev":"VA"},
"geometry":{ "type": "Point", "coordinates": [-77.196229,38.832801]}},
{ "type": "Feature", "properties": {"Name":"Appalachia town","State":"Virginia","State_Abbrev":"VA"},
"geometry":{ "type": "Point", "coordinates": [-82.795003,36.912716]}},
{ "type": "Feature", "properties": {"Name":"Apple Mountain Lake CDP","State":"Virginia","State_Abbrev":"VA"},
"geometry":{ "type": "Point", "coordinates": [-78.105138,38.926685]}},
{ "type": "Feature", "properties": {"Name":"Appomattox town","State":"Virginia","State_Abbrev":"VA"},
"geometry":{ "type": "Point", "coordinates": [-78.826446,37.358738]}},
{ "type": "Feature", "properties": {"Name":"Aquia Harbour CDP","State":"Virginia","State_Abbrev":"VA"},
"geometry":{ "type": "Point", "coordinates": [-77.380104,38.459234]}},
{ "type": "Feature", "properties": {"Name":"Arcola CDP","State":"Virginia","State_Abbrev":"VA"},
"geometry":{ "type": "Point", "coordinates": [-77.534083,38.944426]}},
{ "type": "Feature", "properties": {"Name":"Arlington CDP","State":"Virginia","State_Abbrev":"VA"},
"geometry":{ "type": "Point", "coordinates": [-77.100703,38.878337]}},
{ "type": "Feature", "properties": {"Name":"Arrington CDP","State":"Virginia","State_Abbrev":"VA"},
"geometry":{ "type": "Point", "coordinates": [-78.894759,37.678696]}},
{ "type": "Feature", "properties": {"Name":"Ashburn CDP","State":"Virginia","State_Abbrev":"VA"},
"geometry":{ "type": "Point", "coordinates": [-77.471322,39.027296]}},
{ "type": "Feature", "properties": {"Name":"Ashland town","State":"Virginia","State_Abbrev":"VA"},
"geometry":{ "type": "Point", "coordinates": [-77.472414,37.760417]}},
{ "type": "Feature", "properties": {"Name":"Atkins CDP","State":"Virginia","State_Abbrev":"VA"},
"geometry":{ "type": "Point", "coordinates": [-81.398577,36.866981]}},
{ "type": "Feature", "properties": {"Name":"Atlantic CDP","State":"Virginia","State_Abbrev":"VA"},
"geometry":{ "type": "Point", "coordinates": [-75.506367,37.903366]}},
{ "type": "Feature", "properties": {"Name":"Augusta Springs CDP","State":"Virginia","State_Abbrev":"VA"},
"geometry":{ "type": "Point", "coordinates": [-79.336345,38.102962]}},
{ "type": "Feature", "properties": {"Name":"Austinville CDP","State":"Virginia","State_Abbrev":"VA"},
"geometry":{ "type": "Point", "coordinates": [-80.914507,36.851018]}},
{ "type": "Feature", "properties": {"Name":"Bailey's Crossroads CDP","State":"Virginia","State_Abbrev":"VA"},
"geometry":{ "type": "Point", "coordinates": [-77.131959,38.848262]}},
{ "type": "Feature", "properties": {"Name":"Barboursville CDP","State":"Virginia","State_Abbrev":"VA"},
"geometry":{ "type": "Point", "coordinates": [-78.283603,38.169924]}},
{ "type": "Feature", "properties": {"Name":"Baskerville CDP","State":"Virginia","State_Abbrev":"VA"},
"geometry":{ "type": "Point", "coordinates": [-78.273196,36.684407]}},
{ "type": "Feature", "properties": {"Name":"Bassett CDP","State":"Virginia","State_Abbrev":"VA"},
"geometry":{ "type": "Point", "coordinates": [-79.986551,36.761517]}},
{ "type": "Feature", "properties": {"Name":"Bastian CDP","State":"Virginia","State_Abbrev":"VA"},
"geometry":{ "type": "Point", "coordinates": [-81.152495,37.153528]}},
{ "type": "Feature", "properties": {"Name":"Basye CDP","State":"Virginia","State_Abbrev":"VA"},
"geometry":{ "type": "Point", "coordinates": [-78.769485,38.809424]}},
{ "type": "Feature", "properties": {"Name":"Bayside CDP","State":"Virginia","State_Abbrev":"VA"},
"geometry":{ "type": "Point", "coordinates": [-75.712852,37.754788]}},
{ "type": "Feature", "properties": {"Name":"Baywood CDP","State":"Virginia","State_Abbrev":"VA"},
"geometry":{ "type": "Point", "coordinates": [-81.008466,36.621889]}},
{ "type": "Feature", "properties": {"Name":"Bealeton CDP","State":"Virginia","State_Abbrev":"VA"},
"geometry":{ "type": "Point", "coordinates": [-77.778763,38.583009]}},
{ "type": "Feature", "properties": {"Name":"Bedford town","State":"Virginia","State_Abbrev":"VA"},
"geometry":{ "type": "Point", "coordinates": [-79.517716,37.336272]}},
{ "type": "Feature", "properties": {"Name":"Belle Haven town","State":"Virginia","State_Abbrev":"VA"},
"geometry":{ "type": "Point", "coordinates": [-75.823838,37.554653]}},
{ "type": "Feature", "properties": {"Name":"Belle Haven CDP","State":"Virginia","State_Abbrev":"VA"},
"geometry":{ "type": "Point", "coordinates": [-77.057438,38.777325]}},
{ "type": "Feature", "properties": {"Name":"Bellwood CDP","State":"Virginia","State_Abbrev":"VA"},
"geometry":{ "type": "Point", "coordinates": [-77.436335,37.406041]}},
{ "type": "Feature", "properties": {"Name":"Belmont CDP","State":"Virginia","State_Abbrev":"VA"},
"geometry":{ "type": "Point", "coordinates": [-77.498473,39.065619]}},
{ "type": "Feature", "properties": {"Name":"Belmont Estates CDP","State":"Virginia","State_Abbrev":"VA"},
"geometry":{ "type": "Point", "coordinates": [-78.922783,38.446449]}},
{ "type": "Feature", "properties": {"Name":"Belspring CDP","State":"Virginia","State_Abbrev":"VA"},
"geometry":{ "type": "Point", "coordinates": [-80.612423,37.195413]}},
{ "type": "Feature", "properties": {"Name":"Belview CDP","State":"Virginia","State_Abbrev":"VA"},
"geometry":{ "type": "Point", "coordinates": [-80.509706,37.166762]}},
{ "type": "Feature", "properties": {"Name":"Benns Church CDP","State":"Virginia","State_Abbrev":"VA"},
"geometry":{ "type": "Point", "coordinates": [-76.58469,36.936894]}},
{ "type": "Feature", "properties": {"Name":"Bensley CDP","State":"Virginia","State_Abbrev":"VA"},
"geometry":{ "type": "Point", "coordinates": [-77.445608,37.447493]}},
{ "type": "Feature", "properties": {"Name":"Berryville town","State":"Virginia","State_Abbrev":"VA"},
"geometry":{ "type": "Point", "coordinates": [-77.98016,39.147726]}},
{ "type": "Feature", "properties": {"Name":"Bethel Manor CDP","State":"Virginia","State_Abbrev":"VA"},
"geometry":{ "type": "Point", "coordinates": [-76.424632,37.097363]}},
{ "type": "Feature", "properties": {"Name":"Big Island CDP","State":"Virginia","State_Abbrev":"VA"},
"geometry":{ "type": "Point", "coordinates": [-79.363186,37.533422]}},
{ "type": "Feature", "properties": {"Name":"Big Rock CDP","State":"Virginia","State_Abbrev":"VA"},
"geometry":{ "type": "Point", "coordinates": [-82.18734,37.35256]}},
{ "type": "Feature", "properties": {"Name":"Big Stone Gap town","State":"Virginia","State_Abbrev":"VA"},
"geometry":{ "type": "Point", "coordinates": [-82.776089,36.86274]}},
{ "type": "Feature", "properties": {"Name":"Big Stone Gap East CDP","State":"Virginia","State_Abbrev":"VA"},
"geometry":{ "type": "Point", "coordinates": [-82.743346,36.879269]}},
{ "type": "Feature", "properties": {"Name":"Blacksburg town","State":"Virginia","State_Abbrev":"VA"},
"geometry":{ "type": "Point", "coordinates": [-80.426745,37.231264]}},
{ "type": "Feature", "properties": {"Name":"Blackstone town","State":"Virginia","State_Abbrev":"VA"},
"geometry":{ "type": "Point", "coordinates": [-78.002812,37.081822]}},
{ "type": "Feature", "properties": {"Name":"Blairs CDP","State":"Virginia","State_Abbrev":"VA"},
"geometry":{ "type": "Point", "coordinates": [-79.37891,36.699268]}},
{ "type": "Feature", "properties": {"Name":"Bland CDP","State":"Virginia","State_Abbrev":"VA"},
"geometry":{ "type": "Point", "coordinates": [-81.115765,37.099492]}},
{ "type": "Feature", "properties": {"Name":"Bloxom town","State":"Virginia","State_Abbrev":"VA"},
"geometry":{ "type": "Point", "coordinates": [-75.621437,37.829241]}},
{ "type": "Feature", "properties": {"Name":"Bluefield town","State":"Virginia","State_Abbrev":"VA"},
"geometry":{ "type": "Point", "coordinates": [-81.274659,37.235225]}},
{ "type": "Feature", "properties": {"Name":"Blue Ridge CDP","State":"Virginia","State_Abbrev":"VA"},
"geometry":{ "type": "Point", "coordinates": [-79.822204,37.379843]}},
{ "type": "Feature", "properties": {"Name":"Blue Ridge Shores CDP","State":"Virginia","State_Abbrev":"VA"},
"geometry":{ "type": "Point", "coordinates": [-78.022692,38.107114]}},
{ "type": "Feature", "properties": {"Name":"Bobtown CDP","State":"Virginia","State_Abbrev":"VA"},
"geometry":{ "type": "Point", "coordinates": [-75.799872,37.649248]}},
{ "type": "Feature", "properties": {"Name":"Boissevain CDP","State":"Virginia","State_Abbrev":"VA"},
"geometry":{ "type": "Point", "coordinates": [-81.385616,37.275703]}},
{ "type": "Feature", "properties": {"Name":"Bon Air CDP","State":"Virginia","State_Abbrev":"VA"},
"geometry":{ "type": "Point", "coordinates": [-77.570309,37.516984]}},
{ "type": "Feature", "properties": {"Name":"Boones Mill town","State":"Virginia","State_Abbrev":"VA"},
"geometry":{ "type": "Point", "coordinates": [-79.951414,37.115562]}},
{ "type": "Feature", "properties": {"Name":"Boston CDP","State":"Virginia","State_Abbrev":"VA"},
"geometry":{ "type": "Point", "coordinates": [-75.843711,37.603856]}},
{ "type": "Feature", "properties": {"Name":"Boswell's Corner CDP","State":"Virginia","State_Abbrev":"VA"},
"geometry":{ "type": "Point", "coordinates": [-77.372135,38.503705]}},
{ "type": "Feature", "properties": {"Name":"Bowling Green town","State":"Virginia","State_Abbrev":"VA"},
"geometry":{ "type": "Point", "coordinates": [-77.347528,38.053331]}},
{ "type": "Feature", "properties": {"Name":"Boyce town","State":"Virginia","State_Abbrev":"VA"},
"geometry":{ "type": "Point", "coordinates": [-78.060108,39.093223]}},
{ "type": "Feature", "properties": {"Name":"Boydton town","State":"Virginia","State_Abbrev":"VA"},
"geometry":{ "type": "Point", "coordinates": [-78.390727,36.66606]}},
{ "type": "Feature", "properties": {"Name":"Boykins town","State":"Virginia","State_Abbrev":"VA"},
"geometry":{ "type": "Point", "coordinates": [-77.198919,36.577825]}},
{ "type": "Feature", "properties": {"Name":"Bracey CDP","State":"Virginia","State_Abbrev":"VA"},
"geometry":{ "type": "Point", "coordinates": [-78.113798,36.581233]}},
{ "type": "Feature", "properties": {"Name":"Braddock CDP","State":"Virginia","State_Abbrev":"VA"},
"geometry":{ "type": "Point", "coordinates": [-77.355031,38.831875]}},
{ "type": "Feature", "properties": {"Name":"Brambleton CDP","State":"Virginia","State_Abbrev":"VA"},
"geometry":{ "type": "Point", "coordinates": [-77.532796,38.980243]}},
{ "type": "Feature", "properties": {"Name":"Branchville town","State":"Virginia","State_Abbrev":"VA"},
"geometry":{ "type": "Point", "coordinates": [-77.250096,36.569793]}},
{ "type": "Feature", "properties": {"Name":"Brandermill CDP","State":"Virginia","State_Abbrev":"VA"},
"geometry":{ "type": "Point", "coordinates": [-77.650583,37.433992]}},
{ "type": "Feature", "properties": {"Name":"Brandy Station CDP","State":"Virginia","State_Abbrev":"VA"},
"geometry":{ "type": "Point", "coordinates": [-77.889951,38.495045]}},
{ "type": "Feature", "properties": {"Name":"Breaks CDP","State":"Virginia","State_Abbrev":"VA"},
"geometry":{ "type": "Point", "coordinates": [-82.279194,37.300654]}},
{ "type": "Feature", "properties": {"Name":"Bridgewater town","State":"Virginia","State_Abbrev":"VA"},
"geometry":{ "type": "Point", "coordinates": [-78.964452,38.388491]}},
{ "type": "Feature", "properties": {"Name":"Brightwood CDP","State":"Virginia","State_Abbrev":"VA"},
"geometry":{ "type": "Point", "coordinates": [-78.184695,38.413954]}},
{ "type": "Feature", "properties": {"Name":"Bristol city","State":"Virginia","State_Abbrev":"VA"},
"geometry":{ "type": "Point", "coordinates": [-82.157564,36.616954]}},
{ "type": "Feature", "properties": {"Name":"Broadlands CDP","State":"Virginia","State_Abbrev":"VA"},
"geometry":{ "type": "Point", "coordinates": [-77.516983,39.013635]}},
{ "type": "Feature", "properties": {"Name":"Broadway town","State":"Virginia","State_Abbrev":"VA"},
"geometry":{ "type": "Point", "coordinates": [-78.801366,38.608485]}},
{ "type": "Feature", "properties": {"Name":"Brodnax town","State":"Virginia","State_Abbrev":"VA"},
"geometry":{ "type": "Point", "coordinates": [-78.031937,36.702953]}},
{ "type": "Feature", "properties": {"Name":"Brookneal town","State":"Virginia","State_Abbrev":"VA"},
"geometry":{ "type": "Point", "coordinates": [-78.953936,37.047841]}},
{ "type": "Feature", "properties": {"Name":"Brucetown CDP","State":"Virginia","State_Abbrev":"VA"},
"geometry":{ "type": "Point", "coordinates": [-78.060935,39.250674]}},
{ "type": "Feature", "properties": {"Name":"Buchanan town","State":"Virginia","State_Abbrev":"VA"},
"geometry":{ "type": "Point", "coordinates": [-79.691059,37.520854]}},
{ "type": "Feature", "properties": {"Name":"Buckhall CDP","State":"Virginia","State_Abbrev":"VA"},
"geometry":{ "type": "Point", "coordinates": [-77.447008,38.715561]}},
{ "type": "Feature", "properties": {"Name":"Buckingham Courthouse CDP","State":"Virginia","State_Abbrev":"VA"},
"geometry":{ "type": "Point", "coordinates": [-78.55138,37.55589]}},
{ "type": "Feature", "properties": {"Name":"Buena Vista city","State":"Virginia","State_Abbrev":"VA"},
"geometry":{ "type": "Point", "coordinates": [-79.358134,37.729345]}},
{ "type": "Feature", "properties": {"Name":"Bull Run CDP","State":"Virginia","State_Abbrev":"VA"},
"geometry":{ "type": "Point", "coordinates": [-77.489757,38.83975]}},
{ "type": "Feature", "properties": {"Name":"Bull Run CDP","State":"Virginia","State_Abbrev":"VA"},
"geometry":{ "type": "Point", "coordinates": [-77.520418,38.780099]}},
{ "type": "Feature", "properties": {"Name":"Bull Run Mountain Estates CDP","State":"Virginia","State_Abbrev":"VA"},
"geometry":{ "type": "Point", "coordinates": [-77.666676,38.90919]}},
{ "type": "Feature", "properties": {"Name":"Burke CDP","State":"Virginia","State_Abbrev":"VA"},
"geometry":{ "type": "Point", "coordinates": [-77.262594,38.777716]}},
{ "type": "Feature", "properties": {"Name":"Burke Centre CDP","State":"Virginia","State_Abbrev":"VA"},
"geometry":{ "type": "Point", "coordinates": [-77.300574,38.791183]}},
{ "type": "Feature", "properties": {"Name":"Burkeville town","State":"Virginia","State_Abbrev":"VA"},
"geometry":{ "type": "Point", "coordinates": [-78.194413,37.187905]}},
{ "type": "Feature", "properties": {"Name":"Callaghan CDP","State":"Virginia","State_Abbrev":"VA"},
"geometry":{ "type": "Point", "coordinates": [-80.089009,37.809824]}},
{ "type": "Feature", "properties": {"Name":"Calverton CDP","State":"Virginia","State_Abbrev":"VA"},
"geometry":{ "type": "Point", "coordinates": [-77.666433,38.635169]}},
{ "type": "Feature", "properties": {"Name":"Camp Barrett CDP","State":"Virginia","State_Abbrev":"VA"},
"geometry":{ "type": "Point", "coordinates": [-77.437652,38.51861]}},
{ "type": "Feature", "properties": {"Name":"Camptown CDP","State":"Virginia","State_Abbrev":"VA"},
"geometry":{ "type": "Point", "coordinates": [-76.894742,36.685887]}},
{ "type": "Feature", "properties": {"Name":"Cana CDP","State":"Virginia","State_Abbrev":"VA"},
"geometry":{ "type": "Point", "coordinates": [-80.667889,36.580614]}},
{ "type": "Feature", "properties": {"Name":"Cape Charles town","State":"Virginia","State_Abbrev":"VA"},
"geometry":{ "type": "Point", "coordinates": [-76.014156,37.249726]}},
{ "type": "Feature", "properties": {"Name":"Capron town","State":"Virginia","State_Abbrev":"VA"},
"geometry":{ "type": "Point", "coordinates": [-77.201281,36.709329]}},
{ "type": "Feature", "properties": {"Name":"Captains Cove CDP","State":"Virginia","State_Abbrev":"VA"},
"geometry":{ "type": "Point", "coordinates": [-75.425918,37.996297]}},
{ "type": "Feature", "properties": {"Name":"Carrollton CDP","State":"Virginia","State_Abbrev":"VA"},
"geometry":{ "type": "Point", "coordinates": [-76.521072,36.940627]}},
{ "type": "Feature", "properties": {"Name":"Carrsville CDP","State":"Virginia","State_Abbrev":"VA"},
"geometry":{ "type": "Point", "coordinates": [-76.839133,36.704097]}},
{ "type": "Feature", "properties": {"Name":"Cascades CDP","State":"Virginia","State_Abbrev":"VA"},
"geometry":{ "type": "Point", "coordinates": [-77.386847,39.047538]}},
{ "type": "Feature", "properties": {"Name":"Castlewood CDP","State":"Virginia","State_Abbrev":"VA"},
"geometry":{ "type": "Point", "coordinates": [-82.295326,36.880139]}},
{ "type": "Feature", "properties": {"Name":"Catlett CDP","State":"Virginia","State_Abbrev":"VA"},
"geometry":{ "type": "Point", "coordinates": [-77.628856,38.656381]}},
{ "type": "Feature", "properties": {"Name":"Cats Bridge CDP","State":"Virginia","State_Abbrev":"VA"},
"geometry":{ "type": "Point", "coordinates": [-75.783285,37.547717]}},
{ "type": "Feature", "properties": {"Name":"Cave Spring CDP","State":"Virginia","State_Abbrev":"VA"},
"geometry":{ "type": "Point", "coordinates": [-80.00688,37.22691]}},
{ "type": "Feature", "properties": {"Name":"Cedar Bluff town","State":"Virginia","State_Abbrev":"VA"},
"geometry":{ "type": "Point", "coordinates": [-81.763725,37.086956]}},
{ "type": "Feature", "properties": {"Name":"Central Garage CDP","State":"Virginia","State_Abbrev":"VA"},
"geometry":{ "type": "Point", "coordinates": [-77.125124,37.74729]}},
{ "type": "Feature", "properties": {"Name":"Centreville CDP","State":"Virginia","State_Abbrev":"VA"},
"geometry":{ "type": "Point", "coordinates": [-77.438462,38.84065]}},
{ "type": "Feature", "properties": {"Name":"Chamberlayne CDP","State":"Virginia","State_Abbrev":"VA"},
"geometry":{ "type": "Point", "coordinates": [-77.428188,37.627375]}},
{ "type": "Feature", "properties": {"Name":"Chantilly CDP","State":"Virginia","State_Abbrev":"VA"},
"geometry":{ "type": "Point", "coordinates": [-77.442088,38.88918]}},
{ "type": "Feature", "properties": {"Name":"Charles City CDP","State":"Virginia","State_Abbrev":"VA"},
"geometry":{ "type": "Point", "coordinates": [-77.062955,37.348306]}},
{ "type": "Feature", "properties": {"Name":"Charlotte Court House town","State":"Virginia","State_Abbrev":"VA"},
"geometry":{ "type": "Point", "coordinates": [-78.637687,37.056247]}},
{ "type": "Feature", "properties": {"Name":"Charlottesville city","State":"Virginia","State_Abbrev":"VA"},
"geometry":{ "type": "Point", "coordinates": [-78.485381,38.037658]}},
{ "type": "Feature", "properties": {"Name":"Chase City town","State":"Virginia","State_Abbrev":"VA"},
"geometry":{ "type": "Point", "coordinates": [-78.460951,36.799844]}},
{ "type": "Feature", "properties": {"Name":"Chase Crossing CDP","State":"Virginia","State_Abbrev":"VA"},
"geometry":{ "type": "Point", "coordinates": [-75.6657,37.760332]}},
{ "type": "Feature", "properties": {"Name":"Chatham town","State":"Virginia","State_Abbrev":"VA"},
"geometry":{ "type": "Point", "coordinates": [-79.400122,36.811853]}},
{ "type": "Feature", "properties": {"Name":"Chatmoss CDP","State":"Virginia","State_Abbrev":"VA"},
"geometry":{ "type": "Point", "coordinates": [-79.808442,36.676678]}},
{ "type": "Feature", "properties": {"Name":"Cheriton town","State":"Virginia","State_Abbrev":"VA"},
"geometry":{ "type": "Point", "coordinates": [-75.965519,37.294354]}},
{ "type": "Feature", "properties": {"Name":"Cherry Hill CDP","State":"Virginia","State_Abbrev":"VA"},
"geometry":{ "type": "Point", "coordinates": [-77.286267,38.567372]}},
{ "type": "Feature", "properties": {"Name":"Chesapeake city","State":"Virginia","State_Abbrev":"VA"},
"geometry":{ "type": "Point", "coordinates": [-76.301788,36.679376]}},
{ "type": "Feature", "properties": {"Name":"Chester CDP","State":"Virginia","State_Abbrev":"VA"},
"geometry":{ "type": "Point", "coordinates": [-77.433695,37.352045]}},
{ "type": "Feature", "properties": {"Name":"Chester Gap CDP","State":"Virginia","State_Abbrev":"VA"},
"geometry":{ "type": "Point", "coordinates": [-78.131581,38.850109]}},
{ "type": "Feature", "properties": {"Name":"Chilhowie town","State":"Virginia","State_Abbrev":"VA"},
"geometry":{ "type": "Point", "coordinates": [-81.682913,36.800173]}},
{ "type": "Feature", "properties": {"Name":"Chincoteague town","State":"Virginia","State_Abbrev":"VA"},
"geometry":{ "type": "Point", "coordinates": [-75.352582,37.949305]}},
{ "type": "Feature", "properties": {"Name":"Christiansburg town","State":"Virginia","State_Abbrev":"VA"},
"geometry":{ "type": "Point", "coordinates": [-80.404512,37.140663]}},
{ "type": "Feature", "properties": {"Name":"Churchville CDP","State":"Virginia","State_Abbrev":"VA"},
"geometry":{ "type": "Point", "coordinates": [-79.161389,38.22466]}},
{ "type": "Feature", "properties": {"Name":"Claremont town","State":"Virginia","State_Abbrev":"VA"},
"geometry":{ "type": "Point", "coordinates": [-76.966564,37.227296]}},
{ "type": "Feature", "properties": {"Name":"Clarksville town","State":"Virginia","State_Abbrev":"VA"},
"geometry":{ "type": "Point", "coordinates": [-78.564526,36.618228]}},
{ "type": "Feature", "properties": {"Name":"Claypool Hill CDP","State":"Virginia","State_Abbrev":"VA"},
"geometry":{ "type": "Point", "coordinates": [-81.749996,37.064729]}},
{ "type": "Feature", "properties": {"Name":"Cleveland town","State":"Virginia","State_Abbrev":"VA"},
"geometry":{ "type": "Point", "coordinates": [-82.152632,36.943669]}},
{ "type": "Feature", "properties": {"Name":"Clifton town","State":"Virginia","State_Abbrev":"VA"},
"geometry":{ "type": "Point", "coordinates": [-77.38599,38.780128]}},
{ "type": "Feature", "properties": {"Name":"Cliftondale Park CDP","State":"Virginia","State_Abbrev":"VA"},
"geometry":{ "type": "Point", "coordinates": [-79.798136,37.824938]}},
{ "type": "Feature", "properties": {"Name":"Clifton Forge town","State":"Virginia","State_Abbrev":"VA"},
"geometry":{ "type": "Point", "coordinates": [-79.825194,37.82332]}},
{ "type": "Feature", "properties": {"Name":"Clinchco town","State":"Virginia","State_Abbrev":"VA"},
"geometry":{ "type": "Point", "coordinates": [-82.354462,37.157398]}},
{ "type": "Feature", "properties": {"Name":"Clinchport town","State":"Virginia","State_Abbrev":"VA"},
"geometry":{ "type": "Point", "coordinates": [-82.74416,36.680024]}},
{ "type": "Feature", "properties": {"Name":"Clintwood town","State":"Virginia","State_Abbrev":"VA"},
"geometry":{ "type": "Point", "coordinates": [-82.459892,37.152994]}},
{ "type": "Feature", "properties": {"Name":"Clover CDP","State":"Virginia","State_Abbrev":"VA"},
"geometry":{ "type": "Point", "coordinates": [-78.721854,36.84024]}},
{ "type": "Feature", "properties": {"Name":"Cloverdale CDP","State":"Virginia","State_Abbrev":"VA"},
"geometry":{ "type": "Point", "coordinates": [-79.903579,37.356145]}},
{ "type": "Feature", "properties": {"Name":"Cluster Springs CDP","State":"Virginia","State_Abbrev":"VA"},
"geometry":{ "type": "Point", "coordinates": [-78.923099,36.604519]}},
{ "type": "Feature", "properties": {"Name":"Coeburn town","State":"Virginia","State_Abbrev":"VA"},
"geometry":{ "type": "Point", "coordinates": [-82.470398,36.945648]}},
{ "type": "Feature", "properties": {"Name":"Collinsville CDP","State":"Virginia","State_Abbrev":"VA"},
"geometry":{ "type": "Point", "coordinates": [-79.911638,36.72102]}},
{ "type": "Feature", "properties": {"Name":"Colonial Beach town","State":"Virginia","State_Abbrev":"VA"},
"geometry":{ "type": "Point", "coordinates": [-76.993729,38.264407]}},
{ "type": "Feature", "properties": {"Name":"Colonial Heights city","State":"Virginia","State_Abbrev":"VA"},
"geometry":{ "type": "Point", "coordinates": [-77.396804,37.261685]}},
{ "type": "Feature", "properties": {"Name":"Columbia CDP","State":"Virginia","State_Abbrev":"VA"},
"geometry":{ "type": "Point", "coordinates": [-78.163369,37.753843]}},
{ "type": "Feature", "properties": {"Name":"Concord CDP","State":"Virginia","State_Abbrev":"VA"},
"geometry":{ "type": "Point", "coordinates": [-78.982889,37.34484]}},
{ "type": "Feature", "properties": {"Name":"Countryside CDP","State":"Virginia","State_Abbrev":"VA"},
"geometry":{ "type": "Point", "coordinates": [-77.412414,39.052202]}},
{ "type": "Feature", "properties": {"Name":"County Center CDP","State":"Virginia","State_Abbrev":"VA"},
"geometry":{ "type": "Point", "coordinates": [-77.355599,38.692745]}},
{ "type": "Feature", "properties": {"Name":"Courtland town","State":"Virginia","State_Abbrev":"VA"},
"geometry":{ "type": "Point", "coordinates": [-77.061957,36.71226]}},
{ "type": "Feature", "properties": {"Name":"Covington city","State":"Virginia","State_Abbrev":"VA"},
"geometry":{ "type": "Point", "coordinates": [-79.985434,37.78106]}},
{ "type": "Feature", "properties": {"Name":"Craigsville town","State":"Virginia","State_Abbrev":"VA"},
"geometry":{ "type": "Point", "coordinates": [-79.390787,38.086525]}},
{ "type": "Feature", "properties": {"Name":"Crewe town","State":"Virginia","State_Abbrev":"VA"},
"geometry":{ "type": "Point", "coordinates": [-78.130407,37.180994]}},
{ "type": "Feature", "properties": {"Name":"Crimora CDP","State":"Virginia","State_Abbrev":"VA"},
"geometry":{ "type": "Point", "coordinates": [-78.843844,38.161665]}},
{ "type": "Feature", "properties": {"Name":"Crosspointe CDP","State":"Virginia","State_Abbrev":"VA"},
"geometry":{ "type": "Point", "coordinates": [-77.263232,38.72498]}},
{ "type": "Feature", "properties": {"Name":"Crozet CDP","State":"Virginia","State_Abbrev":"VA"},
"geometry":{ "type": "Point", "coordinates": [-78.69696,38.06492]}},
{ "type": "Feature", "properties": {"Name":"Culpeper town","State":"Virginia","State_Abbrev":"VA"},
"geometry":{ "type": "Point", "coordinates": [-77.999764,38.470292]}},
{ "type": "Feature", "properties": {"Name":"Cumberland CDP","State":"Virginia","State_Abbrev":"VA"},
"geometry":{ "type": "Point", "coordinates": [-78.257515,37.498721]}},
{ "type": "Feature", "properties": {"Name":"Dahlgren CDP","State":"Virginia","State_Abbrev":"VA"},
"geometry":{ "type": "Point", "coordinates": [-77.064267,38.341976]}},
{ "type": "Feature", "properties": {"Name":"Dahlgren Center CDP","State":"Virginia","State_Abbrev":"VA"},
"geometry":{ "type": "Point", "coordinates": [-77.028454,38.33631]}},
{ "type": "Feature", "properties": {"Name":"Dale City CDP","State":"Virginia","State_Abbrev":"VA"},
"geometry":{ "type": "Point", "coordinates": [-77.345941,38.649812]}},
{ "type": "Feature", "properties": {"Name":"Daleville CDP","State":"Virginia","State_Abbrev":"VA"},
"geometry":{ "type": "Point", "coordinates": [-79.913771,37.41447]}},
{ "type": "Feature", "properties": {"Name":"Damascus town","State":"Virginia","State_Abbrev":"VA"},
"geometry":{ "type": "Point", "coordinates": [-81.789359,36.63267]}},
{ "type": "Feature", "properties": {"Name":"Dante CDP","State":"Virginia","State_Abbrev":"VA"},
"geometry":{ "type": "Point", "coordinates": [-82.283575,36.984673]}},
{ "type": "Feature", "properties": {"Name":"Danville city","State":"Virginia","State_Abbrev":"VA"},
"geometry":{ "type": "Point", "coordinates": [-79.408071,36.583334]}},
{ "type": "Feature", "properties": {"Name":"Dayton town","State":"Virginia","State_Abbrev":"VA"},
"geometry":{ "type": "Point", "coordinates": [-78.941121,38.417294]}},
{ "type": "Feature", "properties": {"Name":"Deep Creek CDP","State":"Virginia","State_Abbrev":"VA"},
"geometry":{ "type": "Point", "coordinates": [-75.752655,37.759931]}},
{ "type": "Feature", "properties": {"Name":"Deerfield CDP","State":"Virginia","State_Abbrev":"VA"},
"geometry":{ "type": "Point", "coordinates": [-79.412999,38.194551]}},
{ "type": "Feature", "properties": {"Name":"Deltaville CDP","State":"Virginia","State_Abbrev":"VA"},
"geometry":{ "type": "Point", "coordinates": [-76.327846,37.551332]}},
{ "type": "Feature", "properties": {"Name":"Dendron town","State":"Virginia","State_Abbrev":"VA"},
"geometry":{ "type": "Point", "coordinates": [-76.924056,37.036415]}},
{ "type": "Feature", "properties": {"Name":"Difficult Run CDP","State":"Virginia","State_Abbrev":"VA"},
"geometry":{ "type": "Point", "coordinates": [-77.345536,38.906639]}},
{ "type": "Feature", "properties": {"Name":"Dillwyn town","State":"Virginia","State_Abbrev":"VA"},
"geometry":{ "type": "Point", "coordinates": [-78.46121,37.540511]}},
{ "type": "Feature", "properties": {"Name":"Dinwiddie CDP","State":"Virginia","State_Abbrev":"VA"},
"geometry":{ "type": "Point", "coordinates": [-77.586454,37.085011]}},
{ "type": "Feature", "properties": {"Name":"Disputanta CDP","State":"Virginia","State_Abbrev":"VA"},
"geometry":{ "type": "Point", "coordinates": [-77.224856,37.123551]}},
{ "type": "Feature", "properties": {"Name":"Dooms CDP","State":"Virginia","State_Abbrev":"VA"},
"geometry":{ "type": "Point", "coordinates": [-78.850167,38.100067]}},
{ "type": "Feature", "properties": {"Name":"Doran CDP","State":"Virginia","State_Abbrev":"VA"},
"geometry":{ "type": "Point", "coordinates": [-81.83193,37.095858]}},
{ "type": "Feature", "properties": {"Name":"Drakes Branch town","State":"Virginia","State_Abbrev":"VA"},
"geometry":{ "type": "Point", "coordinates": [-78.60094,36.993347]}},
{ "type": "Feature", "properties": {"Name":"Dranesville CDP","State":"Virginia","State_Abbrev":"VA"},
"geometry":{ "type": "Point", "coordinates": [-77.370298,38.996677]}},
{ "type": "Feature", "properties": {"Name":"Draper CDP","State":"Virginia","State_Abbrev":"VA"},
"geometry":{ "type": "Point", "coordinates": [-80.732508,37.000242]}},
{ "type": "Feature", "properties": {"Name":"Dryden CDP","State":"Virginia","State_Abbrev":"VA"},
"geometry":{ "type": "Point", "coordinates": [-82.944077,36.775836]}},
{ "type": "Feature", "properties": {"Name":"Dublin town","State":"Virginia","State_Abbrev":"VA"},
"geometry":{ "type": "Point", "coordinates": [-80.6897,37.105503]}},
{ "type": "Feature", "properties": {"Name":"Duffield town","State":"Virginia","State_Abbrev":"VA"},
"geometry":{ "type": "Point", "coordinates": [-82.795967,36.719629]}},
{ "type": "Feature", "properties": {"Name":"Dulles Town Center CDP","State":"Virginia","State_Abbrev":"VA"},
"geometry":{ "type": "Point", "coordinates": [-77.413511,39.023468]}},
{ "type": "Feature", "properties": {"Name":"Dumbarton CDP","State":"Virginia","State_Abbrev":"VA"},
"geometry":{ "type": "Point", "coordinates": [-77.508285,37.611887]}},
{ "type": "Feature", "properties": {"Name":"Dumfries town","State":"Virginia","State_Abbrev":"VA"},
"geometry":{ "type": "Point", "coordinates": [-77.322421,38.567348]}},
{ "type": "Feature", "properties": {"Name":"Dunbar CDP","State":"Virginia","State_Abbrev":"VA"},
"geometry":{ "type": "Point", "coordinates": [-82.745885,36.973257]}},
{ "type": "Feature", "properties": {"Name":"Dungannon town","State":"Virginia","State_Abbrev":"VA"},
"geometry":{ "type": "Point", "coordinates": [-82.468108,36.828397]}},
{ "type": "Feature", "properties": {"Name":"Dunn Loring CDP","State":"Virginia","State_Abbrev":"VA"},
"geometry":{ "type": "Point", "coordinates": [-77.229192,38.894083]}},
{ "type": "Feature", "properties": {"Name":"Eagle Rock CDP","State":"Virginia","State_Abbrev":"VA"},
"geometry":{ "type": "Point", "coordinates": [-79.791894,37.642251]}},
{ "type": "Feature", "properties": {"Name":"Earlysville CDP","State":"Virginia","State_Abbrev":"VA"},
"geometry":{ "type": "Point", "coordinates": [-78.468933,38.154569]}},
{ "type": "Feature", "properties": {"Name":"East Highland Park CDP","State":"Virginia","State_Abbrev":"VA"},
"geometry":{ "type": "Point", "coordinates": [-77.386788,37.577514]}},
{ "type": "Feature", "properties": {"Name":"East Lexington CDP","State":"Virginia","State_Abbrev":"VA"},
"geometry":{ "type": "Point", "coordinates": [-79.416492,37.801471]}},
{ "type": "Feature", "properties": {"Name":"East Stone Gap CDP","State":"Virginia","State_Abbrev":"VA"},
"geometry":{ "type": "Point", "coordinates": [-82.743477,36.865696]}},
{ "type": "Feature", "properties": {"Name":"Eastville town","State":"Virginia","State_Abbrev":"VA"},
"geometry":{ "type": "Point", "coordinates": [-75.9408,37.351063]}},
{ "type": "Feature", "properties": {"Name":"Ebony CDP","State":"Virginia","State_Abbrev":"VA"},
"geometry":{ "type": "Point", "coordinates": [-77.983988,36.575876]}},
{ "type": "Feature", "properties": {"Name":"Edinburg town","State":"Virginia","State_Abbrev":"VA"},
"geometry":{ "type": "Point", "coordinates": [-78.562689,38.822863]}},
{ "type": "Feature", "properties": {"Name":"Eggleston CDP","State":"Virginia","State_Abbrev":"VA"},
"geometry":{ "type": "Point", "coordinates": [-80.621872,37.287196]}},
{ "type": "Feature", "properties": {"Name":"Elkton town","State":"Virginia","State_Abbrev":"VA"},
"geometry":{ "type": "Point", "coordinates": [-78.616117,38.41069]}},
{ "type": "Feature", "properties": {"Name":"Elliston CDP","State":"Virginia","State_Abbrev":"VA"},
"geometry":{ "type": "Point", "coordinates": [-80.215723,37.223009]}},
{ "type": "Feature", "properties": {"Name":"Emory CDP","State":"Virginia","State_Abbrev":"VA"},
"geometry":{ "type": "Point", "coordinates": [-81.827397,36.779821]}},
{ "type": "Feature", "properties": {"Name":"Emporia city","State":"Virginia","State_Abbrev":"VA"},
"geometry":{ "type": "Point", "coordinates": [-77.535975,36.696182]}},
{ "type": "Feature", "properties": {"Name":"Enon CDP","State":"Virginia","State_Abbrev":"VA"},
"geometry":{ "type": "Point", "coordinates": [-77.321671,37.327339]}},
{ "type": "Feature", "properties": {"Name":"Esmont CDP","State":"Virginia","State_Abbrev":"VA"},
"geometry":{ "type": "Point", "coordinates": [-78.592057,37.828544]}},
{ "type": "Feature", "properties": {"Name":"Ettrick CDP","State":"Virginia","State_Abbrev":"VA"},
"geometry":{ "type": "Point", "coordinates": [-77.430756,37.247306]}},
{ "type": "Feature", "properties": {"Name":"Ewing CDP","State":"Virginia","State_Abbrev":"VA"},
"geometry":{ "type": "Point", "coordinates": [-83.429466,36.637465]}},
{ "type": "Feature", "properties": {"Name":"Exmore town","State":"Virginia","State_Abbrev":"VA"},
"geometry":{ "type": "Point", "coordinates": [-75.828317,37.529495]}},
{ "type": "Feature", "properties": {"Name":"Fairfax city","State":"Virginia","State_Abbrev":"VA"},
"geometry":{ "type": "Point", "coordinates": [-77.299025,38.853183]}},
{ "type": "Feature", "properties": {"Name":"Fairfax Station CDP","State":"Virginia","State_Abbrev":"VA"},
"geometry":{ "type": "Point", "coordinates": [-77.338545,38.794835]}},
{ "type": "Feature", "properties": {"Name":"Fairfield CDP","State":"Virginia","State_Abbrev":"VA"},
"geometry":{ "type": "Point", "coordinates": [-79.282871,37.882818]}},
{ "type": "Feature", "properties": {"Name":"Fair Lakes CDP","State":"Virginia","State_Abbrev":"VA"},
"geometry":{ "type": "Point", "coordinates": [-77.389277,38.8531]}},
{ "type": "Feature", "properties": {"Name":"Fairlawn CDP","State":"Virginia","State_Abbrev":"VA"},
"geometry":{ "type": "Point", "coordinates": [-80.543843,37.145208]}},
{ "type": "Feature", "properties": {"Name":"Fair Oaks CDP","State":"Virginia","State_Abbrev":"VA"},
"geometry":{ "type": "Point", "coordinates": [-77.357387,38.865093]}},
{ "type": "Feature", "properties": {"Name":"Fairview CDP","State":"Virginia","State_Abbrev":"VA"},
"geometry":{ "type": "Point", "coordinates": [-78.465344,36.829244]}},
{ "type": "Feature", "properties": {"Name":"Fairview Beach CDP","State":"Virginia","State_Abbrev":"VA"},
"geometry":{ "type": "Point", "coordinates": [-77.242346,38.328167]}},
{ "type": "Feature", "properties": {"Name":"Falls Church city","State":"Virginia","State_Abbrev":"VA"},
"geometry":{ "type": "Point", "coordinates": [-77.175603,38.884722]}},
{ "type": "Feature", "properties": {"Name":"Falls Mills CDP","State":"Virginia","State_Abbrev":"VA"},
"geometry":{ "type": "Point", "coordinates": [-81.306183,37.279088]}},
{ "type": "Feature", "properties": {"Name":"Falmouth CDP","State":"Virginia","State_Abbrev":"VA"},
"geometry":{ "type": "Point", "coordinates": [-77.465914,38.33018]}},
{ "type": "Feature", "properties": {"Name":"Fancy Gap CDP","State":"Virginia","State_Abbrev":"VA"},
"geometry":{ "type": "Point", "coordinates": [-80.701083,36.671304]}},
{ "type": "Feature", "properties": {"Name":"Farmville town","State":"Virginia","State_Abbrev":"VA"},
"geometry":{ "type": "Point", "coordinates": [-78.400447,37.296115]}},
{ "type": "Feature", "properties": {"Name":"Ferrum CDP","State":"Virginia","State_Abbrev":"VA"},
"geometry":{ "type": "Point", "coordinates": [-79.994972,36.938495]}},
{ "type": "Feature", "properties": {"Name":"Fieldale CDP","State":"Virginia","State_Abbrev":"VA"},
"geometry":{ "type": "Point", "coordinates": [-79.942435,36.700949]}},
{ "type": "Feature", "properties": {"Name":"Fincastle town","State":"Virginia","State_Abbrev":"VA"},
"geometry":{ "type": "Point", "coordinates": [-79.874827,37.501573]}},
{ "type": "Feature", "properties": {"Name":"Fishersville CDP","State":"Virginia","State_Abbrev":"VA"},
"geometry":{ "type": "Point", "coordinates": [-78.986163,38.102349]}},
{ "type": "Feature", "properties": {"Name":"Flint Hill CDP","State":"Virginia","State_Abbrev":"VA"},
"geometry":{ "type": "Point", "coordinates": [-78.103474,38.765579]}},
{ "type": "Feature", "properties": {"Name":"Floris CDP","State":"Virginia","State_Abbrev":"VA"},
"geometry":{ "type": "Point", "coordinates": [-77.409097,38.929432]}},
{ "type": "Feature", "properties": {"Name":"Floyd town","State":"Virginia","State_Abbrev":"VA"},
"geometry":{ "type": "Point", "coordinates": [-80.318117,36.91216]}},
{ "type": "Feature", "properties": {"Name":"Forest CDP","State":"Virginia","State_Abbrev":"VA"},
"geometry":{ "type": "Point", "coordinates": [-79.277149,37.374934]}},
{ "type": "Feature", "properties": {"Name":"Fort Belvoir CDP","State":"Virginia","State_Abbrev":"VA"},
"geometry":{ "type": "Point", "coordinates": [-77.144497,38.713075]}},
{ "type": "Feature", "properties": {"Name":"Fort Chiswell CDP","State":"Virginia","State_Abbrev":"VA"},
"geometry":{ "type": "Point", "coordinates": [-80.956149,36.944722]}},
{ "type": "Feature", "properties": {"Name":"Fort Hunt CDP","State":"Virginia","State_Abbrev":"VA"},
"geometry":{ "type": "Point", "coordinates": [-77.057664,38.735462]}},
{ "type": "Feature", "properties": {"Name":"Fort Lee CDP","State":"Virginia","State_Abbrev":"VA"},
"geometry":{ "type": "Point", "coordinates": [-77.332513,37.235635]}},
{ "type": "Feature", "properties": {"Name":"Franconia CDP","State":"Virginia","State_Abbrev":"VA"},
"geometry":{ "type": "Point", "coordinates": [-77.158313,38.767906]}},
{ "type": "Feature", "properties": {"Name":"Franklin city","State":"Virginia","State_Abbrev":"VA"},
"geometry":{ "type": "Point", "coordinates": [-76.941396,36.684014]}},
{ "type": "Feature", "properties": {"Name":"Franklin Farm CDP","State":"Virginia","State_Abbrev":"VA"},
"geometry":{ "type": "Point", "coordinates": [-77.395913,38.90979]}},
{ "type": "Feature", "properties": {"Name":"Franktown CDP","State":"Virginia","State_Abbrev":"VA"},
"geometry":{ "type": "Point", "coordinates": [-75.877313,37.477628]}},
{ "type": "Feature", "properties": {"Name":"Fredericksburg city","State":"Virginia","State_Abbrev":"VA"},
"geometry":{ "type": "Point", "coordinates": [-77.486658,38.299272]}},
{ "type": "Feature", "properties": {"Name":"Free Union CDP","State":"Virginia","State_Abbrev":"VA"},
"geometry":{ "type": "Point", "coordinates": [-78.558872,38.153304]}},
{ "type": "Feature", "properties": {"Name":"Fries town","State":"Virginia","State_Abbrev":"VA"},
"geometry":{ "type": "Point", "coordinates": [-80.975017,36.714146]}},
{ "type": "Feature", "properties": {"Name":"Front Royal town","State":"Virginia","State_Abbrev":"VA"},
"geometry":{ "type": "Point", "coordinates": [-78.183426,38.924952]}},
{ "type": "Feature", "properties": {"Name":"Gainesville CDP","State":"Virginia","State_Abbrev":"VA"},
"geometry":{ "type": "Point", "coordinates": [-77.642243,38.793191]}},
{ "type": "Feature", "properties": {"Name":"Galax city","State":"Virginia","State_Abbrev":"VA"},
"geometry":{ "type": "Point", "coordinates": [-80.914308,36.66564]}},
{ "type": "Feature", "properties": {"Name":"Gargatha CDP","State":"Virginia","State_Abbrev":"VA"},
"geometry":{ "type": "Point", "coordinates": [-75.57685,37.790901]}},
{ "type": "Feature", "properties": {"Name":"Gasburg CDP","State":"Virginia","State_Abbrev":"VA"},
"geometry":{ "type": "Point", "coordinates": [-77.872928,36.557604]}},
{ "type": "Feature", "properties": {"Name":"Gate City town","State":"Virginia","State_Abbrev":"VA"},
"geometry":{ "type": "Point", "coordinates": [-82.578387,36.646139]}},
{ "type": "Feature", "properties": {"Name":"George Mason CDP","State":"Virginia","State_Abbrev":"VA"},
"geometry":{ "type": "Point", "coordinates": [-77.302406,38.831513]}},
{ "type": "Feature", "properties": {"Name":"Glade Spring town","State":"Virginia","State_Abbrev":"VA"},
"geometry":{ "type": "Point", "coordinates": [-81.772253,36.789944]}},
{ "type": "Feature", "properties": {"Name":"Glasgow town","State":"Virginia","State_Abbrev":"VA"},
"geometry":{ "type": "Point", "coordinates": [-79.458169,37.631814]}},
{ "type": "Feature", "properties": {"Name":"Glen Allen CDP","State":"Virginia","State_Abbrev":"VA"},
"geometry":{ "type": "Point", "coordinates": [-77.484349,37.665873]}},
{ "type": "Feature", "properties": {"Name":"Glen Lyn town","State":"Virginia","State_Abbrev":"VA"},
"geometry":{ "type": "Point", "coordinates": [-80.858936,37.372669]}},
{ "type": "Feature", "properties": {"Name":"Glenvar CDP","State":"Virginia","State_Abbrev":"VA"},
"geometry":{ "type": "Point", "coordinates": [-80.126362,37.276191]}},
{ "type": "Feature", "properties": {"Name":"Glen Wilton CDP","State":"Virginia","State_Abbrev":"VA"},
"geometry":{ "type": "Point", "coordinates": [-79.82184,37.756032]}},
{ "type": "Feature", "properties": {"Name":"Gloucester Courthouse CDP","State":"Virginia","State_Abbrev":"VA"},
"geometry":{ "type": "Point", "coordinates": [-76.523505,37.403541]}},
{ "type": "Feature", "properties": {"Name":"Gloucester Point CDP","State":"Virginia","State_Abbrev":"VA"},
"geometry":{ "type": "Point", "coordinates": [-76.497368,37.270274]}},
{ "type": "Feature", "properties": {"Name":"Goochland CDP","State":"Virginia","State_Abbrev":"VA"},
"geometry":{ "type": "Point", "coordinates": [-77.893651,37.697075]}},
{ "type": "Feature", "properties": {"Name":"Goose Creek Village CDP","State":"Virginia","State_Abbrev":"VA"},
"geometry":{ "type": "Point", "coordinates": [-77.52544,39.043103]}},
{ "type": "Feature", "properties": {"Name":"Gordonsville town","State":"Virginia","State_Abbrev":"VA"},
"geometry":{ "type": "Point", "coordinates": [-78.187406,38.135552]}},
{ "type": "Feature", "properties": {"Name":"Gore CDP","State":"Virginia","State_Abbrev":"VA"},
"geometry":{ "type": "Point", "coordinates": [-78.328212,39.262795]}},
{ "type": "Feature", "properties": {"Name":"Goshen town","State":"Virginia","State_Abbrev":"VA"},
"geometry":{ "type": "Point", "coordinates": [-79.507795,37.989969]}},
{ "type": "Feature", "properties": {"Name":"Gratton CDP","State":"Virginia","State_Abbrev":"VA"},
"geometry":{ "type": "Point", "coordinates": [-81.426759,37.134728]}},
{ "type": "Feature", "properties": {"Name":"Great Falls CDP","State":"Virginia","State_Abbrev":"VA"},
"geometry":{ "type": "Point", "coordinates": [-77.301942,39.012357]}},
{ "type": "Feature", "properties": {"Name":"Great Falls Crossing CDP","State":"Virginia","State_Abbrev":"VA"},
"geometry":{ "type": "Point", "coordinates": [-77.324423,38.981208]}},
{ "type": "Feature", "properties": {"Name":"Greenbackville CDP","State":"Virginia","State_Abbrev":"VA"},
"geometry":{ "type": "Point", "coordinates": [-75.385368,38.010003]}},
{ "type": "Feature", "properties": {"Name":"Greenbriar CDP","State":"Virginia","State_Abbrev":"VA"},
"geometry":{ "type": "Point", "coordinates": [-77.399054,38.871638]}},
{ "type": "Feature", "properties": {"Name":"Greenbush CDP","State":"Virginia","State_Abbrev":"VA"},
"geometry":{ "type": "Point", "coordinates": [-75.679665,37.73977]}},
{ "type": "Feature", "properties": {"Name":"Greenville CDP","State":"Virginia","State_Abbrev":"VA"},
"geometry":{ "type": "Point", "coordinates": [-79.153862,38.00345]}},
{ "type": "Feature", "properties": {"Name":"Gretna town","State":"Virginia","State_Abbrev":"VA"},
"geometry":{ "type": "Point", "coordinates": [-79.362605,36.949548]}},
{ "type": "Feature", "properties": {"Name":"Grottoes town","State":"Virginia","State_Abbrev":"VA"},
"geometry":{ "type": "Point", "coordinates": [-78.825905,38.269704]}},
{ "type": "Feature", "properties": {"Name":"Groveton CDP","State":"Virginia","State_Abbrev":"VA"},
"geometry":{ "type": "Point", "coordinates": [-77.1074,38.74979]}},
{ "type": "Feature", "properties": {"Name":"Grundy town","State":"Virginia","State_Abbrev":"VA"},
"geometry":{ "type": "Point", "coordinates": [-82.094599,37.267179]}},
{ "type": "Feature", "properties": {"Name":"Gwynn CDP","State":"Virginia","State_Abbrev":"VA"},
"geometry":{ "type": "Point", "coordinates": [-76.286585,37.495638]}},
{ "type": "Feature", "properties": {"Name":"Halifax town","State":"Virginia","State_Abbrev":"VA"},
"geometry":{ "type": "Point", "coordinates": [-78.927599,36.761201]}},
{ "type": "Feature", "properties": {"Name":"Hallwood town","State":"Virginia","State_Abbrev":"VA"},
"geometry":{ "type": "Point", "coordinates": [-75.589516,37.877429]}},
{ "type": "Feature", "properties": {"Name":"Hamilton town","State":"Virginia","State_Abbrev":"VA"},
"geometry":{ "type": "Point", "coordinates": [-77.664124,39.134877]}},
{ "type": "Feature", "properties": {"Name":"Hampden-Sydney CDP","State":"Virginia","State_Abbrev":"VA"},
"geometry":{ "type": "Point", "coordinates": [-78.475746,37.244012]}},
{ "type": "Feature", "properties": {"Name":"Hampton city","State":"Virginia","State_Abbrev":"VA"},
"geometry":{ "type": "Point", "coordinates": [-76.297293,37.047961]}},
{ "type": "Feature", "properties": {"Name":"Hanover CDP","State":"Virginia","State_Abbrev":"VA"},
"geometry":{ "type": "Point", "coordinates": [-77.375008,37.772084]}},
{ "type": "Feature", "properties": {"Name":"Harborton CDP","State":"Virginia","State_Abbrev":"VA"},
"geometry":{ "type": "Point", "coordinates": [-75.833227,37.659599]}},
{ "type": "Feature", "properties": {"Name":"Harrisonburg city","State":"Virginia","State_Abbrev":"VA"},
"geometry":{ "type": "Point", "coordinates": [-78.873303,38.436255]}},
{ "type": "Feature", "properties": {"Name":"Harriston CDP","State":"Virginia","State_Abbrev":"VA"},
"geometry":{ "type": "Point", "coordinates": [-78.82597,38.208268]}},
{ "type": "Feature", "properties": {"Name":"Hayfield CDP","State":"Virginia","State_Abbrev":"VA"},
"geometry":{ "type": "Point", "coordinates": [-77.132598,38.753361]}},
{ "type": "Feature", "properties": {"Name":"Haymarket town","State":"Virginia","State_Abbrev":"VA"},
"geometry":{ "type": "Point", "coordinates": [-77.636331,38.812169]}},
{ "type": "Feature", "properties": {"Name":"Haysi town","State":"Virginia","State_Abbrev":"VA"},
"geometry":{ "type": "Point", "coordinates": [-82.286741,37.2159]}},
{ "type": "Feature", "properties": {"Name":"Heathsville CDP","State":"Virginia","State_Abbrev":"VA"},
"geometry":{ "type": "Point", "coordinates": [-76.478583,37.911491]}},
{ "type": "Feature", "properties": {"Name":"Henry Fork CDP","State":"Virginia","State_Abbrev":"VA"},
"geometry":{ "type": "Point", "coordinates": [-79.870374,36.96972]}},
{ "type": "Feature", "properties": {"Name":"Herndon town","State":"Virginia","State_Abbrev":"VA"},
"geometry":{ "type": "Point", "coordinates": [-77.387073,38.970412]}},
{ "type": "Feature", "properties": {"Name":"Highland Springs CDP","State":"Virginia","State_Abbrev":"VA"},
"geometry":{ "type": "Point", "coordinates": [-77.327886,37.551698]}},
{ "type": "Feature", "properties": {"Name":"Hillsboro town","State":"Virginia","State_Abbrev":"VA"},
"geometry":{ "type": "Point", "coordinates": [-77.722604,39.199788]}},
{ "type": "Feature", "properties": {"Name":"Hillsville town","State":"Virginia","State_Abbrev":"VA"},
"geometry":{ "type": "Point", "coordinates": [-80.736704,36.761614]}},
{ "type": "Feature", "properties": {"Name":"Hilltown CDP","State":"Virginia","State_Abbrev":"VA"},
"geometry":{ "type": "Point", "coordinates": [-80.982197,36.728969]}},
{ "type": "Feature", "properties": {"Name":"Hiltons CDP","State":"Virginia","State_Abbrev":"VA"},
"geometry":{ "type": "Point", "coordinates": [-82.467826,36.654854]}},
{ "type": "Feature", "properties": {"Name":"Hiwassee CDP","State":"Virginia","State_Abbrev":"VA"},
"geometry":{ "type": "Point", "coordinates": [-80.694928,36.971902]}},
{ "type": "Feature", "properties": {"Name":"Hollins CDP","State":"Virginia","State_Abbrev":"VA"},
"geometry":{ "type": "Point", "coordinates": [-79.952229,37.344017]}},
{ "type": "Feature", "properties": {"Name":"Hollymead CDP","State":"Virginia","State_Abbrev":"VA"},
"geometry":{ "type": "Point", "coordinates": [-78.43648,38.121383]}},
{ "type": "Feature", "properties": {"Name":"Honaker town","State":"Virginia","State_Abbrev":"VA"},
"geometry":{ "type": "Point", "coordinates": [-81.968539,37.015587]}},
{ "type": "Feature", "properties": {"Name":"Hopewell city","State":"Virginia","State_Abbrev":"VA"},
"geometry":{ "type": "Point", "coordinates": [-77.298944,37.29101]}},
{ "type": "Feature", "properties": {"Name":"Horntown CDP","State":"Virginia","State_Abbrev":"VA"},
"geometry":{ "type": "Point", "coordinates": [-75.457005,37.96608]}},
{ "type": "Feature", "properties": {"Name":"Horse Pasture CDP","State":"Virginia","State_Abbrev":"VA"},
"geometry":{ "type": "Point", "coordinates": [-79.952264,36.632239]}},
{ "type": "Feature", "properties": {"Name":"Hot Springs CDP","State":"Virginia","State_Abbrev":"VA"},
"geometry":{ "type": "Point", "coordinates": [-79.82389,38.001289]}},
{ "type": "Feature", "properties": {"Name":"Huntington CDP","State":"Virginia","State_Abbrev":"VA"},
"geometry":{ "type": "Point", "coordinates": [-77.07355,38.791273]}},
{ "type": "Feature", "properties": {"Name":"Hurt town","State":"Virginia","State_Abbrev":"VA"},
"geometry":{ "type": "Point", "coordinates": [-79.30334,37.096375]}},
{ "type": "Feature", "properties": {"Name":"Hutchison CDP","State":"Virginia","State_Abbrev":"VA"},
"geometry":{ "type": "Point", "coordinates": [-77.410906,38.963652]}},
{ "type": "Feature", "properties": {"Name":"Hybla Valley CDP","State":"Virginia","State_Abbrev":"VA"},
"geometry":{ "type": "Point", "coordinates": [-77.079624,38.746154]}},
{ "type": "Feature", "properties": {"Name":"Idylwood CDP","State":"Virginia","State_Abbrev":"VA"},
"geometry":{ "type": "Point", "coordinates": [-77.204011,38.889209]}},
{ "type": "Feature", "properties": {"Name":"Independence town","State":"Virginia","State_Abbrev":"VA"},
"geometry":{ "type": "Point", "coordinates": [-81.149248,36.627482]}},
{ "type": "Feature", "properties": {"Name":"Independent Hill CDP","State":"Virginia","State_Abbrev":"VA"},
"geometry":{ "type": "Point", "coordinates": [-77.425084,38.644549]}},
{ "type": "Feature", "properties": {"Name":"Innovation CDP","State":"Virginia","State_Abbrev":"VA"},
"geometry":{ "type": "Point", "coordinates": [-77.524674,38.753951]}},
{ "type": "Feature", "properties": {"Name":"Innsbrook CDP","State":"Virginia","State_Abbrev":"VA"},
"geometry":{ "type": "Point", "coordinates": [-77.576459,37.65368]}},
{ "type": "Feature", "properties": {"Name":"Iron Gate town","State":"Virginia","State_Abbrev":"VA"},
"geometry":{ "type": "Point", "coordinates": [-79.790567,37.798914]}},
{ "type": "Feature", "properties": {"Name":"Irvington town","State":"Virginia","State_Abbrev":"VA"},
"geometry":{ "type": "Point", "coordinates": [-76.419998,37.662372]}},
{ "type": "Feature", "properties": {"Name":"Ivanhoe CDP","State":"Virginia","State_Abbrev":"VA"},
"geometry":{ "type": "Point", "coordinates": [-80.968729,36.843173]}},
{ "type": "Feature", "properties": {"Name":"Ivor town","State":"Virginia","State_Abbrev":"VA"},
"geometry":{ "type": "Point", "coordinates": [-76.894652,36.901057]}},
{ "type": "Feature", "properties": {"Name":"Ivy CDP","State":"Virginia","State_Abbrev":"VA"},
"geometry":{ "type": "Point", "coordinates": [-78.59925,38.063646]}},
{ "type": "Feature", "properties": {"Name":"Jarratt town","State":"Virginia","State_Abbrev":"VA"},
"geometry":{ "type": "Point", "coordinates": [-77.468911,36.815991]}},
{ "type": "Feature", "properties": {"Name":"Jewell Ridge CDP","State":"Virginia","State_Abbrev":"VA"},
"geometry":{ "type": "Point", "coordinates": [-81.787371,37.18577]}},
{ "type": "Feature", "properties": {"Name":"Jolivue CDP","State":"Virginia","State_Abbrev":"VA"},
"geometry":{ "type": "Point", "coordinates": [-79.068295,38.111145]}},
{ "type": "Feature", "properties": {"Name":"Jonesville town","State":"Virginia","State_Abbrev":"VA"},
"geometry":{ "type": "Point", "coordinates": [-83.115313,36.687112]}},
{ "type": "Feature", "properties": {"Name":"Keezletown CDP","State":"Virginia","State_Abbrev":"VA"},
"geometry":{ "type": "Point", "coordinates": [-78.797656,38.412826]}},
{ "type": "Feature", "properties": {"Name":"Keller town","State":"Virginia","State_Abbrev":"VA"},
"geometry":{ "type": "Point", "coordinates": [-75.764392,37.621139]}},
{ "type": "Feature", "properties": {"Name":"Kenbridge town","State":"Virginia","State_Abbrev":"VA"},
"geometry":{ "type": "Point", "coordinates": [-78.128382,36.960859]}},
{ "type": "Feature", "properties": {"Name":"Keokee CDP","State":"Virginia","State_Abbrev":"VA"},
"geometry":{ "type": "Point", "coordinates": [-82.913671,36.862488]}},
{ "type": "Feature", "properties": {"Name":"Keswick CDP","State":"Virginia","State_Abbrev":"VA"},
"geometry":{ "type": "Point", "coordinates": [-78.361573,38.0145]}},
{ "type": "Feature", "properties": {"Name":"Keysville town","State":"Virginia","State_Abbrev":"VA"},
"geometry":{ "type": "Point", "coordinates": [-78.480437,37.038989]}},
{ "type": "Feature", "properties": {"Name":"Kilmarnock town","State":"Virginia","State_Abbrev":"VA"},
"geometry":{ "type": "Point", "coordinates": [-76.382853,37.710736]}},
{ "type": "Feature", "properties": {"Name":"Kincora CDP","State":"Virginia","State_Abbrev":"VA"},
"geometry":{ "type": "Point", "coordinates": [-77.436642,39.039035]}},
{ "type": "Feature", "properties": {"Name":"King and Queen Court House CDP","State":"Virginia","State_Abbrev":"VA"},
"geometry":{ "type": "Point", "coordinates": [-76.87785,37.665205]}},
{ "type": "Feature", "properties": {"Name":"King George CDP","State":"Virginia","State_Abbrev":"VA"},
"geometry":{ "type": "Point", "coordinates": [-77.184308,38.279436]}},
{ "type": "Feature", "properties": {"Name":"Kings Park CDP","State":"Virginia","State_Abbrev":"VA"},
"geometry":{ "type": "Point", "coordinates": [-77.239334,38.802169]}},
{ "type": "Feature", "properties": {"Name":"Kings Park West CDP","State":"Virginia","State_Abbrev":"VA"},
"geometry":{ "type": "Point", "coordinates": [-77.295823,38.814427]}},
{ "type": "Feature", "properties": {"Name":"Kingstowne CDP","State":"Virginia","State_Abbrev":"VA"},
"geometry":{ "type": "Point", "coordinates": [-77.145311,38.760698]}},
{ "type": "Feature", "properties": {"Name":"King William CDP","State":"Virginia","State_Abbrev":"VA"},
"geometry":{ "type": "Point", "coordinates": [-77.02976,37.683228]}},
{ "type": "Feature", "properties": {"Name":"La Crosse town","State":"Virginia","State_Abbrev":"VA"},
"geometry":{ "type": "Point", "coordinates": [-78.094452,36.701388]}},
{ "type": "Feature", "properties": {"Name":"Lafayette CDP","State":"Virginia","State_Abbrev":"VA"},
"geometry":{ "type": "Point", "coordinates": [-80.204625,37.233435]}},
{ "type": "Feature", "properties": {"Name":"Lake Barcroft CDP","State":"Virginia","State_Abbrev":"VA"},
"geometry":{ "type": "Point", "coordinates": [-77.158743,38.851553]}},
{ "type": "Feature", "properties": {"Name":"Lake Caroline CDP","State":"Virginia","State_Abbrev":"VA"},
"geometry":{ "type": "Point", "coordinates": [-77.5195,37.987319]}},
{ "type": "Feature", "properties": {"Name":"Lake Holiday CDP","State":"Virginia","State_Abbrev":"VA"},
"geometry":{ "type": "Point", "coordinates": [-78.325224,39.307493]}},
{ "type": "Feature", "properties": {"Name":"Lake Land'Or CDP","State":"Virginia","State_Abbrev":"VA"},
"geometry":{ "type": "Point", "coordinates": [-77.553232,38.017509]}},
{ "type": "Feature", "properties": {"Name":"Lake Monticello CDP","State":"Virginia","State_Abbrev":"VA"},
"geometry":{ "type": "Point", "coordinates": [-78.331876,37.919811]}},
{ "type": "Feature", "properties": {"Name":"Lake of the Woods CDP","State":"Virginia","State_Abbrev":"VA"},
"geometry":{ "type": "Point", "coordinates": [-77.756465,38.333765]}},
{ "type": "Feature", "properties": {"Name":"Lake Ridge CDP","State":"Virginia","State_Abbrev":"VA"},
"geometry":{ "type": "Point", "coordinates": [-77.305762,38.686955]}},
{ "type": "Feature", "properties": {"Name":"Lakeside CDP","State":"Virginia","State_Abbrev":"VA"},
"geometry":{ "type": "Point", "coordinates": [-77.477111,37.613092]}},
{ "type": "Feature", "properties": {"Name":"Lake Wilderness CDP","State":"Virginia","State_Abbrev":"VA"},
"geometry":{ "type": "Point", "coordinates": [-77.726475,38.304094]}},
{ "type": "Feature", "properties": {"Name":"Lancaster CDP","State":"Virginia","State_Abbrev":"VA"},
"geometry":{ "type": "Point", "coordinates": [-76.44867,37.760066]}},
{ "type": "Feature", "properties": {"Name":"Lansdowne CDP","State":"Virginia","State_Abbrev":"VA"},
"geometry":{ "type": "Point", "coordinates": [-77.48374,39.085271]}},
{ "type": "Feature", "properties": {"Name":"Laurel CDP","State":"Virginia","State_Abbrev":"VA"},
"geometry":{ "type": "Point", "coordinates": [-77.507051,37.636143]}},
{ "type": "Feature", "properties": {"Name":"Laurel Hill CDP","State":"Virginia","State_Abbrev":"VA"},
"geometry":{ "type": "Point", "coordinates": [-77.243298,38.705876]}},
{ "type": "Feature", "properties": {"Name":"Laurel Park CDP","State":"Virginia","State_Abbrev":"VA"},
"geometry":{ "type": "Point", "coordinates": [-79.786615,36.6885]}},
{ "type": "Feature", "properties": {"Name":"Lawrenceville town","State":"Virginia","State_Abbrev":"VA"},
"geometry":{ "type": "Point", "coordinates": [-77.853873,36.7565]}},
{ "type": "Feature", "properties": {"Name":"Laymantown CDP","State":"Virginia","State_Abbrev":"VA"},
"geometry":{ "type": "Point", "coordinates": [-79.860051,37.36392]}},
{ "type": "Feature", "properties": {"Name":"Lebanon town","State":"Virginia","State_Abbrev":"VA"},
"geometry":{ "type": "Point", "coordinates": [-82.078511,36.899492]}},
{ "type": "Feature", "properties": {"Name":"Lee Mont CDP","State":"Virginia","State_Abbrev":"VA"},
"geometry":{ "type": "Point", "coordinates": [-75.680182,37.779897]}},
{ "type": "Feature", "properties": {"Name":"Leesburg town","State":"Virginia","State_Abbrev":"VA"},
"geometry":{ "type": "Point", "coordinates": [-77.559195,39.106396]}},
{ "type": "Feature", "properties": {"Name":"Leesylvania CDP","State":"Virginia","State_Abbrev":"VA"},
"geometry":{ "type": "Point", "coordinates": [-77.282893,38.608262]}},
{ "type": "Feature", "properties": {"Name":"Lexington city","State":"Virginia","State_Abbrev":"VA"},
"geometry":{ "type": "Point", "coordinates": [-79.44432,37.782332]}},
{ "type": "Feature", "properties": {"Name":"Lincolnia CDP","State":"Virginia","State_Abbrev":"VA"},
"geometry":{ "type": "Point", "coordinates": [-77.154271,38.815789]}},
{ "type": "Feature", "properties": {"Name":"Linton Hall CDP","State":"Virginia","State_Abbrev":"VA"},
"geometry":{ "type": "Point", "coordinates": [-77.57595,38.752585]}},
{ "type": "Feature", "properties": {"Name":"Linville CDP","State":"Virginia","State_Abbrev":"VA"},
"geometry":{ "type": "Point", "coordinates": [-78.835057,38.516637]}},
{ "type": "Feature", "properties": {"Name":"Loch Lomond CDP","State":"Virginia","State_Abbrev":"VA"},
"geometry":{ "type": "Point", "coordinates": [-77.482033,38.780711]}},
{ "type": "Feature", "properties": {"Name":"Locust Mount CDP","State":"Virginia","State_Abbrev":"VA"},
"geometry":{ "type": "Point", "coordinates": [-75.701735,37.612415]}},
{ "type": "Feature", "properties": {"Name":"Long Branch CDP","State":"Virginia","State_Abbrev":"VA"},
"geometry":{ "type": "Point", "coordinates": [-77.269975,38.830539]}},
{ "type": "Feature", "properties": {"Name":"Lorton CDP","State":"Virginia","State_Abbrev":"VA"},
"geometry":{ "type": "Point", "coordinates": [-77.216649,38.698722]}},
{ "type": "Feature", "properties": {"Name":"Loudoun Valley Estates CDP","State":"Virginia","State_Abbrev":"VA"},
"geometry":{ "type": "Point", "coordinates": [-77.509208,38.980486]}},
{ "type": "Feature", "properties": {"Name":"Louisa town","State":"Virginia","State_Abbrev":"VA"},
"geometry":{ "type": "Point", "coordinates": [-77.999737,38.016624]}},
{ "type": "Feature", "properties": {"Name":"Lovettsville town","State":"Virginia","State_Abbrev":"VA"},
"geometry":{ "type": "Point", "coordinates": [-77.640388,39.269819]}},
{ "type": "Feature", "properties": {"Name":"Lovingston CDP","State":"Virginia","State_Abbrev":"VA"},
"geometry":{ "type": "Point", "coordinates": [-78.859696,37.763884]}},
{ "type": "Feature", "properties": {"Name":"Lowes Island CDP","State":"Virginia","State_Abbrev":"VA"},
"geometry":{ "type": "Point", "coordinates": [-77.354761,39.049173]}},
{ "type": "Feature", "properties": {"Name":"Low Moor CDP","State":"Virginia","State_Abbrev":"VA"},
"geometry":{ "type": "Point", "coordinates": [-79.868961,37.797907]}},
{ "type": "Feature", "properties": {"Name":"Lunenburg CDP","State":"Virginia","State_Abbrev":"VA"},
"geometry":{ "type": "Point", "coordinates": [-78.268238,36.958465]}},
{ "type": "Feature", "properties": {"Name":"Luray town","State":"Virginia","State_Abbrev":"VA"},
"geometry":{ "type": "Point", "coordinates": [-78.455029,38.664809]}},
{ "type": "Feature", "properties": {"Name":"Lynchburg city","State":"Virginia","State_Abbrev":"VA"},
"geometry":{ "type": "Point", "coordinates": [-79.195458,37.399016]}},
{ "type": "Feature", "properties": {"Name":"Lyndhurst CDP","State":"Virginia","State_Abbrev":"VA"},
"geometry":{ "type": "Point", "coordinates": [-78.949846,38.023382]}},
{ "type": "Feature", "properties": {"Name":"McDowell CDP","State":"Virginia","State_Abbrev":"VA"},
"geometry":{ "type": "Point", "coordinates": [-79.505289,38.341913]}},
{ "type": "Feature", "properties": {"Name":"McGaheysville CDP","State":"Virginia","State_Abbrev":"VA"},
"geometry":{ "type": "Point", "coordinates": [-78.732601,38.372857]}},
{ "type": "Feature", "properties": {"Name":"McKenney town","State":"Virginia","State_Abbrev":"VA"},
"geometry":{ "type": "Point", "coordinates": [-77.721909,36.985367]}},
{ "type": "Feature", "properties": {"Name":"McLean CDP","State":"Virginia","State_Abbrev":"VA"},
"geometry":{ "type": "Point", "coordinates": [-77.192913,38.943545]}},
{ "type": "Feature", "properties": {"Name":"McMullin CDP","State":"Virginia","State_Abbrev":"VA"},
"geometry":{ "type": "Point", "coordinates": [-81.577295,36.818696]}},
{ "type": "Feature", "properties": {"Name":"McNair CDP","State":"Virginia","State_Abbrev":"VA"},
"geometry":{ "type": "Point", "coordinates": [-77.413578,38.952199]}},
{ "type": "Feature", "properties": {"Name":"Madison town","State":"Virginia","State_Abbrev":"VA"},
"geometry":{ "type": "Point", "coordinates": [-78.258598,38.379354]}},
{ "type": "Feature", "properties": {"Name":"Madison Heights CDP","State":"Virginia","State_Abbrev":"VA"},
"geometry":{ "type": "Point", "coordinates": [-79.10821,37.450301]}},
{ "type": "Feature", "properties": {"Name":"Makemie Park CDP","State":"Virginia","State_Abbrev":"VA"},
"geometry":{ "type": "Point", "coordinates": [-75.584486,37.910618]}},
{ "type": "Feature", "properties": {"Name":"Mallow CDP","State":"Virginia","State_Abbrev":"VA"},
"geometry":{ "type": "Point", "coordinates": [-79.972529,37.766309]}},
{ "type": "Feature", "properties": {"Name":"Manassas city","State":"Virginia","State_Abbrev":"VA"},
"geometry":{ "type": "Point", "coordinates": [-77.482633,38.746808]}},
{ "type": "Feature", "properties": {"Name":"Manassas Park city","State":"Virginia","State_Abbrev":"VA"},
"geometry":{ "type": "Point", "coordinates": [-77.442323,38.769398]}},
{ "type": "Feature", "properties": {"Name":"Manchester CDP","State":"Virginia","State_Abbrev":"VA"},
"geometry":{ "type": "Point", "coordinates": [-77.543894,37.4891]}},
{ "type": "Feature", "properties": {"Name":"Mantua CDP","State":"Virginia","State_Abbrev":"VA"},
"geometry":{ "type": "Point", "coordinates": [-77.257505,38.851738]}},
{ "type": "Feature", "properties": {"Name":"Mappsburg CDP","State":"Virginia","State_Abbrev":"VA"},
"geometry":{ "type": "Point", "coordinates": [-75.754901,37.580467]}},
{ "type": "Feature", "properties": {"Name":"Mappsville CDP","State":"Virginia","State_Abbrev":"VA"},
"geometry":{ "type": "Point", "coordinates": [-75.568752,37.843366]}},
{ "type": "Feature", "properties": {"Name":"Marion town","State":"Virginia","State_Abbrev":"VA"},
"geometry":{ "type": "Point", "coordinates": [-81.515664,36.837393]}},
{ "type": "Feature", "properties": {"Name":"Marshall CDP","State":"Virginia","State_Abbrev":"VA"},
"geometry":{ "type": "Point", "coordinates": [-77.837107,38.866012]}},
{ "type": "Feature", "properties": {"Name":"Martinsville city","State":"Virginia","State_Abbrev":"VA"},
"geometry":{ "type": "Point", "coordinates": [-79.863647,36.683527]}},
{ "type": "Feature", "properties": {"Name":"Mason Neck CDP","State":"Virginia","State_Abbrev":"VA"},
"geometry":{ "type": "Point", "coordinates": [-77.170525,38.651011]}},
{ "type": "Feature", "properties": {"Name":"Massanetta Springs CDP","State":"Virginia","State_Abbrev":"VA"},
"geometry":{ "type": "Point", "coordinates": [-78.831621,38.395013]}},
{ "type": "Feature", "properties": {"Name":"Massanutten CDP","State":"Virginia","State_Abbrev":"VA"},
"geometry":{ "type": "Point", "coordinates": [-78.727898,38.411082]}},
{ "type": "Feature", "properties": {"Name":"Mathews CDP","State":"Virginia","State_Abbrev":"VA"},
"geometry":{ "type": "Point", "coordinates": [-76.327722,37.443256]}},
{ "type": "Feature", "properties": {"Name":"Matoaca CDP","State":"Virginia","State_Abbrev":"VA"},
"geometry":{ "type": "Point", "coordinates": [-77.467494,37.23232]}},
{ "type": "Feature", "properties": {"Name":"Maurertown CDP","State":"Virginia","State_Abbrev":"VA"},
"geometry":{ "type": "Point", "coordinates": [-78.464332,38.93175]}},
{ "type": "Feature", "properties": {"Name":"Max Meadows CDP","State":"Virginia","State_Abbrev":"VA"},
"geometry":{ "type": "Point", "coordinates": [-80.961796,36.978941]}},
{ "type": "Feature", "properties": {"Name":"Meadowbrook CDP","State":"Virginia","State_Abbrev":"VA"},
"geometry":{ "type": "Point", "coordinates": [-77.474494,37.430467]}},
{ "type": "Feature", "properties": {"Name":"Meadows of Dan CDP","State":"Virginia","State_Abbrev":"VA"},
"geometry":{ "type": "Point", "coordinates": [-80.397378,36.73863]}},
{ "type": "Feature", "properties": {"Name":"Meadowview CDP","State":"Virginia","State_Abbrev":"VA"},
"geometry":{ "type": "Point", "coordinates": [-81.88354,36.763746]}},
{ "type": "Feature", "properties": {"Name":"Mechanicsburg CDP","State":"Virginia","State_Abbrev":"VA"},
"geometry":{ "type": "Point", "coordinates": [-80.941822,37.153269]}},
{ "type": "Feature", "properties": {"Name":"Mechanicsville CDP","State":"Virginia","State_Abbrev":"VA"},
"geometry":{ "type": "Point", "coordinates": [-77.354756,37.629896]}},
{ "type": "Feature", "properties": {"Name":"Melfa town","State":"Virginia","State_Abbrev":"VA"},
"geometry":{ "type": "Point", "coordinates": [-75.740743,37.648968]}},
{ "type": "Feature", "properties": {"Name":"Mendota CDP","State":"Virginia","State_Abbrev":"VA"},
"geometry":{ "type": "Point", "coordinates": [-82.305688,36.711121]}},
{ "type": "Feature", "properties": {"Name":"Merrifield CDP","State":"Virginia","State_Abbrev":"VA"},
"geometry":{ "type": "Point", "coordinates": [-77.239668,38.871977]}},
{ "type": "Feature", "properties": {"Name":"Merrimac CDP","State":"Virginia","State_Abbrev":"VA"},
"geometry":{ "type": "Point", "coordinates": [-80.422011,37.194866]}},
{ "type": "Feature", "properties": {"Name":"Metompkin CDP","State":"Virginia","State_Abbrev":"VA"},
"geometry":{ "type": "Point", "coordinates": [-75.605423,37.767122]}},
{ "type": "Feature", "properties": {"Name":"Middlebrook CDP","State":"Virginia","State_Abbrev":"VA"},
"geometry":{ "type": "Point", "coordinates": [-79.233985,38.06688]}},
{ "type": "Feature", "properties": {"Name":"Middleburg town","State":"Virginia","State_Abbrev":"VA"},
"geometry":{ "type": "Point", "coordinates": [-77.740642,38.970347]}},
{ "type": "Feature", "properties": {"Name":"Middletown town","State":"Virginia","State_Abbrev":"VA"},
"geometry":{ "type": "Point", "coordinates": [-78.27778,39.029093]}},
{ "type": "Feature", "properties": {"Name":"Midland CDP","State":"Virginia","State_Abbrev":"VA"},
"geometry":{ "type": "Point", "coordinates": [-77.718967,38.598482]}},
{ "type": "Feature", "properties": {"Name":"Midlothian CDP","State":"Virginia","State_Abbrev":"VA"},
"geometry":{ "type": "Point", "coordinates": [-77.649577,37.484382]}},
{ "type": "Feature", "properties": {"Name":"Millboro CDP","State":"Virginia","State_Abbrev":"VA"},
"geometry":{ "type": "Point", "coordinates": [-79.602209,37.978509]}},
{ "type": "Feature", "properties": {"Name":"Mineral town","State":"Virginia","State_Abbrev":"VA"},
"geometry":{ "type": "Point", "coordinates": [-77.906236,38.007584]}},
{ "type": "Feature", "properties": {"Name":"Modest Town CDP","State":"Virginia","State_Abbrev":"VA"},
"geometry":{ "type": "Point", "coordinates": [-75.56109,37.81685]}},
{ "type": "Feature", "properties": {"Name":"Moneta CDP","State":"Virginia","State_Abbrev":"VA"},
"geometry":{ "type": "Point", "coordinates": [-79.613363,37.188235]}},
{ "type": "Feature", "properties": {"Name":"Montclair CDP","State":"Virginia","State_Abbrev":"VA"},
"geometry":{ "type": "Point", "coordinates": [-77.341607,38.6138]}},
{ "type": "Feature", "properties": {"Name":"Monterey town","State":"Virginia","State_Abbrev":"VA"},
"geometry":{ "type": "Point", "coordinates": [-79.580883,38.411559]}},
{ "type": "Feature", "properties": {"Name":"Montrose CDP","State":"Virginia","State_Abbrev":"VA"},
"geometry":{ "type": "Point", "coordinates": [-77.374851,37.521263]}},
{ "type": "Feature", "properties": {"Name":"Montross town","State":"Virginia","State_Abbrev":"VA"},
"geometry":{ "type": "Point", "coordinates": [-76.815885,38.092416]}},
{ "type": "Feature", "properties": {"Name":"Montvale CDP","State":"Virginia","State_Abbrev":"VA"},
"geometry":{ "type": "Point", "coordinates": [-79.725502,37.385171]}},
{ "type": "Feature", "properties": {"Name":"Moorefield CDP","State":"Virginia","State_Abbrev":"VA"},
"geometry":{ "type": "Point", "coordinates": [-77.492742,38.998274]}},
{ "type": "Feature", "properties": {"Name":"Motley CDP","State":"Virginia","State_Abbrev":"VA"},
"geometry":{ "type": "Point", "coordinates": [-79.349973,37.065822]}},
{ "type": "Feature", "properties": {"Name":"Mountain Road CDP","State":"Virginia","State_Abbrev":"VA"},
"geometry":{ "type": "Point", "coordinates": [-78.988343,36.751561]}},
{ "type": "Feature", "properties": {"Name":"Mount Clifton CDP","State":"Virginia","State_Abbrev":"VA"},
"geometry":{ "type": "Point", "coordinates": [-78.721535,38.760902]}},
{ "type": "Feature", "properties": {"Name":"Mount Crawford town","State":"Virginia","State_Abbrev":"VA"},
"geometry":{ "type": "Point", "coordinates": [-78.941035,38.360875]}},
{ "type": "Feature", "properties": {"Name":"Mount Hermon CDP","State":"Virginia","State_Abbrev":"VA"},
"geometry":{ "type": "Point", "coordinates": [-79.422182,36.668749]}},
{ "type": "Feature", "properties": {"Name":"Mount Jackson town","State":"Virginia","State_Abbrev":"VA"},
"geometry":{ "type": "Point", "coordinates": [-78.650918,38.738878]}},
{ "type": "Feature", "properties": {"Name":"Mount Sidney CDP","State":"Virginia","State_Abbrev":"VA"},
"geometry":{ "type": "Point", "coordinates": [-78.971323,38.254993]}},
{ "type": "Feature", "properties": {"Name":"Mount Vernon CDP","State":"Virginia","State_Abbrev":"VA"},
"geometry":{ "type": "Point", "coordinates": [-77.105219,38.713363]}},
{ "type": "Feature", "properties": {"Name":"Narrows town","State":"Virginia","State_Abbrev":"VA"},
"geometry":{ "type": "Point", "coordinates": [-80.809262,37.331314]}},
{ "type": "Feature", "properties": {"Name":"Nassawadox town","State":"Virginia","State_Abbrev":"VA"},
"geometry":{ "type": "Point", "coordinates": [-75.859176,37.476294]}},
{ "type": "Feature", "properties": {"Name":"Nathalie CDP","State":"Virginia","State_Abbrev":"VA"},
"geometry":{ "type": "Point", "coordinates": [-78.933256,36.947736]}},
{ "type": "Feature", "properties": {"Name":"Navy CDP","State":"Virginia","State_Abbrev":"VA"},
"geometry":{ "type": "Point", "coordinates": [-77.3909,38.889159]}},
{ "type": "Feature", "properties": {"Name":"Nellysford CDP","State":"Virginia","State_Abbrev":"VA"},
"geometry":{ "type": "Point", "coordinates": [-78.893525,37.923529]}},
{ "type": "Feature", "properties": {"Name":"Nelsonia CDP","State":"Virginia","State_Abbrev":"VA"},
"geometry":{ "type": "Point", "coordinates": [-75.589492,37.822459]}},
{ "type": "Feature", "properties": {"Name":"New Baltimore CDP","State":"Virginia","State_Abbrev":"VA"},
"geometry":{ "type": "Point", "coordinates": [-77.716933,38.74195]}},
{ "type": "Feature", "properties": {"Name":"New Castle town","State":"Virginia","State_Abbrev":"VA"},
"geometry":{ "type": "Point", "coordinates": [-80.111017,37.500992]}},
{ "type": "Feature", "properties": {"Name":"New Church CDP","State":"Virginia","State_Abbrev":"VA"},
"geometry":{ "type": "Point", "coordinates": [-75.529065,37.983247]}},
{ "type": "Feature", "properties": {"Name":"New Hope CDP","State":"Virginia","State_Abbrev":"VA"},
"geometry":{ "type": "Point", "coordinates": [-78.894727,38.192528]}},
{ "type": "Feature", "properties": {"Name":"Newington CDP","State":"Virginia","State_Abbrev":"VA"},
"geometry":{ "type": "Point", "coordinates": [-77.19787,38.734112]}},
{ "type": "Feature", "properties": {"Name":"Newington Forest CDP","State":"Virginia","State_Abbrev":"VA"},
"geometry":{ "type": "Point", "coordinates": [-77.23522,38.738024]}},
{ "type": "Feature", "properties": {"Name":"New Kent CDP","State":"Virginia","State_Abbrev":"VA"},
"geometry":{ "type": "Point", "coordinates": [-76.986249,37.509481]}},
{ "type": "Feature", "properties": {"Name":"New Market town","State":"Virginia","State_Abbrev":"VA"},
"geometry":{ "type": "Point", "coordinates": [-78.671066,38.645218]}},
{ "type": "Feature", "properties": {"Name":"Newport News city","State":"Virginia","State_Abbrev":"VA"},
"geometry":{ "type": "Point", "coordinates": [-76.52198,37.076136]}},
{ "type": "Feature", "properties": {"Name":"New River CDP","State":"Virginia","State_Abbrev":"VA"},
"geometry":{ "type": "Point", "coordinates": [-80.595817,37.142945]}},
{ "type": "Feature", "properties": {"Name":"Newsoms town","State":"Virginia","State_Abbrev":"VA"},
"geometry":{ "type": "Point", "coordinates": [-77.124837,36.626208]}},
{ "type": "Feature", "properties": {"Name":"Nickelsville town","State":"Virginia","State_Abbrev":"VA"},
"geometry":{ "type": "Point", "coordinates": [-82.417187,36.748813]}},
{ "type": "Feature", "properties": {"Name":"Nokesville CDP","State":"Virginia","State_Abbrev":"VA"},
"geometry":{ "type": "Point", "coordinates": [-77.576441,38.692987]}},
{ "type": "Feature", "properties": {"Name":"Norfolk city","State":"Virginia","State_Abbrev":"VA"},
"geometry":{ "type": "Point", "coordinates": [-76.244641,36.923015]}},
{ "type": "Feature", "properties": {"Name":"North Garden CDP","State":"Virginia","State_Abbrev":"VA"},
"geometry":{ "type": "Point", "coordinates": [-78.631109,37.962708]}},
{ "type": "Feature", "properties": {"Name":"North Shore CDP","State":"Virginia","State_Abbrev":"VA"},
"geometry":{ "type": "Point", "coordinates": [-79.648409,37.083143]}},
{ "type": "Feature", "properties": {"Name":"North Springfield CDP","State":"Virginia","State_Abbrev":"VA"},
"geometry":{ "type": "Point", "coordinates": [-77.201073,38.80285]}},
{ "type": "Feature", "properties": {"Name":"Norton city","State":"Virginia","State_Abbrev":"VA"},
"geometry":{ "type": "Point", "coordinates": [-82.625996,36.931549]}},
{ "type": "Feature", "properties": {"Name":"Nottoway Court House CDP","State":"Virginia","State_Abbrev":"VA"},
"geometry":{ "type": "Point", "coordinates": [-78.071119,37.127148]}},
{ "type": "Feature", "properties": {"Name":"Oak Grove CDP","State":"Virginia","State_Abbrev":"VA"},
"geometry":{ "type": "Point", "coordinates": [-77.41549,38.983354]}},
{ "type": "Feature", "properties": {"Name":"Oak Hall CDP","State":"Virginia","State_Abbrev":"VA"},
"geometry":{ "type": "Point", "coordinates": [-75.54691,37.930782]}},
{ "type": "Feature", "properties": {"Name":"Oak Level CDP","State":"Virginia","State_Abbrev":"VA"},
"geometry":{ "type": "Point", "coordinates": [-79.94143,36.794846]}},
{ "type": "Feature", "properties": {"Name":"Oakton CDP","State":"Virginia","State_Abbrev":"VA"},
"geometry":{ "type": "Point", "coordinates": [-77.302226,38.889444]}},
{ "type": "Feature", "properties": {"Name":"Occoquan town","State":"Virginia","State_Abbrev":"VA"},
"geometry":{ "type": "Point", "coordinates": [-77.261861,38.681729]}},
{ "type": "Feature", "properties": {"Name":"Onancock town","State":"Virginia","State_Abbrev":"VA"},
"geometry":{ "type": "Point", "coordinates": [-75.74367,37.709993]}},
{ "type": "Feature", "properties": {"Name":"One Loudoun CDP","State":"Virginia","State_Abbrev":"VA"},
"geometry":{ "type": "Point", "coordinates": [-77.454839,39.050396]}},
{ "type": "Feature", "properties": {"Name":"Onley town","State":"Virginia","State_Abbrev":"VA"},
"geometry":{ "type": "Point", "coordinates": [-75.717141,37.691325]}},
{ "type": "Feature", "properties": {"Name":"Opal CDP","State":"Virginia","State_Abbrev":"VA"},
"geometry":{ "type": "Point", "coordinates": [-77.8098,38.615731]}},
{ "type": "Feature", "properties": {"Name":"Orange town","State":"Virginia","State_Abbrev":"VA"},
"geometry":{ "type": "Point", "coordinates": [-78.113187,38.247845]}},
{ "type": "Feature", "properties": {"Name":"Osaka CDP","State":"Virginia","State_Abbrev":"VA"},
"geometry":{ "type": "Point", "coordinates": [-82.814429,36.951465]}},
{ "type": "Feature", "properties": {"Name":"Painter town","State":"Virginia","State_Abbrev":"VA"},
"geometry":{ "type": "Point", "coordinates": [-75.783759,37.585184]}},
{ "type": "Feature", "properties": {"Name":"Palmyra CDP","State":"Virginia","State_Abbrev":"VA"},
"geometry":{ "type": "Point", "coordinates": [-78.257592,37.866371]}},
{ "type": "Feature", "properties": {"Name":"Pamplin City town","State":"Virginia","State_Abbrev":"VA"},
"geometry":{ "type": "Point", "coordinates": [-78.683736,37.266276]}},
{ "type": "Feature", "properties": {"Name":"Pantops CDP","State":"Virginia","State_Abbrev":"VA"},
"geometry":{ "type": "Point", "coordinates": [-78.444804,38.032595]}},
{ "type": "Feature", "properties": {"Name":"Paris CDP","State":"Virginia","State_Abbrev":"VA"},
"geometry":{ "type": "Point", "coordinates": [-77.950097,39.001281]}},
{ "type": "Feature", "properties": {"Name":"Parksley town","State":"Virginia","State_Abbrev":"VA"},
"geometry":{ "type": "Point", "coordinates": [-75.653904,37.786303]}},
{ "type": "Feature", "properties": {"Name":"Parrott CDP","State":"Virginia","State_Abbrev":"VA"},
"geometry":{ "type": "Point", "coordinates": [-80.631778,37.214092]}},
{ "type": "Feature", "properties": {"Name":"Passapatanzy CDP","State":"Virginia","State_Abbrev":"VA"},
"geometry":{ "type": "Point", "coordinates": [-77.332207,38.294631]}},
{ "type": "Feature", "properties": {"Name":"Pastoria CDP","State":"Virginia","State_Abbrev":"VA"},
"geometry":{ "type": "Point", "coordinates": [-75.635769,37.744993]}},
{ "type": "Feature", "properties": {"Name":"Patrick Springs CDP","State":"Virginia","State_Abbrev":"VA"},
"geometry":{ "type": "Point", "coordinates": [-80.198515,36.634348]}},
{ "type": "Feature", "properties": {"Name":"Pearisburg town","State":"Virginia","State_Abbrev":"VA"},
"geometry":{ "type": "Point", "coordinates": [-80.727293,37.328683]}},
{ "type": "Feature", "properties": {"Name":"Pembroke town","State":"Virginia","State_Abbrev":"VA"},
"geometry":{ "type": "Point", "coordinates": [-80.636501,37.321876]}},
{ "type": "Feature", "properties": {"Name":"Penhook CDP","State":"Virginia","State_Abbrev":"VA"},
"geometry":{ "type": "Point", "coordinates": [-79.637553,36.992451]}},
{ "type": "Feature", "properties": {"Name":"Pennington Gap town","State":"Virginia","State_Abbrev":"VA"},
"geometry":{ "type": "Point", "coordinates": [-83.035295,36.757624]}},
{ "type": "Feature", "properties": {"Name":"Petersburg city","State":"Virginia","State_Abbrev":"VA"},
"geometry":{ "type": "Point", "coordinates": [-77.392368,37.20473]}},
{ "type": "Feature", "properties": {"Name":"Phenix town","State":"Virginia","State_Abbrev":"VA"},
"geometry":{ "type": "Point", "coordinates": [-78.7485,37.081059]}},
{ "type": "Feature", "properties": {"Name":"Pimmit Hills CDP","State":"Virginia","State_Abbrev":"VA"},
"geometry":{ "type": "Point", "coordinates": [-77.199144,38.910532]}},
{ "type": "Feature", "properties": {"Name":"Piney Mountain CDP","State":"Virginia","State_Abbrev":"VA"},
"geometry":{ "type": "Point", "coordinates": [-78.411071,38.162134]}},
{ "type": "Feature", "properties": {"Name":"Plum Creek CDP","State":"Virginia","State_Abbrev":"VA"},
"geometry":{ "type": "Point", "coordinates": [-80.503368,37.127093]}},
{ "type": "Feature", "properties": {"Name":"Pocahontas town","State":"Virginia","State_Abbrev":"VA"},
"geometry":{ "type": "Point", "coordinates": [-81.34581,37.309745]}},
{ "type": "Feature", "properties": {"Name":"Poquoson city","State":"Virginia","State_Abbrev":"VA"},
"geometry":{ "type": "Point", "coordinates": [-76.303534,37.12836]}},
{ "type": "Feature", "properties": {"Name":"Port Republic CDP","State":"Virginia","State_Abbrev":"VA"},
"geometry":{ "type": "Point", "coordinates": [-78.81323,38.283113]}},
{ "type": "Feature", "properties": {"Name":"Port Royal town","State":"Virginia","State_Abbrev":"VA"},
"geometry":{ "type": "Point", "coordinates": [-77.199264,38.164886]}},
{ "type": "Feature", "properties": {"Name":"Portsmouth city","State":"Virginia","State_Abbrev":"VA"},
"geometry":{ "type": "Point", "coordinates": [-76.356973,36.859339]}},
{ "type": "Feature", "properties": {"Name":"Potomac Mills CDP","State":"Virginia","State_Abbrev":"VA"},
"geometry":{ "type": "Point", "coordinates": [-77.29883,38.656539]}},
{ "type": "Feature", "properties": {"Name":"Pound town","State":"Virginia","State_Abbrev":"VA"},
"geometry":{ "type": "Point", "coordinates": [-82.60734,37.126086]}},
{ "type": "Feature", "properties": {"Name":"Pounding Mill CDP","State":"Virginia","State_Abbrev":"VA"},
"geometry":{ "type": "Point", "coordinates": [-81.712189,37.07863]}},
{ "type": "Feature", "properties": {"Name":"Powhatan CDP","State":"Virginia","State_Abbrev":"VA"},
"geometry":{ "type": "Point", "coordinates": [-77.927083,37.542121]}},
{ "type": "Feature", "properties": {"Name":"Prices Fork CDP","State":"Virginia","State_Abbrev":"VA"},
"geometry":{ "type": "Point", "coordinates": [-80.488108,37.206332]}},
{ "type": "Feature", "properties": {"Name":"Prince George CDP","State":"Virginia","State_Abbrev":"VA"},
"geometry":{ "type": "Point", "coordinates": [-77.268299,37.220869]}},
{ "type": "Feature", "properties": {"Name":"Pulaski town","State":"Virginia","State_Abbrev":"VA"},
"geometry":{ "type": "Point", "coordinates": [-80.761919,37.05277]}},
{ "type": "Feature", "properties": {"Name":"Pungoteague CDP","State":"Virginia","State_Abbrev":"VA"},
"geometry":{ "type": "Point", "coordinates": [-75.816544,37.628567]}},
{ "type": "Feature", "properties": {"Name":"Purcellville town","State":"Virginia","State_Abbrev":"VA"},
"geometry":{ "type": "Point", "coordinates": [-77.711393,39.137498]}},
{ "type": "Feature", "properties": {"Name":"Quantico town","State":"Virginia","State_Abbrev":"VA"},
"geometry":{ "type": "Point", "coordinates": [-77.290146,38.522437]}},
{ "type": "Feature", "properties": {"Name":"Quantico Base CDP","State":"Virginia","State_Abbrev":"VA"},
"geometry":{ "type": "Point", "coordinates": [-77.318262,38.522804]}},
{ "type": "Feature", "properties": {"Name":"Quinby CDP","State":"Virginia","State_Abbrev":"VA"},
"geometry":{ "type": "Point", "coordinates": [-75.736773,37.553288]}},
{ "type": "Feature", "properties": {"Name":"Radford city","State":"Virginia","State_Abbrev":"VA"},
"geometry":{ "type": "Point", "coordinates": [-80.559147,37.120119]}},
{ "type": "Feature", "properties": {"Name":"Raven CDP","State":"Virginia","State_Abbrev":"VA"},
"geometry":{ "type": "Point", "coordinates": [-81.859473,37.093489]}},
{ "type": "Feature", "properties": {"Name":"Ravensworth CDP","State":"Virginia","State_Abbrev":"VA"},
"geometry":{ "type": "Point", "coordinates": [-77.222587,38.803156]}},
{ "type": "Feature", "properties": {"Name":"Rectortown CDP","State":"Virginia","State_Abbrev":"VA"},
"geometry":{ "type": "Point", "coordinates": [-77.856942,38.921119]}},
{ "type": "Feature", "properties": {"Name":"Remington town","State":"Virginia","State_Abbrev":"VA"},
"geometry":{ "type": "Point", "coordinates": [-77.808204,38.534637]}},
{ "type": "Feature", "properties": {"Name":"Reston CDP","State":"Virginia","State_Abbrev":"VA"},
"geometry":{ "type": "Point", "coordinates": [-77.346244,38.949762]}},
{ "type": "Feature", "properties": {"Name":"Rich Creek town","State":"Virginia","State_Abbrev":"VA"},
"geometry":{ "type": "Point", "coordinates": [-80.818813,37.384617]}},
{ "type": "Feature", "properties": {"Name":"Richlands town","State":"Virginia","State_Abbrev":"VA"},
"geometry":{ "type": "Point", "coordinates": [-81.810416,37.088022]}},
{ "type": "Feature", "properties": {"Name":"Richmond city","State":"Virginia","State_Abbrev":"VA"},
"geometry":{ "type": "Point", "coordinates": [-77.476009,37.531399]}},
{ "type": "Feature", "properties": {"Name":"Ridgeway town","State":"Virginia","State_Abbrev":"VA"},
"geometry":{ "type": "Point", "coordinates": [-79.85829,36.578174]}},
{ "type": "Feature", "properties": {"Name":"Riner CDP","State":"Virginia","State_Abbrev":"VA"},
"geometry":{ "type": "Point", "coordinates": [-80.440573,37.067043]}},
{ "type": "Feature", "properties": {"Name":"Rio CDP","State":"Virginia","State_Abbrev":"VA"},
"geometry":{ "type": "Point", "coordinates": [-78.473191,38.080488]}},
{ "type": "Feature", "properties": {"Name":"Ripplemead CDP","State":"Virginia","State_Abbrev":"VA"},
"geometry":{ "type": "Point", "coordinates": [-80.692975,37.33939]}},
{ "type": "Feature", "properties": {"Name":"Rivanna CDP","State":"Virginia","State_Abbrev":"VA"},
"geometry":{ "type": "Point", "coordinates": [-78.37884,37.995279]}},
{ "type": "Feature", "properties": {"Name":"Riverdale CDP","State":"Virginia","State_Abbrev":"VA"},
"geometry":{ "type": "Point", "coordinates": [-78.894011,36.674848]}},
{ "type": "Feature", "properties": {"Name":"Riverview CDP","State":"Virginia","State_Abbrev":"VA"},
"geometry":{ "type": "Point", "coordinates": [-82.484189,36.931192]}},
{ "type": "Feature", "properties": {"Name":"Roanoke city","State":"Virginia","State_Abbrev":"VA"},
"geometry":{ "type": "Point", "coordinates": [-79.958174,37.278458]}},
{ "type": "Feature", "properties": {"Name":"Rockwood CDP","State":"Virginia","State_Abbrev":"VA"},
"geometry":{ "type": "Point", "coordinates": [-77.574427,37.462959]}},
{ "type": "Feature", "properties": {"Name":"Rocky Gap CDP","State":"Virginia","State_Abbrev":"VA"},
"geometry":{ "type": "Point", "coordinates": [-81.107476,37.240994]}},
{ "type": "Feature", "properties": {"Name":"Rocky Mount town","State":"Virginia","State_Abbrev":"VA"},
"geometry":{ "type": "Point", "coordinates": [-79.884762,37.004398]}},
{ "type": "Feature", "properties": {"Name":"Rose Hill CDP","State":"Virginia","State_Abbrev":"VA"},
"geometry":{ "type": "Point", "coordinates": [-77.108827,38.786916]}},
{ "type": "Feature", "properties": {"Name":"Rose Hill CDP","State":"Virginia","State_Abbrev":"VA"},
"geometry":{ "type": "Point", "coordinates": [-83.373733,36.664156]}},
{ "type": "Feature", "properties": {"Name":"Round Hill town","State":"Virginia","State_Abbrev":"VA"},
"geometry":{ "type": "Point", "coordinates": [-77.7672,39.131505]}},
{ "type": "Feature", "properties": {"Name":"Ruckersville CDP","State":"Virginia","State_Abbrev":"VA"},
"geometry":{ "type": "Point", "coordinates": [-78.377478,38.228054]}},
{ "type": "Feature", "properties": {"Name":"Rural Retreat town","State":"Virginia","State_Abbrev":"VA"},
"geometry":{ "type": "Point", "coordinates": [-81.27725,36.905132]}},
{ "type": "Feature", "properties": {"Name":"Rushmere CDP","State":"Virginia","State_Abbrev":"VA"},
"geometry":{ "type": "Point", "coordinates": [-76.670817,37.071443]}},
{ "type": "Feature", "properties": {"Name":"Rustburg CDP","State":"Virginia","State_Abbrev":"VA"},
"geometry":{ "type": "Point", "coordinates": [-79.100105,37.272189]}},
{ "type": "Feature", "properties": {"Name":"St. Charles town","State":"Virginia","State_Abbrev":"VA"},
"geometry":{ "type": "Point", "coordinates": [-83.057415,36.805134]}},
{ "type": "Feature", "properties": {"Name":"St. Paul town","State":"Virginia","State_Abbrev":"VA"},
"geometry":{ "type": "Point", "coordinates": [-82.317017,36.906709]}},
{ "type": "Feature", "properties": {"Name":"Salem city","State":"Virginia","State_Abbrev":"VA"},
"geometry":{ "type": "Point", "coordinates": [-80.055241,37.285333]}},
{ "type": "Feature", "properties": {"Name":"Saltville town","State":"Virginia","State_Abbrev":"VA"},
"geometry":{ "type": "Point", "coordinates": [-81.762909,36.875915]}},
{ "type": "Feature", "properties": {"Name":"Saluda CDP","State":"Virginia","State_Abbrev":"VA"},
"geometry":{ "type": "Point", "coordinates": [-76.593798,37.605274]}},
{ "type": "Feature", "properties": {"Name":"Sandston CDP","State":"Virginia","State_Abbrev":"VA"},
"geometry":{ "type": "Point", "coordinates": [-77.313008,37.513062]}},
{ "type": "Feature", "properties": {"Name":"Sandy Level CDP","State":"Virginia","State_Abbrev":"VA"},
"geometry":{ "type": "Point", "coordinates": [-79.728073,36.573814]}},
{ "type": "Feature", "properties": {"Name":"Sanford CDP","State":"Virginia","State_Abbrev":"VA"},
"geometry":{ "type": "Point", "coordinates": [-75.668663,37.933172]}},
{ "type": "Feature", "properties": {"Name":"Savage Town CDP","State":"Virginia","State_Abbrev":"VA"},
"geometry":{ "type": "Point", "coordinates": [-75.798276,37.550063]}},
{ "type": "Feature", "properties": {"Name":"Savageville CDP","State":"Virginia","State_Abbrev":"VA"},
"geometry":{ "type": "Point", "coordinates": [-75.759175,37.682522]}},
{ "type": "Feature", "properties": {"Name":"Saxis town","State":"Virginia","State_Abbrev":"VA"},
"geometry":{ "type": "Point", "coordinates": [-75.723589,37.926164]}},
{ "type": "Feature", "properties": {"Name":"Schooner Bay CDP","State":"Virginia","State_Abbrev":"VA"},
"geometry":{ "type": "Point", "coordinates": [-75.768647,37.763661]}},
{ "type": "Feature", "properties": {"Name":"Schuyler CDP","State":"Virginia","State_Abbrev":"VA"},
"geometry":{ "type": "Point", "coordinates": [-78.697607,37.795463]}},
{ "type": "Feature", "properties": {"Name":"Scotland CDP","State":"Virginia","State_Abbrev":"VA"},
"geometry":{ "type": "Point", "coordinates": [-76.796501,37.181078]}},
{ "type": "Feature", "properties": {"Name":"Scottsburg town","State":"Virginia","State_Abbrev":"VA"},
"geometry":{ "type": "Point", "coordinates": [-78.791174,36.759192]}},
{ "type": "Feature", "properties": {"Name":"Scottsville town","State":"Virginia","State_Abbrev":"VA"},
"geometry":{ "type": "Point", "coordinates": [-78.488168,37.811346]}},
{ "type": "Feature", "properties": {"Name":"Sedley CDP","State":"Virginia","State_Abbrev":"VA"},
"geometry":{ "type": "Point", "coordinates": [-76.989939,36.776931]}},
{ "type": "Feature", "properties": {"Name":"Selma CDP","State":"Virginia","State_Abbrev":"VA"},
"geometry":{ "type": "Point", "coordinates": [-79.849877,37.80412]}},
{ "type": "Feature", "properties": {"Name":"Seven Corners CDP","State":"Virginia","State_Abbrev":"VA"},
"geometry":{ "type": "Point", "coordinates": [-77.144814,38.865522]}},
{ "type": "Feature", "properties": {"Name":"Seven Mile Ford CDP","State":"Virginia","State_Abbrev":"VA"},
"geometry":{ "type": "Point", "coordinates": [-81.632203,36.815556]}},
{ "type": "Feature", "properties": {"Name":"Shawneeland CDP","State":"Virginia","State_Abbrev":"VA"},
"geometry":{ "type": "Point", "coordinates": [-78.345823,39.195895]}},
{ "type": "Feature", "properties": {"Name":"Shawsville CDP","State":"Virginia","State_Abbrev":"VA"},
"geometry":{ "type": "Point", "coordinates": [-80.254418,37.17037]}},
{ "type": "Feature", "properties": {"Name":"Shenandoah town","State":"Virginia","State_Abbrev":"VA"},
"geometry":{ "type": "Point", "coordinates": [-78.616451,38.487131]}},
{ "type": "Feature", "properties": {"Name":"Shenandoah Farms CDP","State":"Virginia","State_Abbrev":"VA"},
"geometry":{ "type": "Point", "coordinates": [-78.047559,38.97534]}},
{ "type": "Feature", "properties": {"Name":"Shenandoah Retreat CDP","State":"Virginia","State_Abbrev":"VA"},
"geometry":{ "type": "Point", "coordinates": [-77.862643,39.139346]}},
{ "type": "Feature", "properties": {"Name":"Shenandoah Shores CDP","State":"Virginia","State_Abbrev":"VA"},
"geometry":{ "type": "Point", "coordinates": [-78.14016,38.962187]}},
{ "type": "Feature", "properties": {"Name":"Sherando CDP","State":"Virginia","State_Abbrev":"VA"},
"geometry":{ "type": "Point", "coordinates": [-78.942483,37.990092]}},
{ "type": "Feature", "properties": {"Name":"Shipman CDP","State":"Virginia","State_Abbrev":"VA"},
"geometry":{ "type": "Point", "coordinates": [-78.840949,37.730825]}},
{ "type": "Feature", "properties": {"Name":"Short Pump CDP","State":"Virginia","State_Abbrev":"VA"},
"geometry":{ "type": "Point", "coordinates": [-77.619965,37.656587]}},
{ "type": "Feature", "properties": {"Name":"Singers Glen CDP","State":"Virginia","State_Abbrev":"VA"},
"geometry":{ "type": "Point", "coordinates": [-78.914404,38.546544]}},
{ "type": "Feature", "properties": {"Name":"Skyland Estates CDP","State":"Virginia","State_Abbrev":"VA"},
"geometry":{ "type": "Point", "coordinates": [-78.086185,38.931819]}},
{ "type": "Feature", "properties": {"Name":"Smithfield town","State":"Virginia","State_Abbrev":"VA"},
"geometry":{ "type": "Point", "coordinates": [-76.614155,36.972412]}},
{ "type": "Feature", "properties": {"Name":"Snowville CDP","State":"Virginia","State_Abbrev":"VA"},
"geometry":{ "type": "Point", "coordinates": [-80.579402,37.021568]}},
{ "type": "Feature", "properties": {"Name":"Southampton Meadows CDP","State":"Virginia","State_Abbrev":"VA"},
"geometry":{ "type": "Point", "coordinates": [-76.929289,36.591619]}},
{ "type": "Feature", "properties": {"Name":"South Boston town","State":"Virginia","State_Abbrev":"VA"},
"geometry":{ "type": "Point", "coordinates": [-78.913354,36.711825]}},
{ "type": "Feature", "properties": {"Name":"Southern Gateway CDP","State":"Virginia","State_Abbrev":"VA"},
"geometry":{ "type": "Point", "coordinates": [-77.502884,38.344803]}},
{ "type": "Feature", "properties": {"Name":"South Hill town","State":"Virginia","State_Abbrev":"VA"},
"geometry":{ "type": "Point", "coordinates": [-78.128886,36.725662]}},
{ "type": "Feature", "properties": {"Name":"South Riding CDP","State":"Virginia","State_Abbrev":"VA"},
"geometry":{ "type": "Point", "coordinates": [-77.513282,38.911658]}},
{ "type": "Feature", "properties": {"Name":"South Run CDP","State":"Virginia","State_Abbrev":"VA"},
"geometry":{ "type": "Point", "coordinates": [-77.273197,38.748317]}},
{ "type": "Feature", "properties": {"Name":"Southside Chesconessex CDP","State":"Virginia","State_Abbrev":"VA"},
"geometry":{ "type": "Point", "coordinates": [-75.778684,37.743966]}},
{ "type": "Feature", "properties": {"Name":"Sperryville CDP","State":"Virginia","State_Abbrev":"VA"},
"geometry":{ "type": "Point", "coordinates": [-78.23608,38.655516]}},
{ "type": "Feature", "properties": {"Name":"Spotsylvania Courthouse CDP","State":"Virginia","State_Abbrev":"VA"},
"geometry":{ "type": "Point", "coordinates": [-77.589014,38.199387]}},
{ "type": "Feature", "properties": {"Name":"Springfield CDP","State":"Virginia","State_Abbrev":"VA"},
"geometry":{ "type": "Point", "coordinates": [-77.183921,38.781571]}},
{ "type": "Feature", "properties": {"Name":"Springville CDP","State":"Virginia","State_Abbrev":"VA"},
"geometry":{ "type": "Point", "coordinates": [-81.390192,37.187639]}},
{ "type": "Feature", "properties": {"Name":"Stafford Courthouse CDP","State":"Virginia","State_Abbrev":"VA"},
"geometry":{ "type": "Point", "coordinates": [-77.415702,38.414916]}},
{ "type": "Feature", "properties": {"Name":"Stanardsville town","State":"Virginia","State_Abbrev":"VA"},
"geometry":{ "type": "Point", "coordinates": [-78.436826,38.299056]}},
{ "type": "Feature", "properties": {"Name":"Stanley town","State":"Virginia","State_Abbrev":"VA"},
"geometry":{ "type": "Point", "coordinates": [-78.499404,38.58104]}},
{ "type": "Feature", "properties": {"Name":"Stanleytown CDP","State":"Virginia","State_Abbrev":"VA"},
"geometry":{ "type": "Point", "coordinates": [-79.952403,36.751455]}},
{ "type": "Feature", "properties": {"Name":"Staunton city","State":"Virginia","State_Abbrev":"VA"},
"geometry":{ "type": "Point", "coordinates": [-79.061876,38.157978]}},
{ "type": "Feature", "properties": {"Name":"Stephens City town","State":"Virginia","State_Abbrev":"VA"},
"geometry":{ "type": "Point", "coordinates": [-78.218325,39.09314]}},
{ "type": "Feature", "properties": {"Name":"Sterling CDP","State":"Virginia","State_Abbrev":"VA"},
"geometry":{ "type": "Point", "coordinates": [-77.405368,39.004733]}},
{ "type": "Feature", "properties": {"Name":"Stevens Creek CDP","State":"Virginia","State_Abbrev":"VA"},
"geometry":{ "type": "Point", "coordinates": [-80.994234,36.731495]}},
{ "type": "Feature", "properties": {"Name":"Stewartsville CDP","State":"Virginia","State_Abbrev":"VA"},
"geometry":{ "type": "Point", "coordinates": [-79.791667,37.260065]}},
{ "type": "Feature", "properties": {"Name":"Stickleyville CDP","State":"Virginia","State_Abbrev":"VA"},
"geometry":{ "type": "Point", "coordinates": [-82.912188,36.713329]}},
{ "type": "Feature", "properties": {"Name":"Stonega CDP","State":"Virginia","State_Abbrev":"VA"},
"geometry":{ "type": "Point", "coordinates": [-82.789929,36.952182]}},
{ "type": "Feature", "properties": {"Name":"Stone Ridge CDP","State":"Virginia","State_Abbrev":"VA"},
"geometry":{ "type": "Point", "coordinates": [-77.555494,38.925016]}},
{ "type": "Feature", "properties": {"Name":"Stony Creek town","State":"Virginia","State_Abbrev":"VA"},
"geometry":{ "type": "Point", "coordinates": [-77.400067,36.94801]}},
{ "type": "Feature", "properties": {"Name":"Strasburg town","State":"Virginia","State_Abbrev":"VA"},
"geometry":{ "type": "Point", "coordinates": [-78.349543,39.003391]}},
{ "type": "Feature", "properties": {"Name":"Stuart town","State":"Virginia","State_Abbrev":"VA"},
"geometry":{ "type": "Point", "coordinates": [-80.268642,36.640363]}},
{ "type": "Feature", "properties": {"Name":"Stuarts Draft CDP","State":"Virginia","State_Abbrev":"VA"},
"geometry":{ "type": "Point", "coordinates": [-79.034692,38.018834]}},
{ "type": "Feature", "properties": {"Name":"Sudley CDP","State":"Virginia","State_Abbrev":"VA"},
"geometry":{ "type": "Point", "coordinates": [-77.49901,38.786758]}},
{ "type": "Feature", "properties": {"Name":"Suffolk city","State":"Virginia","State_Abbrev":"VA"},
"geometry":{ "type": "Point", "coordinates": [-76.634781,36.697157]}},
{ "type": "Feature", "properties": {"Name":"Sugar Grove CDP","State":"Virginia","State_Abbrev":"VA"},
"geometry":{ "type": "Point", "coordinates": [-81.401245,36.760754]}},
{ "type": "Feature", "properties": {"Name":"Sugarland Run CDP","State":"Virginia","State_Abbrev":"VA"},
"geometry":{ "type": "Point", "coordinates": [-77.366631,39.032558]}},
{ "type": "Feature", "properties": {"Name":"Sully Square CDP","State":"Virginia","State_Abbrev":"VA"},
"geometry":{ "type": "Point", "coordinates": [-77.426361,38.921862]}},
{ "type": "Feature", "properties": {"Name":"Surry town","State":"Virginia","State_Abbrev":"VA"},
"geometry":{ "type": "Point", "coordinates": [-76.833275,37.137071]}},
{ "type": "Feature", "properties": {"Name":"Sussex CDP","State":"Virginia","State_Abbrev":"VA"},
"geometry":{ "type": "Point", "coordinates": [-77.271869,36.917359]}},
{ "type": "Feature", "properties": {"Name":"Tacoma CDP","State":"Virginia","State_Abbrev":"VA"},
"geometry":{ "type": "Point", "coordinates": [-82.5306,36.935202]}},
{ "type": "Feature", "properties": {"Name":"Tangier town","State":"Virginia","State_Abbrev":"VA"},
"geometry":{ "type": "Point", "coordinates": [-75.992811,37.823436]}},
{ "type": "Feature", "properties": {"Name":"Tappahannock town","State":"Virginia","State_Abbrev":"VA"},
"geometry":{ "type": "Point", "coordinates": [-76.866012,37.912387]}},
{ "type": "Feature", "properties": {"Name":"Tasley CDP","State":"Virginia","State_Abbrev":"VA"},
"geometry":{ "type": "Point", "coordinates": [-75.697033,37.71245]}},
{ "type": "Feature", "properties": {"Name":"Tazewell town","State":"Virginia","State_Abbrev":"VA"},
"geometry":{ "type": "Point", "coordinates": [-81.506555,37.128938]}},
{ "type": "Feature", "properties": {"Name":"Temperanceville CDP","State":"Virginia","State_Abbrev":"VA"},
"geometry":{ "type": "Point", "coordinates": [-75.557927,37.907283]}},
{ "type": "Feature", "properties": {"Name":"Templeton CDP","State":"Virginia","State_Abbrev":"VA"},
"geometry":{ "type": "Point", "coordinates": [-77.356322,37.081004]}},
{ "type": "Feature", "properties": {"Name":"The Plains town","State":"Virginia","State_Abbrev":"VA"},
"geometry":{ "type": "Point", "coordinates": [-77.774204,38.862177]}},
{ "type": "Feature", "properties": {"Name":"The University of Virginia's College at Wise CDP","State":"Virginia","State_Abbrev":"VA"},
"geometry":{ "type": "Point", "coordinates": [-82.557387,36.972439]}},
{ "type": "Feature", "properties": {"Name":"Thynedale CDP","State":"Virginia","State_Abbrev":"VA"},
"geometry":{ "type": "Point", "coordinates": [-78.477468,36.818218]}},
{ "type": "Feature", "properties": {"Name":"Timberlake CDP","State":"Virginia","State_Abbrev":"VA"},
"geometry":{ "type": "Point", "coordinates": [-79.246893,37.317163]}},
{ "type": "Feature", "properties": {"Name":"Timberville town","State":"Virginia","State_Abbrev":"VA"},
"geometry":{ "type": "Point", "coordinates": [-78.773717,38.63266]}},
{ "type": "Feature", "properties": {"Name":"Toms Brook town","State":"Virginia","State_Abbrev":"VA"},
"geometry":{ "type": "Point", "coordinates": [-78.440046,38.946542]}},
{ "type": "Feature", "properties": {"Name":"Triangle CDP","State":"Virginia","State_Abbrev":"VA"},
"geometry":{ "type": "Point", "coordinates": [-77.318494,38.547151]}},
{ "type": "Feature", "properties": {"Name":"Troutdale town","State":"Virginia","State_Abbrev":"VA"},
"geometry":{ "type": "Point", "coordinates": [-81.437545,36.696013]}},
{ "type": "Feature", "properties": {"Name":"Troutville town","State":"Virginia","State_Abbrev":"VA"},
"geometry":{ "type": "Point", "coordinates": [-79.878096,37.416654]}},
{ "type": "Feature", "properties": {"Name":"Tuckahoe CDP","State":"Virginia","State_Abbrev":"VA"},
"geometry":{ "type": "Point", "coordinates": [-77.588153,37.58728]}},
{ "type": "Feature", "properties": {"Name":"Twin Lakes CDP","State":"Virginia","State_Abbrev":"VA"},
"geometry":{ "type": "Point", "coordinates": [-78.442772,38.249804]}},
{ "type": "Feature", "properties": {"Name":"Tysons CDP","State":"Virginia","State_Abbrev":"VA"},
"geometry":{ "type": "Point", "coordinates": [-77.227621,38.921355]}},
{ "type": "Feature", "properties": {"Name":"Union Hall CDP","State":"Virginia","State_Abbrev":"VA"},
"geometry":{ "type": "Point", "coordinates": [-79.680782,37.02209]}},
{ "type": "Feature", "properties": {"Name":"Union Level CDP","State":"Virginia","State_Abbrev":"VA"},
"geometry":{ "type": "Point", "coordinates": [-78.231843,36.707114]}},
{ "type": "Feature", "properties": {"Name":"Union Mill CDP","State":"Virginia","State_Abbrev":"VA"},
"geometry":{ "type": "Point", "coordinates": [-77.387142,38.801332]}},
{ "type": "Feature", "properties": {"Name":"University Center CDP","State":"Virginia","State_Abbrev":"VA"},
"geometry":{ "type": "Point", "coordinates": [-77.445603,39.062418]}},
{ "type": "Feature", "properties": {"Name":"University of Virginia CDP","State":"Virginia","State_Abbrev":"VA"},
"geometry":{ "type": "Point", "coordinates": [-78.520482,38.034991]}},
{ "type": "Feature", "properties": {"Name":"Upperville CDP","State":"Virginia","State_Abbrev":"VA"},
"geometry":{ "type": "Point", "coordinates": [-77.881459,38.991734]}},
{ "type": "Feature", "properties": {"Name":"Urbanna town","State":"Virginia","State_Abbrev":"VA"},
"geometry":{ "type": "Point", "coordinates": [-76.575138,37.639887]}},
{ "type": "Feature", "properties": {"Name":"Vansant CDP","State":"Virginia","State_Abbrev":"VA"},
"geometry":{ "type": "Point", "coordinates": [-82.096274,37.235291]}},
{ "type": "Feature", "properties": {"Name":"Verona CDP","State":"Virginia","State_Abbrev":"VA"},
"geometry":{ "type": "Point", "coordinates": [-79.009469,38.194307]}},
{ "type": "Feature", "properties": {"Name":"Victoria town","State":"Virginia","State_Abbrev":"VA"},
"geometry":{ "type": "Point", "coordinates": [-78.224298,36.994444]}},
{ "type": "Feature", "properties": {"Name":"Vienna town","State":"Virginia","State_Abbrev":"VA"},
"geometry":{ "type": "Point", "coordinates": [-77.258323,38.898576]}},
{ "type": "Feature", "properties": {"Name":"Villa Heights CDP","State":"Virginia","State_Abbrev":"VA"},
"geometry":{ "type": "Point", "coordinates": [-79.894608,36.702171]}},
{ "type": "Feature", "properties": {"Name":"Vinton town","State":"Virginia","State_Abbrev":"VA"},
"geometry":{ "type": "Point", "coordinates": [-79.888194,37.274236]}},
{ "type": "Feature", "properties": {"Name":"Virgilina town","State":"Virginia","State_Abbrev":"VA"},
"geometry":{ "type": "Point", "coordinates": [-78.775213,36.545675]}},
{ "type": "Feature", "properties": {"Name":"Virginia Beach city","State":"Virginia","State_Abbrev":"VA"},
"geometry":{ "type": "Point", "coordinates": [-76.029142,36.779525]}},
{ "type": "Feature", "properties": {"Name":"Wachapreague town","State":"Virginia","State_Abbrev":"VA"},
"geometry":{ "type": "Point", "coordinates": [-75.689273,37.606415]}},
{ "type": "Feature", "properties": {"Name":"Wakefield CDP","State":"Virginia","State_Abbrev":"VA"},
"geometry":{ "type": "Point", "coordinates": [-77.242953,38.824691]}},
{ "type": "Feature", "properties": {"Name":"Wakefield town","State":"Virginia","State_Abbrev":"VA"},
"geometry":{ "type": "Point", "coordinates": [-76.988096,36.969126]}},
{ "type": "Feature", "properties": {"Name":"Warfield CDP","State":"Virginia","State_Abbrev":"VA"},
"geometry":{ "type": "Point", "coordinates": [-77.818997,36.895984]}},
{ "type": "Feature", "properties": {"Name":"Warm Springs CDP","State":"Virginia","State_Abbrev":"VA"},
"geometry":{ "type": "Point", "coordinates": [-79.778705,38.045035]}},
{ "type": "Feature", "properties": {"Name":"Warrenton town","State":"Virginia","State_Abbrev":"VA"},
"geometry":{ "type": "Point", "coordinates": [-77.797316,38.717817]}},
{ "type": "Feature", "properties": {"Name":"Warsaw town","State":"Virginia","State_Abbrev":"VA"},
"geometry":{ "type": "Point", "coordinates": [-76.76095,37.960351]}},
{ "type": "Feature", "properties": {"Name":"Washington town","State":"Virginia","State_Abbrev":"VA"},
"geometry":{ "type": "Point", "coordinates": [-78.159959,38.711733]}},
{ "type": "Feature", "properties": {"Name":"Waterford CDP","State":"Virginia","State_Abbrev":"VA"},
"geometry":{ "type": "Point", "coordinates": [-77.611896,39.185174]}},
{ "type": "Feature", "properties": {"Name":"Wattsville CDP","State":"Virginia","State_Abbrev":"VA"},
"geometry":{ "type": "Point", "coordinates": [-75.492534,37.929099]}},
{ "type": "Feature", "properties": {"Name":"Waverly town","State":"Virginia","State_Abbrev":"VA"},
"geometry":{ "type": "Point", "coordinates": [-77.095596,37.034024]}},
{ "type": "Feature", "properties": {"Name":"Waynesboro city","State":"Virginia","State_Abbrev":"VA"},
"geometry":{ "type": "Point", "coordinates": [-78.90142,38.067157]}},
{ "type": "Feature", "properties": {"Name":"Weber City town","State":"Virginia","State_Abbrev":"VA"},
"geometry":{ "type": "Point", "coordinates": [-82.563351,36.623721]}},
{ "type": "Feature", "properties": {"Name":"Weems CDP","State":"Virginia","State_Abbrev":"VA"},
"geometry":{ "type": "Point", "coordinates": [-76.454642,37.654708]}},
{ "type": "Feature", "properties": {"Name":"West Falls Church CDP","State":"Virginia","State_Abbrev":"VA"},
"geometry":{ "type": "Point", "coordinates": [-77.187699,38.865559]}},
{ "type": "Feature", "properties": {"Name":"Westlake Corner CDP","State":"Virginia","State_Abbrev":"VA"},
"geometry":{ "type": "Point", "coordinates": [-79.697888,37.118628]}},
{ "type": "Feature", "properties": {"Name":"West Point town","State":"Virginia","State_Abbrev":"VA"},
"geometry":{ "type": "Point", "coordinates": [-76.801848,37.552261]}},
{ "type": "Feature", "properties": {"Name":"West Springfield CDP","State":"Virginia","State_Abbrev":"VA"},
"geometry":{ "type": "Point", "coordinates": [-77.224652,38.775195]}},
{ "type": "Feature", "properties": {"Name":"Weyers Cave CDP","State":"Virginia","State_Abbrev":"VA"},
"geometry":{ "type": "Point", "coordinates": [-78.914162,38.28006]}},
{ "type": "Feature", "properties": {"Name":"White Stone town","State":"Virginia","State_Abbrev":"VA"},
"geometry":{ "type": "Point", "coordinates": [-76.389965,37.644737]}},
{ "type": "Feature", "properties": {"Name":"Whitesville CDP","State":"Virginia","State_Abbrev":"VA"},
"geometry":{ "type": "Point", "coordinates": [-75.66365,37.781571]}},
{ "type": "Feature", "properties": {"Name":"Williamsburg city","State":"Virginia","State_Abbrev":"VA"},
"geometry":{ "type": "Point", "coordinates": [-76.708193,37.269481]}},
{ "type": "Feature", "properties": {"Name":"Willis Wharf CDP","State":"Virginia","State_Abbrev":"VA"},
"geometry":{ "type": "Point", "coordinates": [-75.806853,37.517888]}},
{ "type": "Feature", "properties": {"Name":"Winchester city","State":"Virginia","State_Abbrev":"VA"},
"geometry":{ "type": "Point", "coordinates": [-78.176356,39.173869]}},
{ "type": "Feature", "properties": {"Name":"Windsor town","State":"Virginia","State_Abbrev":"VA"},
"geometry":{ "type": "Point", "coordinates": [-76.73841,36.81119]}},
{ "type": "Feature", "properties": {"Name":"Wintergreen CDP","State":"Virginia","State_Abbrev":"VA"},
"geometry":{ "type": "Point", "coordinates": [-78.928736,37.905894]}},
{ "type": "Feature", "properties": {"Name":"Wise town","State":"Virginia","State_Abbrev":"VA"},
"geometry":{ "type": "Point", "coordinates": [-82.581087,36.976869]}},
{ "type": "Feature", "properties": {"Name":"Wolf Trap CDP","State":"Virginia","State_Abbrev":"VA"},
"geometry":{ "type": "Point", "coordinates": [-77.282859,38.937348]}},
{ "type": "Feature", "properties": {"Name":"Woodbridge CDP","State":"Virginia","State_Abbrev":"VA"},
"geometry":{ "type": "Point", "coordinates": [-77.255093,38.640556]}},
{ "type": "Feature", "properties": {"Name":"Woodburn CDP","State":"Virginia","State_Abbrev":"VA"},
"geometry":{ "type": "Point", "coordinates": [-77.226507,38.849429]}},
{ "type": "Feature", "properties": {"Name":"Woodlake CDP","State":"Virginia","State_Abbrev":"VA"},
"geometry":{ "type": "Point", "coordinates": [-77.677218,37.42009]}},
{ "type": "Feature", "properties": {"Name":"Woodlawn CDP","State":"Virginia","State_Abbrev":"VA"},
"geometry":{ "type": "Point", "coordinates": [-80.809459,36.738767]}},
{ "type": "Feature", "properties": {"Name":"Woodlawn CDP","State":"Virginia","State_Abbrev":"VA"},
"geometry":{ "type": "Point", "coordinates": [-77.11517,38.732885]}},
{ "type": "Feature", "properties": {"Name":"Woodstock town","State":"Virginia","State_Abbrev":"VA"},
"geometry":{ "type": "Point", "coordinates": [-78.51713,38.872115]}},
{ "type": "Feature", "properties": {"Name":"Wyndham CDP","State":"Virginia","State_Abbrev":"VA"},
"geometry":{ "type": "Point", "coordinates": [-77.610726,37.692179]}},
{ "type": "Feature", "properties": {"Name":"Wytheville town","State":"Virginia","State_Abbrev":"VA"},
"geometry":{ "type": "Point", "coordinates": [-81.088438,36.953385]}},
{ "type": "Feature", "properties": {"Name":"Yogaville CDP","State":"Virginia","State_Abbrev":"VA"},
"geometry":{ "type": "Point", "coordinates": [-78.689286,37.667856]}},
{ "type": "Feature", "properties": {"Name":"Yorkshire CDP","State":"Virginia","State_Abbrev":"VA"},
"geometry":{ "type": "Point", "coordinates": [-77.449867,38.788994]}},
{ "type": "Feature", "properties": {"Name":"Yorktown CDP","State":"Virginia","State_Abbrev":"VA"},
"geometry":{ "type": "Point", "coordinates": [-76.518202,37.234015]}}]}
