{"type":"FeatureCollection","features":[
{ "type": "Feature", "properties": {"Aberdeen city":"Aberdeen Gardens CDP","Washington":"Washington","WA":"WA"},
"geometry":{ "type": "Point", "coordinates": [-123.777916,47.057318]}},
{ "type": "Feature", "properties": {"Aberdeen city":"Acme CDP","Washington":"Washington","WA":"WA"},
"geometry":{ "type": "Point", "coordinates": [-122.209962,48.716429]}},
{ "type": "Feature", "properties": {"Aberdeen city":"Addy CDP","Washington":"Washington","WA":"WA"},
"geometry":{ "type": "Point", "coordinates": [-117.837187,48.358908]}},
{ "type": "Feature", "properties": {"Aberdeen city":"Ahtanum CDP","Washington":"Washington","WA":"WA"},
"geometry":{ "type": "Point", "coordinates": [-120.613858,46.557222]}},
{ "type": "Feature", "properties": {"Aberdeen city":"Airway Heights city","Washington":"Washington","WA":"WA"},
"geometry":{ "type": "Point", "coordinates": [-117.579197,47.645943]}},
{ "type": "Feature", "properties": {"Aberdeen city":"Albion town","Washington":"Washington","WA":"WA"},
"geometry":{ "type": "Point", "coordinates": [-117.251227,46.7916]}},
{ "type": "Feature", "properties": {"Aberdeen city":"Alder CDP","Washington":"Washington","WA":"WA"},
"geometry":{ "type": "Point", "coordinates": [-122.2612,46.781985]}},
{ "type": "Feature", "properties": {"Aberdeen city":"Alderton CDP","Washington":"Washington","WA":"WA"},
"geometry":{ "type": "Point", "coordinates": [-122.222358,47.176252]}},
{ "type": "Feature", "properties": {"Aberdeen city":"Alderwood Manor CDP","Washington":"Washington","WA":"WA"},
"geometry":{ "type": "Point", "coordinates": [-122.267255,47.814603]}},
{ "type": "Feature", "properties": {"Aberdeen city":"Alger CDP","Washington":"Washington","WA":"WA"},
"geometry":{ "type": "Point", "coordinates": [-122.329285,48.610264]}},
{ "type": "Feature", "properties": {"Aberdeen city":"Algona city","Washington":"Washington","WA":"WA"},
"geometry":{ "type": "Point", "coordinates": [-122.250467,47.281987]}},
{ "type": "Feature", "properties": {"Aberdeen city":"Allyn CDP","Washington":"Washington","WA":"WA"},
"geometry":{ "type": "Point", "coordinates": [-122.839334,47.386829]}},
{ "type": "Feature", "properties": {"Aberdeen city":"Almira town","Washington":"Washington","WA":"WA"},
"geometry":{ "type": "Point", "coordinates": [-118.93699,47.710609]}},
{ "type": "Feature", "properties": {"Aberdeen city":"Altoona CDP","Washington":"Washington","WA":"WA"},
"geometry":{ "type": "Point", "coordinates": [-123.621217,46.269739]}},
{ "type": "Feature", "properties": {"Aberdeen city":"Amanda Park CDP","Washington":"Washington","WA":"WA"},
"geometry":{ "type": "Point", "coordinates": [-123.925148,47.45386]}},
{ "type": "Feature", "properties": {"Aberdeen city":"Amboy CDP","Washington":"Washington","WA":"WA"},
"geometry":{ "type": "Point", "coordinates": [-122.488854,45.915888]}},
{ "type": "Feature", "properties": {"Aberdeen city":"Ames Lake CDP","Washington":"Washington","WA":"WA"},
"geometry":{ "type": "Point", "coordinates": [-121.960584,47.633966]}},
{ "type": "Feature", "properties": {"Aberdeen city":"Anacortes city","Washington":"Washington","WA":"WA"},
"geometry":{ "type": "Point", "coordinates": [-122.62398,48.488725]}},
{ "type": "Feature", "properties": {"Aberdeen city":"Anatone CDP","Washington":"Washington","WA":"WA"},
"geometry":{ "type": "Point", "coordinates": [-117.132454,46.135417]}},
{ "type": "Feature", "properties": {"Aberdeen city":"Anderson Island CDP","Washington":"Washington","WA":"WA"},
"geometry":{ "type": "Point", "coordinates": [-122.681692,47.149874]}},
{ "type": "Feature", "properties": {"Aberdeen city":"Arlington city","Washington":"Washington","WA":"WA"},
"geometry":{ "type": "Point", "coordinates": [-122.144553,48.170372]}},
{ "type": "Feature", "properties": {"Aberdeen city":"Arlington Heights CDP","Washington":"Washington","WA":"WA"},
"geometry":{ "type": "Point", "coordinates": [-122.062995,48.211929]}},
{ "type": "Feature", "properties": {"Aberdeen city":"Artondale CDP","Washington":"Washington","WA":"WA"},
"geometry":{ "type": "Point", "coordinates": [-122.652488,47.303553]}},
{ "type": "Feature", "properties": {"Aberdeen city":"Ashford CDP","Washington":"Washington","WA":"WA"},
"geometry":{ "type": "Point", "coordinates": [-122.015472,46.754853]}},
{ "type": "Feature", "properties": {"Aberdeen city":"Asotin city","Washington":"Washington","WA":"WA"},
"geometry":{ "type": "Point", "coordinates": [-117.039804,46.333726]}},
{ "type": "Feature", "properties": {"Aberdeen city":"Auburn city","Washington":"Washington","WA":"WA"},
"geometry":{ "type": "Point", "coordinates": [-122.21,47.303773]}},
{ "type": "Feature", "properties": {"Aberdeen city":"Bainbridge Island city","Washington":"Washington","WA":"WA"},
"geometry":{ "type": "Point", "coordinates": [-122.507764,47.642487]}},
{ "type": "Feature", "properties": {"Aberdeen city":"Bangor Base CDP","Washington":"Washington","WA":"WA"},
"geometry":{ "type": "Point", "coordinates": [-122.714126,47.722257]}},
{ "type": "Feature", "properties": {"Aberdeen city":"Banks Lake South CDP","Washington":"Washington","WA":"WA"},
"geometry":{ "type": "Point", "coordinates": [-119.274437,47.630072]}},
{ "type": "Feature", "properties": {"Aberdeen city":"Barberton CDP","Washington":"Washington","WA":"WA"},
"geometry":{ "type": "Point", "coordinates": [-122.611443,45.713634]}},
{ "type": "Feature", "properties": {"Aberdeen city":"Baring CDP","Washington":"Washington","WA":"WA"},
"geometry":{ "type": "Point", "coordinates": [-121.481977,47.768598]}},
{ "type": "Feature", "properties": {"Aberdeen city":"Barney's Junction CDP","Washington":"Washington","WA":"WA"},
"geometry":{ "type": "Point", "coordinates": [-118.128962,48.620395]}},
{ "type": "Feature", "properties": {"Aberdeen city":"Barstow CDP","Washington":"Washington","WA":"WA"},
"geometry":{ "type": "Point", "coordinates": [-118.132862,48.778304]}},
{ "type": "Feature", "properties": {"Aberdeen city":"Basin City CDP","Washington":"Washington","WA":"WA"},
"geometry":{ "type": "Point", "coordinates": [-119.156647,46.589039]}},
{ "type": "Feature", "properties": {"Aberdeen city":"Battle Ground city","Washington":"Washington","WA":"WA"},
"geometry":{ "type": "Point", "coordinates": [-122.540963,45.776815]}},
{ "type": "Feature", "properties": {"Aberdeen city":"Bay Center CDP","Washington":"Washington","WA":"WA"},
"geometry":{ "type": "Point", "coordinates": [-123.953182,46.620753]}},
{ "type": "Feature", "properties": {"Aberdeen city":"Bay View CDP","Washington":"Washington","WA":"WA"},
"geometry":{ "type": "Point", "coordinates": [-122.462553,48.487]}},
{ "type": "Feature", "properties": {"Aberdeen city":"Beacon Hill CDP","Washington":"Washington","WA":"WA"},
"geometry":{ "type": "Point", "coordinates": [-122.92069,46.171191]}},
{ "type": "Feature", "properties": {"Aberdeen city":"Beaux Arts Village town","Washington":"Washington","WA":"WA"},
"geometry":{ "type": "Point", "coordinates": [-122.203646,47.585343]}},
{ "type": "Feature", "properties": {"Aberdeen city":"Belfair CDP","Washington":"Washington","WA":"WA"},
"geometry":{ "type": "Point", "coordinates": [-122.852831,47.446821]}},
{ "type": "Feature", "properties": {"Aberdeen city":"Bellevue city","Washington":"Washington","WA":"WA"},
"geometry":{ "type": "Point", "coordinates": [-122.15648,47.597837]}},
{ "type": "Feature", "properties": {"Aberdeen city":"Bell Hill CDP","Washington":"Washington","WA":"WA"},
"geometry":{ "type": "Point", "coordinates": [-123.086977,48.05495]}},
{ "type": "Feature", "properties": {"Aberdeen city":"Bellingham city","Washington":"Washington","WA":"WA"},
"geometry":{ "type": "Point", "coordinates": [-122.470179,48.753442]}},
{ "type": "Feature", "properties": {"Aberdeen city":"Benton City city","Washington":"Washington","WA":"WA"},
"geometry":{ "type": "Point", "coordinates": [-119.478982,46.263709]}},
{ "type": "Feature", "properties": {"Aberdeen city":"Bethel CDP","Washington":"Washington","WA":"WA"},
"geometry":{ "type": "Point", "coordinates": [-122.617517,47.4874]}},
{ "type": "Feature", "properties": {"Aberdeen city":"Beverly CDP","Washington":"Washington","WA":"WA"},
"geometry":{ "type": "Point", "coordinates": [-119.930266,46.834819]}},
{ "type": "Feature", "properties": {"Aberdeen city":"Bickleton CDP","Washington":"Washington","WA":"WA"},
"geometry":{ "type": "Point", "coordinates": [-120.30798,46.005641]}},
{ "type": "Feature", "properties": {"Aberdeen city":"Big Lake CDP","Washington":"Washington","WA":"WA"},
"geometry":{ "type": "Point", "coordinates": [-122.243228,48.395839]}},
{ "type": "Feature", "properties": {"Aberdeen city":"Bingen city","Washington":"Washington","WA":"WA"},
"geometry":{ "type": "Point", "coordinates": [-121.471778,45.713108]}},
{ "type": "Feature", "properties": {"Aberdeen city":"Birch Bay CDP","Washington":"Washington","WA":"WA"},
"geometry":{ "type": "Point", "coordinates": [-122.745262,48.923367]}},
{ "type": "Feature", "properties": {"Aberdeen city":"Black Diamond city","Washington":"Washington","WA":"WA"},
"geometry":{ "type": "Point", "coordinates": [-122.017685,47.314748]}},
{ "type": "Feature", "properties": {"Aberdeen city":"Blaine city","Washington":"Washington","WA":"WA"},
"geometry":{ "type": "Point", "coordinates": [-122.74877,48.98719]}},
{ "type": "Feature", "properties": {"Aberdeen city":"Blyn CDP","Washington":"Washington","WA":"WA"},
"geometry":{ "type": "Point", "coordinates": [-122.98016,48.009477]}},
{ "type": "Feature", "properties": {"Aberdeen city":"Bonney Lake city","Washington":"Washington","WA":"WA"},
"geometry":{ "type": "Point", "coordinates": [-122.163032,47.199502]}},
{ "type": "Feature", "properties": {"Aberdeen city":"Bothell city","Washington":"Washington","WA":"WA"},
"geometry":{ "type": "Point", "coordinates": [-122.204376,47.773531]}},
{ "type": "Feature", "properties": {"Aberdeen city":"Bothell East CDP","Washington":"Washington","WA":"WA"},
"geometry":{ "type": "Point", "coordinates": [-122.184394,47.806352]}},
{ "type": "Feature", "properties": {"Aberdeen city":"Bothell West CDP","Washington":"Washington","WA":"WA"},
"geometry":{ "type": "Point", "coordinates": [-122.24011,47.805597]}},
{ "type": "Feature", "properties": {"Aberdeen city":"Boulevard Park CDP","Washington":"Washington","WA":"WA"},
"geometry":{ "type": "Point", "coordinates": [-122.314844,47.513403]}},
{ "type": "Feature", "properties": {"Aberdeen city":"Bow CDP","Washington":"Washington","WA":"WA"},
"geometry":{ "type": "Point", "coordinates": [-122.407762,48.561285]}},
{ "type": "Feature", "properties": {"Aberdeen city":"Boyds CDP","Washington":"Washington","WA":"WA"},
"geometry":{ "type": "Point", "coordinates": [-118.132084,48.724435]}},
{ "type": "Feature", "properties": {"Aberdeen city":"Brady CDP","Washington":"Washington","WA":"WA"},
"geometry":{ "type": "Point", "coordinates": [-123.541933,47.004601]}},
{ "type": "Feature", "properties": {"Aberdeen city":"Bremerton city","Washington":"Washington","WA":"WA"},
"geometry":{ "type": "Point", "coordinates": [-122.717048,47.539877]}},
{ "type": "Feature", "properties": {"Aberdeen city":"Brewster city","Washington":"Washington","WA":"WA"},
"geometry":{ "type": "Point", "coordinates": [-119.769827,48.106954]}},
{ "type": "Feature", "properties": {"Aberdeen city":"Bridgeport city","Washington":"Washington","WA":"WA"},
"geometry":{ "type": "Point", "coordinates": [-119.672533,48.007006]}},
{ "type": "Feature", "properties": {"Aberdeen city":"Brier city","Washington":"Washington","WA":"WA"},
"geometry":{ "type": "Point", "coordinates": [-122.273432,47.792388]}},
{ "type": "Feature", "properties": {"Aberdeen city":"Brinnon CDP","Washington":"Washington","WA":"WA"},
"geometry":{ "type": "Point", "coordinates": [-122.9166,47.668614]}},
{ "type": "Feature", "properties": {"Aberdeen city":"Browns Point CDP","Washington":"Washington","WA":"WA"},
"geometry":{ "type": "Point", "coordinates": [-122.43672,47.303796]}},
{ "type": "Feature", "properties": {"Aberdeen city":"Brush Prairie CDP","Washington":"Washington","WA":"WA"},
"geometry":{ "type": "Point", "coordinates": [-122.548327,45.725043]}},
{ "type": "Feature", "properties": {"Aberdeen city":"Bryant CDP","Washington":"Washington","WA":"WA"},
"geometry":{ "type": "Point", "coordinates": [-122.1781,48.246467]}},
{ "type": "Feature", "properties": {"Aberdeen city":"Bryn Mawr-Skyway CDP","Washington":"Washington","WA":"WA"},
"geometry":{ "type": "Point", "coordinates": [-122.240594,47.494983]}},
{ "type": "Feature", "properties": {"Aberdeen city":"Buckley city","Washington":"Washington","WA":"WA"},
"geometry":{ "type": "Point", "coordinates": [-122.020272,47.162239]}},
{ "type": "Feature", "properties": {"Aberdeen city":"Bucoda town","Washington":"Washington","WA":"WA"},
"geometry":{ "type": "Point", "coordinates": [-122.869815,46.795255]}},
{ "type": "Feature", "properties": {"Aberdeen city":"Buena CDP","Washington":"Washington","WA":"WA"},
"geometry":{ "type": "Point", "coordinates": [-120.318245,46.427687]}},
{ "type": "Feature", "properties": {"Aberdeen city":"Bunk Foss CDP","Washington":"Washington","WA":"WA"},
"geometry":{ "type": "Point", "coordinates": [-122.094437,47.961701]}},
{ "type": "Feature", "properties": {"Aberdeen city":"Burbank CDP","Washington":"Washington","WA":"WA"},
"geometry":{ "type": "Point", "coordinates": [-118.983373,46.198387]}},
{ "type": "Feature", "properties": {"Aberdeen city":"Burien city","Washington":"Washington","WA":"WA"},
"geometry":{ "type": "Point", "coordinates": [-122.344661,47.475605]}},
{ "type": "Feature", "properties": {"Aberdeen city":"Burley CDP","Washington":"Washington","WA":"WA"},
"geometry":{ "type": "Point", "coordinates": [-122.644705,47.415957]}},
{ "type": "Feature", "properties": {"Aberdeen city":"Burlington city","Washington":"Washington","WA":"WA"},
"geometry":{ "type": "Point", "coordinates": [-122.328882,48.466355]}},
{ "type": "Feature", "properties": {"Aberdeen city":"Camano CDP","Washington":"Washington","WA":"WA"},
"geometry":{ "type": "Point", "coordinates": [-122.462132,48.152467]}},
{ "type": "Feature", "properties": {"Aberdeen city":"Camas city","Washington":"Washington","WA":"WA"},
"geometry":{ "type": "Point", "coordinates": [-122.430381,45.601809]}},
{ "type": "Feature", "properties": {"Aberdeen city":"Canterwood CDP","Washington":"Washington","WA":"WA"},
"geometry":{ "type": "Point", "coordinates": [-122.602016,47.376491]}},
{ "type": "Feature", "properties": {"Aberdeen city":"Canyon Creek CDP","Washington":"Washington","WA":"WA"},
"geometry":{ "type": "Point", "coordinates": [-121.982476,48.110002]}},
{ "type": "Feature", "properties": {"Aberdeen city":"Carbonado town","Washington":"Washington","WA":"WA"},
"geometry":{ "type": "Point", "coordinates": [-122.051841,47.08232]}},
{ "type": "Feature", "properties": {"Aberdeen city":"Carlsborg CDP","Washington":"Washington","WA":"WA"},
"geometry":{ "type": "Point", "coordinates": [-123.169679,48.084167]}},
{ "type": "Feature", "properties": {"Aberdeen city":"Carnation city","Washington":"Washington","WA":"WA"},
"geometry":{ "type": "Point", "coordinates": [-121.90067,47.644188]}},
{ "type": "Feature", "properties": {"Aberdeen city":"Carson CDP","Washington":"Washington","WA":"WA"},
"geometry":{ "type": "Point", "coordinates": [-121.82621,45.734805]}},
{ "type": "Feature", "properties": {"Aberdeen city":"Cascade Valley CDP","Washington":"Washington","WA":"WA"},
"geometry":{ "type": "Point", "coordinates": [-119.328343,47.141022]}},
{ "type": "Feature", "properties": {"Aberdeen city":"Cashmere city","Washington":"Washington","WA":"WA"},
"geometry":{ "type": "Point", "coordinates": [-120.467036,47.518054]}},
{ "type": "Feature", "properties": {"Aberdeen city":"Castle Rock city","Washington":"Washington","WA":"WA"},
"geometry":{ "type": "Point", "coordinates": [-122.903925,46.271858]}},
{ "type": "Feature", "properties": {"Aberdeen city":"Cathcart CDP","Washington":"Washington","WA":"WA"},
"geometry":{ "type": "Point", "coordinates": [-122.10579,47.852593]}},
{ "type": "Feature", "properties": {"Aberdeen city":"Cathlamet town","Washington":"Washington","WA":"WA"},
"geometry":{ "type": "Point", "coordinates": [-123.384018,46.205819]}},
{ "type": "Feature", "properties": {"Aberdeen city":"Cavalero CDP","Washington":"Washington","WA":"WA"},
"geometry":{ "type": "Point", "coordinates": [-122.076633,47.975068]}},
{ "type": "Feature", "properties": {"Aberdeen city":"Centerville CDP","Washington":"Washington","WA":"WA"},
"geometry":{ "type": "Point", "coordinates": [-120.90808,45.753994]}},
{ "type": "Feature", "properties": {"Aberdeen city":"Centralia city","Washington":"Washington","WA":"WA"},
"geometry":{ "type": "Point", "coordinates": [-122.970947,46.72205]}},
{ "type": "Feature", "properties": {"Aberdeen city":"Central Park CDP","Washington":"Washington","WA":"WA"},
"geometry":{ "type": "Point", "coordinates": [-123.702302,46.971808]}},
{ "type": "Feature", "properties": {"Aberdeen city":"Chain Lake CDP","Washington":"Washington","WA":"WA"},
"geometry":{ "type": "Point", "coordinates": [-121.98709,47.902259]}},
{ "type": "Feature", "properties": {"Aberdeen city":"Chehalis city","Washington":"Washington","WA":"WA"},
"geometry":{ "type": "Point", "coordinates": [-122.965425,46.664176]}},
{ "type": "Feature", "properties": {"Aberdeen city":"Chelan city","Washington":"Washington","WA":"WA"},
"geometry":{ "type": "Point", "coordinates": [-120.013572,47.844282]}},
{ "type": "Feature", "properties": {"Aberdeen city":"Chelan Falls CDP","Washington":"Washington","WA":"WA"},
"geometry":{ "type": "Point", "coordinates": [-119.988255,47.799429]}},
{ "type": "Feature", "properties": {"Aberdeen city":"Cheney city","Washington":"Washington","WA":"WA"},
"geometry":{ "type": "Point", "coordinates": [-117.581546,47.49113]}},
{ "type": "Feature", "properties": {"Aberdeen city":"Cherry Grove CDP","Washington":"Washington","WA":"WA"},
"geometry":{ "type": "Point", "coordinates": [-122.576683,45.802185]}},
{ "type": "Feature", "properties": {"Aberdeen city":"Chewelah city","Washington":"Washington","WA":"WA"},
"geometry":{ "type": "Point", "coordinates": [-117.716945,48.28264]}},
{ "type": "Feature", "properties": {"Aberdeen city":"Chico CDP","Washington":"Washington","WA":"WA"},
"geometry":{ "type": "Point", "coordinates": [-122.719306,47.622554]}},
{ "type": "Feature", "properties": {"Aberdeen city":"Chinook CDP","Washington":"Washington","WA":"WA"},
"geometry":{ "type": "Point", "coordinates": [-123.942213,46.27552]}},
{ "type": "Feature", "properties": {"Aberdeen city":"Clallam Bay CDP","Washington":"Washington","WA":"WA"},
"geometry":{ "type": "Point", "coordinates": [-124.257783,48.25352]}},
{ "type": "Feature", "properties": {"Aberdeen city":"Clarkston city","Washington":"Washington","WA":"WA"},
"geometry":{ "type": "Point", "coordinates": [-117.050135,46.415405]}},
{ "type": "Feature", "properties": {"Aberdeen city":"Clarkston Heights-Vineland CDP","Washington":"Washington","WA":"WA"},
"geometry":{ "type": "Point", "coordinates": [-117.092016,46.375406]}},
{ "type": "Feature", "properties": {"Aberdeen city":"Clayton CDP","Washington":"Washington","WA":"WA"},
"geometry":{ "type": "Point", "coordinates": [-117.561155,48.001222]}},
{ "type": "Feature", "properties": {"Aberdeen city":"Clear Lake CDP","Washington":"Washington","WA":"WA"},
"geometry":{ "type": "Point", "coordinates": [-122.304963,46.92844]}},
{ "type": "Feature", "properties": {"Aberdeen city":"Clear Lake CDP","Washington":"Washington","WA":"WA"},
"geometry":{ "type": "Point", "coordinates": [-122.23949,48.448301]}},
{ "type": "Feature", "properties": {"Aberdeen city":"Clearview CDP","Washington":"Washington","WA":"WA"},
"geometry":{ "type": "Point", "coordinates": [-122.145145,47.829183]}},
{ "type": "Feature", "properties": {"Aberdeen city":"Cle Elum city","Washington":"Washington","WA":"WA"},
"geometry":{ "type": "Point", "coordinates": [-120.952843,47.194638]}},
{ "type": "Feature", "properties": {"Aberdeen city":"Cliffdell CDP","Washington":"Washington","WA":"WA"},
"geometry":{ "type": "Point", "coordinates": [-121.043014,46.922197]}},
{ "type": "Feature", "properties": {"Aberdeen city":"Clinton CDP","Washington":"Washington","WA":"WA"},
"geometry":{ "type": "Point", "coordinates": [-122.352274,47.962381]}},
{ "type": "Feature", "properties": {"Aberdeen city":"Clover Creek CDP","Washington":"Washington","WA":"WA"},
"geometry":{ "type": "Point", "coordinates": [-122.380456,47.143317]}},
{ "type": "Feature", "properties": {"Aberdeen city":"Clyde Hill city","Washington":"Washington","WA":"WA"},
"geometry":{ "type": "Point", "coordinates": [-122.217983,47.630354]}},
{ "type": "Feature", "properties": {"Aberdeen city":"Cohassett Beach CDP","Washington":"Washington","WA":"WA"},
"geometry":{ "type": "Point", "coordinates": [-124.106113,46.864882]}},
{ "type": "Feature", "properties": {"Aberdeen city":"Colfax city","Washington":"Washington","WA":"WA"},
"geometry":{ "type": "Point", "coordinates": [-117.345271,46.901602]}},
{ "type": "Feature", "properties": {"Aberdeen city":"College Place city","Washington":"Washington","WA":"WA"},
"geometry":{ "type": "Point", "coordinates": [-118.389413,46.041572]}},
{ "type": "Feature", "properties": {"Aberdeen city":"Colton town","Washington":"Washington","WA":"WA"},
"geometry":{ "type": "Point", "coordinates": [-117.128445,46.567467]}},
{ "type": "Feature", "properties": {"Aberdeen city":"Colville city","Washington":"Washington","WA":"WA"},
"geometry":{ "type": "Point", "coordinates": [-117.898513,48.545461]}},
{ "type": "Feature", "properties": {"Aberdeen city":"Conconully town","Washington":"Washington","WA":"WA"},
"geometry":{ "type": "Point", "coordinates": [-119.752129,48.558553]}},
{ "type": "Feature", "properties": {"Aberdeen city":"Concrete town","Washington":"Washington","WA":"WA"},
"geometry":{ "type": "Point", "coordinates": [-121.755155,48.532617]}},
{ "type": "Feature", "properties": {"Aberdeen city":"Connell city","Washington":"Washington","WA":"WA"},
"geometry":{ "type": "Point", "coordinates": [-118.840553,46.660492]}},
{ "type": "Feature", "properties": {"Aberdeen city":"Conway CDP","Washington":"Washington","WA":"WA"},
"geometry":{ "type": "Point", "coordinates": [-122.344432,48.335682]}},
{ "type": "Feature", "properties": {"Aberdeen city":"Copalis Beach CDP","Washington":"Washington","WA":"WA"},
"geometry":{ "type": "Point", "coordinates": [-124.166453,47.124571]}},
{ "type": "Feature", "properties": {"Aberdeen city":"Cosmopolis city","Washington":"Washington","WA":"WA"},
"geometry":{ "type": "Point", "coordinates": [-123.772895,46.954312]}},
{ "type": "Feature", "properties": {"Aberdeen city":"Cottage Lake CDP","Washington":"Washington","WA":"WA"},
"geometry":{ "type": "Point", "coordinates": [-122.075988,47.746452]}},
{ "type": "Feature", "properties": {"Aberdeen city":"Cougar CDP","Washington":"Washington","WA":"WA"},
"geometry":{ "type": "Point", "coordinates": [-122.303364,46.049292]}},
{ "type": "Feature", "properties": {"Aberdeen city":"Coulee City town","Washington":"Washington","WA":"WA"},
"geometry":{ "type": "Point", "coordinates": [-119.289529,47.611733]}},
{ "type": "Feature", "properties": {"Aberdeen city":"Coulee Dam town","Washington":"Washington","WA":"WA"},
"geometry":{ "type": "Point", "coordinates": [-118.97628,47.968511]}},
{ "type": "Feature", "properties": {"Aberdeen city":"Country Homes CDP","Washington":"Washington","WA":"WA"},
"geometry":{ "type": "Point", "coordinates": [-117.41987,47.74785]}},
{ "type": "Feature", "properties": {"Aberdeen city":"Coupeville town","Washington":"Washington","WA":"WA"},
"geometry":{ "type": "Point", "coordinates": [-122.679466,48.218795]}},
{ "type": "Feature", "properties": {"Aberdeen city":"Covington city","Washington":"Washington","WA":"WA"},
"geometry":{ "type": "Point", "coordinates": [-122.104561,47.364793]}},
{ "type": "Feature", "properties": {"Aberdeen city":"Cowiche CDP","Washington":"Washington","WA":"WA"},
"geometry":{ "type": "Point", "coordinates": [-120.711936,46.671898]}},
{ "type": "Feature", "properties": {"Aberdeen city":"Crescent Bar CDP","Washington":"Washington","WA":"WA"},
"geometry":{ "type": "Point", "coordinates": [-119.996573,47.216626]}},
{ "type": "Feature", "properties": {"Aberdeen city":"Creston town","Washington":"Washington","WA":"WA"},
"geometry":{ "type": "Point", "coordinates": [-118.519913,47.759415]}},
{ "type": "Feature", "properties": {"Aberdeen city":"Crocker CDP","Washington":"Washington","WA":"WA"},
"geometry":{ "type": "Point", "coordinates": [-122.126744,47.090847]}},
{ "type": "Feature", "properties": {"Aberdeen city":"Curlew CDP","Washington":"Washington","WA":"WA"},
"geometry":{ "type": "Point", "coordinates": [-118.604516,48.877715]}},
{ "type": "Feature", "properties": {"Aberdeen city":"Curlew Lake CDP","Washington":"Washington","WA":"WA"},
"geometry":{ "type": "Point", "coordinates": [-118.668214,48.732932]}},
{ "type": "Feature", "properties": {"Aberdeen city":"Cusick town","Washington":"Washington","WA":"WA"},
"geometry":{ "type": "Point", "coordinates": [-117.292457,48.328488]}},
{ "type": "Feature", "properties": {"Aberdeen city":"Custer CDP","Washington":"Washington","WA":"WA"},
"geometry":{ "type": "Point", "coordinates": [-122.636994,48.91285]}},
{ "type": "Feature", "properties": {"Aberdeen city":"Dallesport CDP","Washington":"Washington","WA":"WA"},
"geometry":{ "type": "Point", "coordinates": [-121.168866,45.631591]}},
{ "type": "Feature", "properties": {"Aberdeen city":"Danville CDP","Washington":"Washington","WA":"WA"},
"geometry":{ "type": "Point", "coordinates": [-118.506895,48.993638]}},
{ "type": "Feature", "properties": {"Aberdeen city":"Darrington town","Washington":"Washington","WA":"WA"},
"geometry":{ "type": "Point", "coordinates": [-121.607845,48.258788]}},
{ "type": "Feature", "properties": {"Aberdeen city":"Dash Point CDP","Washington":"Washington","WA":"WA"},
"geometry":{ "type": "Point", "coordinates": [-122.413977,47.312502]}},
{ "type": "Feature", "properties": {"Aberdeen city":"Davenport city","Washington":"Washington","WA":"WA"},
"geometry":{ "type": "Point", "coordinates": [-118.15188,47.655042]}},
{ "type": "Feature", "properties": {"Aberdeen city":"Dayton city","Washington":"Washington","WA":"WA"},
"geometry":{ "type": "Point", "coordinates": [-117.976778,46.316796]}},
{ "type": "Feature", "properties": {"Aberdeen city":"Deep River CDP","Washington":"Washington","WA":"WA"},
"geometry":{ "type": "Point", "coordinates": [-123.70495,46.353583]}},
{ "type": "Feature", "properties": {"Aberdeen city":"Deer Park city","Washington":"Washington","WA":"WA"},
"geometry":{ "type": "Point", "coordinates": [-117.439788,47.964205]}},
{ "type": "Feature", "properties": {"Aberdeen city":"Deming CDP","Washington":"Washington","WA":"WA"},
"geometry":{ "type": "Point", "coordinates": [-122.236134,48.830359]}},
{ "type": "Feature", "properties": {"Aberdeen city":"Desert Aire CDP","Washington":"Washington","WA":"WA"},
"geometry":{ "type": "Point", "coordinates": [-119.92905,46.694214]}},
{ "type": "Feature", "properties": {"Aberdeen city":"Des Moines city","Washington":"Washington","WA":"WA"},
"geometry":{ "type": "Point", "coordinates": [-122.317581,47.388708]}},
{ "type": "Feature", "properties": {"Aberdeen city":"Disautel CDP","Washington":"Washington","WA":"WA"},
"geometry":{ "type": "Point", "coordinates": [-119.230075,48.344519]}},
{ "type": "Feature", "properties": {"Aberdeen city":"Dixie CDP","Washington":"Washington","WA":"WA"},
"geometry":{ "type": "Point", "coordinates": [-118.151897,46.140434]}},
{ "type": "Feature", "properties": {"Aberdeen city":"Dollars Corner CDP","Washington":"Washington","WA":"WA"},
"geometry":{ "type": "Point", "coordinates": [-122.599968,45.780236]}},
{ "type": "Feature", "properties": {"Aberdeen city":"Donald CDP","Washington":"Washington","WA":"WA"},
"geometry":{ "type": "Point", "coordinates": [-120.397331,46.476437]}},
{ "type": "Feature", "properties": {"Aberdeen city":"Duluth CDP","Washington":"Washington","WA":"WA"},
"geometry":{ "type": "Point", "coordinates": [-122.647039,45.783819]}},
{ "type": "Feature", "properties": {"Aberdeen city":"DuPont city","Washington":"Washington","WA":"WA"},
"geometry":{ "type": "Point", "coordinates": [-122.647576,47.107351]}},
{ "type": "Feature", "properties": {"Aberdeen city":"Duvall city","Washington":"Washington","WA":"WA"},
"geometry":{ "type": "Point", "coordinates": [-121.972224,47.735512]}},
{ "type": "Feature", "properties": {"Aberdeen city":"East Cathlamet CDP","Washington":"Washington","WA":"WA"},
"geometry":{ "type": "Point", "coordinates": [-123.359984,46.198327]}},
{ "type": "Feature", "properties": {"Aberdeen city":"Eastmont CDP","Washington":"Washington","WA":"WA"},
"geometry":{ "type": "Point", "coordinates": [-122.181536,47.897402]}},
{ "type": "Feature", "properties": {"Aberdeen city":"Easton CDP","Washington":"Washington","WA":"WA"},
"geometry":{ "type": "Point", "coordinates": [-121.159519,47.232711]}},
{ "type": "Feature", "properties": {"Aberdeen city":"East Port Orchard CDP","Washington":"Washington","WA":"WA"},
"geometry":{ "type": "Point", "coordinates": [-122.618315,47.519333]}},
{ "type": "Feature", "properties": {"Aberdeen city":"East Renton Highlands CDP","Washington":"Washington","WA":"WA"},
"geometry":{ "type": "Point", "coordinates": [-122.088495,47.473796]}},
{ "type": "Feature", "properties": {"Aberdeen city":"East Wenatchee city","Washington":"Washington","WA":"WA"},
"geometry":{ "type": "Point", "coordinates": [-120.283798,47.41745]}},
{ "type": "Feature", "properties": {"Aberdeen city":"Eatonville town","Washington":"Washington","WA":"WA"},
"geometry":{ "type": "Point", "coordinates": [-122.269568,46.868224]}},
{ "type": "Feature", "properties": {"Aberdeen city":"Edgewood city","Washington":"Washington","WA":"WA"},
"geometry":{ "type": "Point", "coordinates": [-122.285729,47.232074]}},
{ "type": "Feature", "properties": {"Aberdeen city":"Edison CDP","Washington":"Washington","WA":"WA"},
"geometry":{ "type": "Point", "coordinates": [-122.434329,48.567618]}},
{ "type": "Feature", "properties": {"Aberdeen city":"Edmonds city","Washington":"Washington","WA":"WA"},
"geometry":{ "type": "Point", "coordinates": [-122.35333,47.813604]}},
{ "type": "Feature", "properties": {"Aberdeen city":"Elbe CDP","Washington":"Washington","WA":"WA"},
"geometry":{ "type": "Point", "coordinates": [-122.196133,46.765691]}},
{ "type": "Feature", "properties": {"Aberdeen city":"Electric City city","Washington":"Washington","WA":"WA"},
"geometry":{ "type": "Point", "coordinates": [-119.046143,47.912961]}},
{ "type": "Feature", "properties": {"Aberdeen city":"Elk Plain CDP","Washington":"Washington","WA":"WA"},
"geometry":{ "type": "Point", "coordinates": [-122.365697,47.041876]}},
{ "type": "Feature", "properties": {"Aberdeen city":"Ellensburg city","Washington":"Washington","WA":"WA"},
"geometry":{ "type": "Point", "coordinates": [-120.549588,47.001168]}},
{ "type": "Feature", "properties": {"Aberdeen city":"Elma city","Washington":"Washington","WA":"WA"},
"geometry":{ "type": "Point", "coordinates": [-123.410764,47.005678]}},
{ "type": "Feature", "properties": {"Aberdeen city":"Elmer City town","Washington":"Washington","WA":"WA"},
"geometry":{ "type": "Point", "coordinates": [-118.953675,48.001499]}},
{ "type": "Feature", "properties": {"Aberdeen city":"Endicott town","Washington":"Washington","WA":"WA"},
"geometry":{ "type": "Point", "coordinates": [-117.686685,46.928231]}},
{ "type": "Feature", "properties": {"Aberdeen city":"Enetai CDP","Washington":"Washington","WA":"WA"},
"geometry":{ "type": "Point", "coordinates": [-122.602518,47.5859]}},
{ "type": "Feature", "properties": {"Aberdeen city":"Entiat city","Washington":"Washington","WA":"WA"},
"geometry":{ "type": "Point", "coordinates": [-120.222336,47.67697]}},
{ "type": "Feature", "properties": {"Aberdeen city":"Enumclaw city","Washington":"Washington","WA":"WA"},
"geometry":{ "type": "Point", "coordinates": [-121.988976,47.202179]}},
{ "type": "Feature", "properties": {"Aberdeen city":"Ephrata city","Washington":"Washington","WA":"WA"},
"geometry":{ "type": "Point", "coordinates": [-119.534343,47.312275]}},
{ "type": "Feature", "properties": {"Aberdeen city":"Erlands Point CDP","Washington":"Washington","WA":"WA"},
"geometry":{ "type": "Point", "coordinates": [-122.694181,47.602376]}},
{ "type": "Feature", "properties": {"Aberdeen city":"Eschbach CDP","Washington":"Washington","WA":"WA"},
"geometry":{ "type": "Point", "coordinates": [-120.632531,46.665058]}},
{ "type": "Feature", "properties": {"Aberdeen city":"Esperance CDP","Washington":"Washington","WA":"WA"},
"geometry":{ "type": "Point", "coordinates": [-122.34909,47.793236]}},
{ "type": "Feature", "properties": {"Aberdeen city":"Everett city","Washington":"Washington","WA":"WA"},
"geometry":{ "type": "Point", "coordinates": [-122.189895,47.965413]}},
{ "type": "Feature", "properties": {"Aberdeen city":"Everson city","Washington":"Washington","WA":"WA"},
"geometry":{ "type": "Point", "coordinates": [-122.353718,48.912517]}},
{ "type": "Feature", "properties": {"Aberdeen city":"Fairchild AFB CDP","Washington":"Washington","WA":"WA"},
"geometry":{ "type": "Point", "coordinates": [-117.648438,47.618647]}},
{ "type": "Feature", "properties": {"Aberdeen city":"Fairfield town","Washington":"Washington","WA":"WA"},
"geometry":{ "type": "Point", "coordinates": [-117.174847,47.384765]}},
{ "type": "Feature", "properties": {"Aberdeen city":"Fairwood CDP","Washington":"Washington","WA":"WA"},
"geometry":{ "type": "Point", "coordinates": [-122.142916,47.446754]}},
{ "type": "Feature", "properties": {"Aberdeen city":"Fairwood CDP","Washington":"Washington","WA":"WA"},
"geometry":{ "type": "Point", "coordinates": [-117.41706,47.766848]}},
{ "type": "Feature", "properties": {"Aberdeen city":"Fall City CDP","Washington":"Washington","WA":"WA"},
"geometry":{ "type": "Point", "coordinates": [-121.913697,47.569379]}},
{ "type": "Feature", "properties": {"Aberdeen city":"Farmington town","Washington":"Washington","WA":"WA"},
"geometry":{ "type": "Point", "coordinates": [-117.046358,47.088727]}},
{ "type": "Feature", "properties": {"Aberdeen city":"Federal Way city","Washington":"Washington","WA":"WA"},
"geometry":{ "type": "Point", "coordinates": [-122.337757,47.311596]}},
{ "type": "Feature", "properties": {"Aberdeen city":"Felida CDP","Washington":"Washington","WA":"WA"},
"geometry":{ "type": "Point", "coordinates": [-122.712657,45.71431]}},
{ "type": "Feature", "properties": {"Aberdeen city":"Ferndale city","Washington":"Washington","WA":"WA"},
"geometry":{ "type": "Point", "coordinates": [-122.588623,48.852628]}},
{ "type": "Feature", "properties": {"Aberdeen city":"Fern Prairie CDP","Washington":"Washington","WA":"WA"},
"geometry":{ "type": "Point", "coordinates": [-122.39627,45.636996]}},
{ "type": "Feature", "properties": {"Aberdeen city":"Fife city","Washington":"Washington","WA":"WA"},
"geometry":{ "type": "Point", "coordinates": [-122.351648,47.231623]}},
{ "type": "Feature", "properties": {"Aberdeen city":"Fife Heights CDP","Washington":"Washington","WA":"WA"},
"geometry":{ "type": "Point", "coordinates": [-122.345984,47.259696]}},
{ "type": "Feature", "properties": {"Aberdeen city":"Finley CDP","Washington":"Washington","WA":"WA"},
"geometry":{ "type": "Point", "coordinates": [-119.044664,46.169398]}},
{ "type": "Feature", "properties": {"Aberdeen city":"Fircrest city","Washington":"Washington","WA":"WA"},
"geometry":{ "type": "Point", "coordinates": [-122.515704,47.230716]}},
{ "type": "Feature", "properties": {"Aberdeen city":"Five Corners CDP","Washington":"Washington","WA":"WA"},
"geometry":{ "type": "Point", "coordinates": [-122.570554,45.689194]}},
{ "type": "Feature", "properties": {"Aberdeen city":"Fobes Hill CDP","Washington":"Washington","WA":"WA"},
"geometry":{ "type": "Point", "coordinates": [-122.134084,47.939235]}},
{ "type": "Feature", "properties": {"Aberdeen city":"Fords Prairie CDP","Washington":"Washington","WA":"WA"},
"geometry":{ "type": "Point", "coordinates": [-123.003739,46.74909]}},
{ "type": "Feature", "properties": {"Aberdeen city":"Forks city","Washington":"Washington","WA":"WA"},
"geometry":{ "type": "Point", "coordinates": [-124.39035,47.952758]}},
{ "type": "Feature", "properties": {"Aberdeen city":"Fort Lewis CDP","Washington":"Washington","WA":"WA"},
"geometry":{ "type": "Point", "coordinates": [-122.567439,47.095512]}},
{ "type": "Feature", "properties": {"Aberdeen city":"Four Lakes CDP","Washington":"Washington","WA":"WA"},
"geometry":{ "type": "Point", "coordinates": [-117.579233,47.562558]}},
{ "type": "Feature", "properties": {"Aberdeen city":"Fox Island CDP","Washington":"Washington","WA":"WA"},
"geometry":{ "type": "Point", "coordinates": [-122.646552,47.257686]}},
{ "type": "Feature", "properties": {"Aberdeen city":"Frederickson CDP","Washington":"Washington","WA":"WA"},
"geometry":{ "type": "Point", "coordinates": [-122.361615,47.091771]}},
{ "type": "Feature", "properties": {"Aberdeen city":"Freeland CDP","Washington":"Washington","WA":"WA"},
"geometry":{ "type": "Point", "coordinates": [-122.549937,48.028208]}},
{ "type": "Feature", "properties": {"Aberdeen city":"Friday Harbor town","Washington":"Washington","WA":"WA"},
"geometry":{ "type": "Point", "coordinates": [-123.018995,48.533947]}},
{ "type": "Feature", "properties": {"Aberdeen city":"Garfield town","Washington":"Washington","WA":"WA"},
"geometry":{ "type": "Point", "coordinates": [-117.139526,47.010248]}},
{ "type": "Feature", "properties": {"Aberdeen city":"Garrett CDP","Washington":"Washington","WA":"WA"},
"geometry":{ "type": "Point", "coordinates": [-118.40048,46.058991]}},
{ "type": "Feature", "properties": {"Aberdeen city":"Geneva CDP","Washington":"Washington","WA":"WA"},
"geometry":{ "type": "Point", "coordinates": [-122.402983,48.745268]}},
{ "type": "Feature", "properties": {"Aberdeen city":"George city","Washington":"Washington","WA":"WA"},
"geometry":{ "type": "Point", "coordinates": [-119.861683,47.083149]}},
{ "type": "Feature", "properties": {"Aberdeen city":"Gig Harbor city","Washington":"Washington","WA":"WA"},
"geometry":{ "type": "Point", "coordinates": [-122.600753,47.338378]}},
{ "type": "Feature", "properties": {"Aberdeen city":"Glacier CDP","Washington":"Washington","WA":"WA"},
"geometry":{ "type": "Point", "coordinates": [-121.932208,48.892055]}},
{ "type": "Feature", "properties": {"Aberdeen city":"Gleed CDP","Washington":"Washington","WA":"WA"},
"geometry":{ "type": "Point", "coordinates": [-120.602521,46.65934]}},
{ "type": "Feature", "properties": {"Aberdeen city":"Glenwood CDP","Washington":"Washington","WA":"WA"},
"geometry":{ "type": "Point", "coordinates": [-121.292587,46.022821]}},
{ "type": "Feature", "properties": {"Aberdeen city":"Gold Bar city","Washington":"Washington","WA":"WA"},
"geometry":{ "type": "Point", "coordinates": [-121.692006,47.856335]}},
{ "type": "Feature", "properties": {"Aberdeen city":"Goldendale city","Washington":"Washington","WA":"WA"},
"geometry":{ "type": "Point", "coordinates": [-120.823366,45.819145]}},
{ "type": "Feature", "properties": {"Aberdeen city":"Gorst CDP","Washington":"Washington","WA":"WA"},
"geometry":{ "type": "Point", "coordinates": [-122.70434,47.524544]}},
{ "type": "Feature", "properties": {"Aberdeen city":"Graham CDP","Washington":"Washington","WA":"WA"},
"geometry":{ "type": "Point", "coordinates": [-122.276854,47.034315]}},
{ "type": "Feature", "properties": {"Aberdeen city":"Grand Coulee city","Washington":"Washington","WA":"WA"},
"geometry":{ "type": "Point", "coordinates": [-119.002119,47.939091]}},
{ "type": "Feature", "properties": {"Aberdeen city":"Grand Mound CDP","Washington":"Washington","WA":"WA"},
"geometry":{ "type": "Point", "coordinates": [-123.010875,46.80028]}},
{ "type": "Feature", "properties": {"Aberdeen city":"Grandview city","Washington":"Washington","WA":"WA"},
"geometry":{ "type": "Point", "coordinates": [-119.908998,46.244335]}},
{ "type": "Feature", "properties": {"Aberdeen city":"Granger city","Washington":"Washington","WA":"WA"},
"geometry":{ "type": "Point", "coordinates": [-120.192673,46.345295]}},
{ "type": "Feature", "properties": {"Aberdeen city":"Granite Falls city","Washington":"Washington","WA":"WA"},
"geometry":{ "type": "Point", "coordinates": [-121.969206,48.089605]}},
{ "type": "Feature", "properties": {"Aberdeen city":"Grapeview CDP","Washington":"Washington","WA":"WA"},
"geometry":{ "type": "Point", "coordinates": [-122.82946,47.329763]}},
{ "type": "Feature", "properties": {"Aberdeen city":"Grayland CDP","Washington":"Washington","WA":"WA"},
"geometry":{ "type": "Point", "coordinates": [-124.091234,46.841645]}},
{ "type": "Feature", "properties": {"Aberdeen city":"Grays River CDP","Washington":"Washington","WA":"WA"},
"geometry":{ "type": "Point", "coordinates": [-123.581305,46.367914]}},
{ "type": "Feature", "properties": {"Aberdeen city":"Green Bluff CDP","Washington":"Washington","WA":"WA"},
"geometry":{ "type": "Point", "coordinates": [-117.274823,47.818418]}},
{ "type": "Feature", "properties": {"Aberdeen city":"Greenwater CDP","Washington":"Washington","WA":"WA"},
"geometry":{ "type": "Point", "coordinates": [-121.628469,47.144224]}},
{ "type": "Feature", "properties": {"Aberdeen city":"Hamilton town","Washington":"Washington","WA":"WA"},
"geometry":{ "type": "Point", "coordinates": [-121.995264,48.522478]}},
{ "type": "Feature", "properties": {"Aberdeen city":"Hansville CDP","Washington":"Washington","WA":"WA"},
"geometry":{ "type": "Point", "coordinates": [-122.57106,47.910095]}},
{ "type": "Feature", "properties": {"Aberdeen city":"Harrah town","Washington":"Washington","WA":"WA"},
"geometry":{ "type": "Point", "coordinates": [-120.540961,46.406119]}},
{ "type": "Feature", "properties": {"Aberdeen city":"Harrington city","Washington":"Washington","WA":"WA"},
"geometry":{ "type": "Point", "coordinates": [-118.255265,47.480159]}},
{ "type": "Feature", "properties": {"Aberdeen city":"Hartline town","Washington":"Washington","WA":"WA"},
"geometry":{ "type": "Point", "coordinates": [-119.10813,47.689449]}},
{ "type": "Feature", "properties": {"Aberdeen city":"Hat Island CDP","Washington":"Washington","WA":"WA"},
"geometry":{ "type": "Point", "coordinates": [-122.320653,48.013421]}},
{ "type": "Feature", "properties": {"Aberdeen city":"Hatton town","Washington":"Washington","WA":"WA"},
"geometry":{ "type": "Point", "coordinates": [-118.827688,46.773528]}},
{ "type": "Feature", "properties": {"Aberdeen city":"Hazel Dell CDP","Washington":"Washington","WA":"WA"},
"geometry":{ "type": "Point", "coordinates": [-122.652658,45.681881]}},
{ "type": "Feature", "properties": {"Aberdeen city":"Herron Island CDP","Washington":"Washington","WA":"WA"},
"geometry":{ "type": "Point", "coordinates": [-122.831951,47.267476]}},
{ "type": "Feature", "properties": {"Aberdeen city":"High Bridge CDP","Washington":"Washington","WA":"WA"},
"geometry":{ "type": "Point", "coordinates": [-122.023807,47.799898]}},
{ "type": "Feature", "properties": {"Aberdeen city":"Hobart CDP","Washington":"Washington","WA":"WA"},
"geometry":{ "type": "Point", "coordinates": [-122.005262,47.411787]}},
{ "type": "Feature", "properties": {"Aberdeen city":"Hockinson CDP","Washington":"Washington","WA":"WA"},
"geometry":{ "type": "Point", "coordinates": [-122.483334,45.730183]}},
{ "type": "Feature", "properties": {"Aberdeen city":"Hogans Corner CDP","Washington":"Washington","WA":"WA"},
"geometry":{ "type": "Point", "coordinates": [-124.161687,47.041496]}},
{ "type": "Feature", "properties": {"Aberdeen city":"Home CDP","Washington":"Washington","WA":"WA"},
"geometry":{ "type": "Point", "coordinates": [-122.790082,47.274685]}},
{ "type": "Feature", "properties": {"Aberdeen city":"Hoodsport CDP","Washington":"Washington","WA":"WA"},
"geometry":{ "type": "Point", "coordinates": [-123.154126,47.40198]}},
{ "type": "Feature", "properties": {"Aberdeen city":"Hoquiam city","Washington":"Washington","WA":"WA"},
"geometry":{ "type": "Point", "coordinates": [-123.909716,46.977202]}},
{ "type": "Feature", "properties": {"Aberdeen city":"Humptulips CDP","Washington":"Washington","WA":"WA"},
"geometry":{ "type": "Point", "coordinates": [-123.980539,47.233739]}},
{ "type": "Feature", "properties": {"Aberdeen city":"Hunts Point town","Washington":"Washington","WA":"WA"},
"geometry":{ "type": "Point", "coordinates": [-122.229197,47.642958]}},
{ "type": "Feature", "properties": {"Aberdeen city":"Ilwaco city","Washington":"Washington","WA":"WA"},
"geometry":{ "type": "Point", "coordinates": [-124.026732,46.312687]}},
{ "type": "Feature", "properties": {"Aberdeen city":"Inchelium CDP","Washington":"Washington","WA":"WA"},
"geometry":{ "type": "Point", "coordinates": [-118.245596,48.36374]}},
{ "type": "Feature", "properties": {"Aberdeen city":"Index town","Washington":"Washington","WA":"WA"},
"geometry":{ "type": "Point", "coordinates": [-121.555929,47.821262]}},
{ "type": "Feature", "properties": {"Aberdeen city":"Indianola CDP","Washington":"Washington","WA":"WA"},
"geometry":{ "type": "Point", "coordinates": [-122.511484,47.755273]}},
{ "type": "Feature", "properties": {"Aberdeen city":"Ione town","Washington":"Washington","WA":"WA"},
"geometry":{ "type": "Point", "coordinates": [-117.42203,48.739814]}},
{ "type": "Feature", "properties": {"Aberdeen city":"Issaquah city","Washington":"Washington","WA":"WA"},
"geometry":{ "type": "Point", "coordinates": [-122.049085,47.544488]}},
{ "type": "Feature", "properties": {"Aberdeen city":"Jamestown CDP","Washington":"Washington","WA":"WA"},
"geometry":{ "type": "Point", "coordinates": [-123.091043,48.122839]}},
{ "type": "Feature", "properties": {"Aberdeen city":"Kahlotus city","Washington":"Washington","WA":"WA"},
"geometry":{ "type": "Point", "coordinates": [-118.556139,46.643221]}},
{ "type": "Feature", "properties": {"Aberdeen city":"Kalama city","Washington":"Washington","WA":"WA"},
"geometry":{ "type": "Point", "coordinates": [-122.841937,46.017142]}},
{ "type": "Feature", "properties": {"Aberdeen city":"Kapowsin CDP","Washington":"Washington","WA":"WA"},
"geometry":{ "type": "Point", "coordinates": [-122.222955,46.968388]}},
{ "type": "Feature", "properties": {"Aberdeen city":"Kayak Point CDP","Washington":"Washington","WA":"WA"},
"geometry":{ "type": "Point", "coordinates": [-122.342276,48.142508]}},
{ "type": "Feature", "properties": {"Aberdeen city":"Keller CDP","Washington":"Washington","WA":"WA"},
"geometry":{ "type": "Point", "coordinates": [-118.716364,48.085189]}},
{ "type": "Feature", "properties": {"Aberdeen city":"Kelso city","Washington":"Washington","WA":"WA"},
"geometry":{ "type": "Point", "coordinates": [-122.886466,46.116751]}},
{ "type": "Feature", "properties": {"Aberdeen city":"Kendall CDP","Washington":"Washington","WA":"WA"},
"geometry":{ "type": "Point", "coordinates": [-122.132584,48.915467]}},
{ "type": "Feature", "properties": {"Aberdeen city":"Kenmore city","Washington":"Washington","WA":"WA"},
"geometry":{ "type": "Point", "coordinates": [-122.247244,47.749858]}},
{ "type": "Feature", "properties": {"Aberdeen city":"Kennewick city","Washington":"Washington","WA":"WA"},
"geometry":{ "type": "Point", "coordinates": [-119.175923,46.197622]}},
{ "type": "Feature", "properties": {"Aberdeen city":"Kent city","Washington":"Washington","WA":"WA"},
"geometry":{ "type": "Point", "coordinates": [-122.212727,47.38797]}},
{ "type": "Feature", "properties": {"Aberdeen city":"Ketron Island CDP","Washington":"Washington","WA":"WA"},
"geometry":{ "type": "Point", "coordinates": [-122.634125,47.156281]}},
{ "type": "Feature", "properties": {"Aberdeen city":"Kettle Falls city","Washington":"Washington","WA":"WA"},
"geometry":{ "type": "Point", "coordinates": [-118.06214,48.6056]}},
{ "type": "Feature", "properties": {"Aberdeen city":"Key Center CDP","Washington":"Washington","WA":"WA"},
"geometry":{ "type": "Point", "coordinates": [-122.754927,47.3306]}},
{ "type": "Feature", "properties": {"Aberdeen city":"Keyport CDP","Washington":"Washington","WA":"WA"},
"geometry":{ "type": "Point", "coordinates": [-122.624293,47.700204]}},
{ "type": "Feature", "properties": {"Aberdeen city":"Kingston CDP","Washington":"Washington","WA":"WA"},
"geometry":{ "type": "Point", "coordinates": [-122.506217,47.794382]}},
{ "type": "Feature", "properties": {"Aberdeen city":"Kirkland city","Washington":"Washington","WA":"WA"},
"geometry":{ "type": "Point", "coordinates": [-122.20417,47.696658]}},
{ "type": "Feature", "properties": {"Aberdeen city":"Kitsap Lake CDP","Washington":"Washington","WA":"WA"},
"geometry":{ "type": "Point", "coordinates": [-122.708802,47.590375]}},
{ "type": "Feature", "properties": {"Aberdeen city":"Kittitas city","Washington":"Washington","WA":"WA"},
"geometry":{ "type": "Point", "coordinates": [-120.418906,46.983702]}},
{ "type": "Feature", "properties": {"Aberdeen city":"Klickitat CDP","Washington":"Washington","WA":"WA"},
"geometry":{ "type": "Point", "coordinates": [-121.16258,45.817966]}},
{ "type": "Feature", "properties": {"Aberdeen city":"Krupp town","Washington":"Washington","WA":"WA"},
"geometry":{ "type": "Point", "coordinates": [-118.988702,47.41052]}},
{ "type": "Feature", "properties": {"Aberdeen city":"La Center city","Washington":"Washington","WA":"WA"},
"geometry":{ "type": "Point", "coordinates": [-122.675727,45.860494]}},
{ "type": "Feature", "properties": {"Aberdeen city":"Lacey city","Washington":"Washington","WA":"WA"},
"geometry":{ "type": "Point", "coordinates": [-122.798232,47.043087]}},
{ "type": "Feature", "properties": {"Aberdeen city":"La Conner town","Washington":"Washington","WA":"WA"},
"geometry":{ "type": "Point", "coordinates": [-122.494453,48.392564]}},
{ "type": "Feature", "properties": {"Aberdeen city":"LaCrosse town","Washington":"Washington","WA":"WA"},
"geometry":{ "type": "Point", "coordinates": [-117.917769,46.795521]}},
{ "type": "Feature", "properties": {"Aberdeen city":"La Grande CDP","Washington":"Washington","WA":"WA"},
"geometry":{ "type": "Point", "coordinates": [-122.283253,46.810734]}},
{ "type": "Feature", "properties": {"Aberdeen city":"Lake Bosworth CDP","Washington":"Washington","WA":"WA"},
"geometry":{ "type": "Point", "coordinates": [-121.982048,48.05548]}},
{ "type": "Feature", "properties": {"Aberdeen city":"Lake Cassidy CDP","Washington":"Washington","WA":"WA"},
"geometry":{ "type": "Point", "coordinates": [-122.082414,48.066029]}},
{ "type": "Feature", "properties": {"Aberdeen city":"Lake Cavanaugh CDP","Washington":"Washington","WA":"WA"},
"geometry":{ "type": "Point", "coordinates": [-122.010675,48.316823]}},
{ "type": "Feature", "properties": {"Aberdeen city":"Lake Forest Park city","Washington":"Washington","WA":"WA"},
"geometry":{ "type": "Point", "coordinates": [-122.291729,47.758911]}},
{ "type": "Feature", "properties": {"Aberdeen city":"Lake Goodwin CDP","Washington":"Washington","WA":"WA"},
"geometry":{ "type": "Point", "coordinates": [-122.276171,48.135355]}},
{ "type": "Feature", "properties": {"Aberdeen city":"Lake Holm CDP","Washington":"Washington","WA":"WA"},
"geometry":{ "type": "Point", "coordinates": [-122.129911,47.306388]}},
{ "type": "Feature", "properties": {"Aberdeen city":"Lake Ketchum CDP","Washington":"Washington","WA":"WA"},
"geometry":{ "type": "Point", "coordinates": [-122.346481,48.285835]}},
{ "type": "Feature", "properties": {"Aberdeen city":"Lakeland North CDP","Washington":"Washington","WA":"WA"},
"geometry":{ "type": "Point", "coordinates": [-122.282398,47.337326]}},
{ "type": "Feature", "properties": {"Aberdeen city":"Lakeland South CDP","Washington":"Washington","WA":"WA"},
"geometry":{ "type": "Point", "coordinates": [-122.284667,47.276093]}},
{ "type": "Feature", "properties": {"Aberdeen city":"Lake McMurray CDP","Washington":"Washington","WA":"WA"},
"geometry":{ "type": "Point", "coordinates": [-122.233323,48.319344]}},
{ "type": "Feature", "properties": {"Aberdeen city":"Lake Marcel-Stillwater CDP","Washington":"Washington","WA":"WA"},
"geometry":{ "type": "Point", "coordinates": [-121.915104,47.695094]}},
{ "type": "Feature", "properties": {"Aberdeen city":"Lake Morton-Berrydale CDP","Washington":"Washington","WA":"WA"},
"geometry":{ "type": "Point", "coordinates": [-122.103959,47.332843]}},
{ "type": "Feature", "properties": {"Aberdeen city":"Lake Roesiger CDP","Washington":"Washington","WA":"WA"},
"geometry":{ "type": "Point", "coordinates": [-121.905068,47.975501]}},
{ "type": "Feature", "properties": {"Aberdeen city":"Lake Shore CDP","Washington":"Washington","WA":"WA"},
"geometry":{ "type": "Point", "coordinates": [-122.691183,45.691132]}},
{ "type": "Feature", "properties": {"Aberdeen city":"Lake Stevens city","Washington":"Washington","WA":"WA"},
"geometry":{ "type": "Point", "coordinates": [-122.096828,48.003405]}},
{ "type": "Feature", "properties": {"Aberdeen city":"Lake Stickney CDP","Washington":"Washington","WA":"WA"},
"geometry":{ "type": "Point", "coordinates": [-122.252761,47.875788]}},
{ "type": "Feature", "properties": {"Aberdeen city":"Lake Tapps CDP","Washington":"Washington","WA":"WA"},
"geometry":{ "type": "Point", "coordinates": [-122.171247,47.230707]}},
{ "type": "Feature", "properties": {"Aberdeen city":"Lakeview CDP","Washington":"Washington","WA":"WA"},
"geometry":{ "type": "Point", "coordinates": [-119.504282,47.375543]}},
{ "type": "Feature", "properties": {"Aberdeen city":"Lakewood city","Washington":"Washington","WA":"WA"},
"geometry":{ "type": "Point", "coordinates": [-122.528106,47.164092]}},
{ "type": "Feature", "properties": {"Aberdeen city":"Lamont town","Washington":"Washington","WA":"WA"},
"geometry":{ "type": "Point", "coordinates": [-117.904939,47.200687]}},
{ "type": "Feature", "properties": {"Aberdeen city":"Langley city","Washington":"Washington","WA":"WA"},
"geometry":{ "type": "Point", "coordinates": [-122.407122,48.037537]}},
{ "type": "Feature", "properties": {"Aberdeen city":"Larch Way CDP","Washington":"Washington","WA":"WA"},
"geometry":{ "type": "Point", "coordinates": [-122.252747,47.8429]}},
{ "type": "Feature", "properties": {"Aberdeen city":"Latah town","Washington":"Washington","WA":"WA"},
"geometry":{ "type": "Point", "coordinates": [-117.155753,47.282112]}},
{ "type": "Feature", "properties": {"Aberdeen city":"Laurier CDP","Washington":"Washington","WA":"WA"},
"geometry":{ "type": "Point", "coordinates": [-118.224786,48.997298]}},
{ "type": "Feature", "properties": {"Aberdeen city":"Leavenworth city","Washington":"Washington","WA":"WA"},
"geometry":{ "type": "Point", "coordinates": [-120.663913,47.594704]}},
{ "type": "Feature", "properties": {"Aberdeen city":"Lebam CDP","Washington":"Washington","WA":"WA"},
"geometry":{ "type": "Point", "coordinates": [-123.550888,46.564091]}},
{ "type": "Feature", "properties": {"Aberdeen city":"Lewisville CDP","Washington":"Washington","WA":"WA"},
"geometry":{ "type": "Point", "coordinates": [-122.508244,45.81652]}},
{ "type": "Feature", "properties": {"Aberdeen city":"Lexington CDP","Washington":"Washington","WA":"WA"},
"geometry":{ "type": "Point", "coordinates": [-122.912611,46.189403]}},
{ "type": "Feature", "properties": {"Aberdeen city":"Liberty Lake city","Washington":"Washington","WA":"WA"},
"geometry":{ "type": "Point", "coordinates": [-117.104201,47.668451]}},
{ "type": "Feature", "properties": {"Aberdeen city":"Lind town","Washington":"Washington","WA":"WA"},
"geometry":{ "type": "Point", "coordinates": [-118.616374,46.97034]}},
{ "type": "Feature", "properties": {"Aberdeen city":"Lochsloy CDP","Washington":"Washington","WA":"WA"},
"geometry":{ "type": "Point", "coordinates": [-122.041061,48.05971]}},
{ "type": "Feature", "properties": {"Aberdeen city":"Lofall CDP","Washington":"Washington","WA":"WA"},
"geometry":{ "type": "Point", "coordinates": [-122.652013,47.810462]}},
{ "type": "Feature", "properties": {"Aberdeen city":"Long Beach city","Washington":"Washington","WA":"WA"},
"geometry":{ "type": "Point", "coordinates": [-124.057812,46.361934]}},
{ "type": "Feature", "properties": {"Aberdeen city":"Longbranch CDP","Washington":"Washington","WA":"WA"},
"geometry":{ "type": "Point", "coordinates": [-122.766883,47.22356]}},
{ "type": "Feature", "properties": {"Aberdeen city":"Longview city","Washington":"Washington","WA":"WA"},
"geometry":{ "type": "Point", "coordinates": [-122.964299,46.145707]}},
{ "type": "Feature", "properties": {"Aberdeen city":"Longview Heights CDP","Washington":"Washington","WA":"WA"},
"geometry":{ "type": "Point", "coordinates": [-122.953633,46.179841]}},
{ "type": "Feature", "properties": {"Aberdeen city":"Loomis CDP","Washington":"Washington","WA":"WA"},
"geometry":{ "type": "Point", "coordinates": [-119.639746,48.823338]}},
{ "type": "Feature", "properties": {"Aberdeen city":"Loon Lake CDP","Washington":"Washington","WA":"WA"},
"geometry":{ "type": "Point", "coordinates": [-117.625702,48.070402]}},
{ "type": "Feature", "properties": {"Aberdeen city":"Lower Elochoman CDP","Washington":"Washington","WA":"WA"},
"geometry":{ "type": "Point", "coordinates": [-123.369811,46.2185]}},
{ "type": "Feature", "properties": {"Aberdeen city":"Lyle CDP","Washington":"Washington","WA":"WA"},
"geometry":{ "type": "Point", "coordinates": [-121.280533,45.69558]}},
{ "type": "Feature", "properties": {"Aberdeen city":"Lyman town","Washington":"Washington","WA":"WA"},
"geometry":{ "type": "Point", "coordinates": [-122.065597,48.523789]}},
{ "type": "Feature", "properties": {"Aberdeen city":"Lynden city","Washington":"Washington","WA":"WA"},
"geometry":{ "type": "Point", "coordinates": [-122.454803,48.94992]}},
{ "type": "Feature", "properties": {"Aberdeen city":"Lynnwood city","Washington":"Washington","WA":"WA"},
"geometry":{ "type": "Point", "coordinates": [-122.300672,47.828979]}},
{ "type": "Feature", "properties": {"Aberdeen city":"Mabton city","Washington":"Washington","WA":"WA"},
"geometry":{ "type": "Point", "coordinates": [-119.993912,46.211546]}},
{ "type": "Feature", "properties": {"Aberdeen city":"McChord AFB CDP","Washington":"Washington","WA":"WA"},
"geometry":{ "type": "Point", "coordinates": [-122.491857,47.132689]}},
{ "type": "Feature", "properties": {"Aberdeen city":"McCleary city","Washington":"Washington","WA":"WA"},
"geometry":{ "type": "Point", "coordinates": [-123.269646,47.058457]}},
{ "type": "Feature", "properties": {"Aberdeen city":"Machias CDP","Washington":"Washington","WA":"WA"},
"geometry":{ "type": "Point", "coordinates": [-122.05171,47.991805]}},
{ "type": "Feature", "properties": {"Aberdeen city":"McKenna CDP","Washington":"Washington","WA":"WA"},
"geometry":{ "type": "Point", "coordinates": [-122.549865,46.934723]}},
{ "type": "Feature", "properties": {"Aberdeen city":"McMillin CDP","Washington":"Washington","WA":"WA"},
"geometry":{ "type": "Point", "coordinates": [-122.235252,47.12597]}},
{ "type": "Feature", "properties": {"Aberdeen city":"Malden town","Washington":"Washington","WA":"WA"},
"geometry":{ "type": "Point", "coordinates": [-117.473136,47.22959]}},
{ "type": "Feature", "properties": {"Aberdeen city":"Malo CDP","Washington":"Washington","WA":"WA"},
"geometry":{ "type": "Point", "coordinates": [-118.611993,48.799684]}},
{ "type": "Feature", "properties": {"Aberdeen city":"Malone CDP","Washington":"Washington","WA":"WA"},
"geometry":{ "type": "Point", "coordinates": [-123.307427,46.974382]}},
{ "type": "Feature", "properties": {"Aberdeen city":"Malott CDP","Washington":"Washington","WA":"WA"},
"geometry":{ "type": "Point", "coordinates": [-119.695593,48.291819]}},
{ "type": "Feature", "properties": {"Aberdeen city":"Maltby CDP","Washington":"Washington","WA":"WA"},
"geometry":{ "type": "Point", "coordinates": [-122.106217,47.802086]}},
{ "type": "Feature", "properties": {"Aberdeen city":"Manchester CDP","Washington":"Washington","WA":"WA"},
"geometry":{ "type": "Point", "coordinates": [-122.541167,47.547094]}},
{ "type": "Feature", "properties": {"Aberdeen city":"Mansfield town","Washington":"Washington","WA":"WA"},
"geometry":{ "type": "Point", "coordinates": [-119.638003,47.8119]}},
{ "type": "Feature", "properties": {"Aberdeen city":"Manson CDP","Washington":"Washington","WA":"WA"},
"geometry":{ "type": "Point", "coordinates": [-120.162266,47.874317]}},
{ "type": "Feature", "properties": {"Aberdeen city":"Maple Falls CDP","Washington":"Washington","WA":"WA"},
"geometry":{ "type": "Point", "coordinates": [-122.091198,48.918771]}},
{ "type": "Feature", "properties": {"Aberdeen city":"Maple Heights-Lake Desire CDP","Washington":"Washington","WA":"WA"},
"geometry":{ "type": "Point", "coordinates": [-122.092968,47.436892]}},
{ "type": "Feature", "properties": {"Aberdeen city":"Maple Valley city","Washington":"Washington","WA":"WA"},
"geometry":{ "type": "Point", "coordinates": [-122.034815,47.367147]}},
{ "type": "Feature", "properties": {"Aberdeen city":"Maplewood CDP","Washington":"Washington","WA":"WA"},
"geometry":{ "type": "Point", "coordinates": [-122.56549,47.376389]}},
{ "type": "Feature", "properties": {"Aberdeen city":"Marblemount CDP","Washington":"Washington","WA":"WA"},
"geometry":{ "type": "Point", "coordinates": [-121.439591,48.541756]}},
{ "type": "Feature", "properties": {"Aberdeen city":"Marcus town","Washington":"Washington","WA":"WA"},
"geometry":{ "type": "Point", "coordinates": [-118.05997,48.664298]}},
{ "type": "Feature", "properties": {"Aberdeen city":"Marietta-Alderwood CDP","Washington":"Washington","WA":"WA"},
"geometry":{ "type": "Point", "coordinates": [-122.555162,48.788096]}},
{ "type": "Feature", "properties": {"Aberdeen city":"Marine View CDP","Washington":"Washington","WA":"WA"},
"geometry":{ "type": "Point", "coordinates": [-119.350795,46.963725]}},
{ "type": "Feature", "properties": {"Aberdeen city":"Markham CDP","Washington":"Washington","WA":"WA"},
"geometry":{ "type": "Point", "coordinates": [-123.987873,46.914157]}},
{ "type": "Feature", "properties": {"Aberdeen city":"Marrowstone CDP","Washington":"Washington","WA":"WA"},
"geometry":{ "type": "Point", "coordinates": [-122.684007,48.031999]}},
{ "type": "Feature", "properties": {"Aberdeen city":"Martha Lake CDP","Washington":"Washington","WA":"WA"},
"geometry":{ "type": "Point", "coordinates": [-122.233092,47.844726]}},
{ "type": "Feature", "properties": {"Aberdeen city":"Maryhill CDP","Washington":"Washington","WA":"WA"},
"geometry":{ "type": "Point", "coordinates": [-120.807159,45.692755]}},
{ "type": "Feature", "properties": {"Aberdeen city":"Marysville city","Washington":"Washington","WA":"WA"},
"geometry":{ "type": "Point", "coordinates": [-122.154312,48.080214]}},
{ "type": "Feature", "properties": {"Aberdeen city":"Mattawa city","Washington":"Washington","WA":"WA"},
"geometry":{ "type": "Point", "coordinates": [-119.905376,46.736444]}},
{ "type": "Feature", "properties": {"Aberdeen city":"May Creek CDP","Washington":"Washington","WA":"WA"},
"geometry":{ "type": "Point", "coordinates": [-121.674311,47.85554]}},
{ "type": "Feature", "properties": {"Aberdeen city":"Mead CDP","Washington":"Washington","WA":"WA"},
"geometry":{ "type": "Point", "coordinates": [-117.349944,47.779527]}},
{ "type": "Feature", "properties": {"Aberdeen city":"Meadowdale CDP","Washington":"Washington","WA":"WA"},
"geometry":{ "type": "Point", "coordinates": [-122.323418,47.860638]}},
{ "type": "Feature", "properties": {"Aberdeen city":"Meadow Glade CDP","Washington":"Washington","WA":"WA"},
"geometry":{ "type": "Point", "coordinates": [-122.561452,45.752329]}},
{ "type": "Feature", "properties": {"Aberdeen city":"Medical Lake city","Washington":"Washington","WA":"WA"},
"geometry":{ "type": "Point", "coordinates": [-117.68945,47.571039]}},
{ "type": "Feature", "properties": {"Aberdeen city":"Medina city","Washington":"Washington","WA":"WA"},
"geometry":{ "type": "Point", "coordinates": [-122.242866,47.626541]}},
{ "type": "Feature", "properties": {"Aberdeen city":"Mercer Island city","Washington":"Washington","WA":"WA"},
"geometry":{ "type": "Point", "coordinates": [-122.231214,47.564004]}},
{ "type": "Feature", "properties": {"Aberdeen city":"Mesa city","Washington":"Washington","WA":"WA"},
"geometry":{ "type": "Point", "coordinates": [-119.001318,46.573488]}},
{ "type": "Feature", "properties": {"Aberdeen city":"Metaline town","Washington":"Washington","WA":"WA"},
"geometry":{ "type": "Point", "coordinates": [-117.38702,48.852336]}},
{ "type": "Feature", "properties": {"Aberdeen city":"Metaline Falls town","Washington":"Washington","WA":"WA"},
"geometry":{ "type": "Point", "coordinates": [-117.371892,48.861295]}},
{ "type": "Feature", "properties": {"Aberdeen city":"Methow CDP","Washington":"Washington","WA":"WA"},
"geometry":{ "type": "Point", "coordinates": [-120.005197,48.131075]}},
{ "type": "Feature", "properties": {"Aberdeen city":"Midland CDP","Washington":"Washington","WA":"WA"},
"geometry":{ "type": "Point", "coordinates": [-122.41202,47.173406]}},
{ "type": "Feature", "properties": {"Aberdeen city":"Mill Creek city","Washington":"Washington","WA":"WA"},
"geometry":{ "type": "Point", "coordinates": [-122.210598,47.865188]}},
{ "type": "Feature", "properties": {"Aberdeen city":"Mill Creek East CDP","Washington":"Washington","WA":"WA"},
"geometry":{ "type": "Point", "coordinates": [-122.187681,47.836054]}},
{ "type": "Feature", "properties": {"Aberdeen city":"Millwood city","Washington":"Washington","WA":"WA"},
"geometry":{ "type": "Point", "coordinates": [-117.280079,47.685566]}},
{ "type": "Feature", "properties": {"Aberdeen city":"Milton city","Washington":"Washington","WA":"WA"},
"geometry":{ "type": "Point", "coordinates": [-122.317289,47.251994]}},
{ "type": "Feature", "properties": {"Aberdeen city":"Mineral CDP","Washington":"Washington","WA":"WA"},
"geometry":{ "type": "Point", "coordinates": [-122.185993,46.719299]}},
{ "type": "Feature", "properties": {"Aberdeen city":"Minnehaha CDP","Washington":"Washington","WA":"WA"},
"geometry":{ "type": "Point", "coordinates": [-122.61789,45.656517]}},
{ "type": "Feature", "properties": {"Aberdeen city":"Mirrormont CDP","Washington":"Washington","WA":"WA"},
"geometry":{ "type": "Point", "coordinates": [-121.990205,47.460218]}},
{ "type": "Feature", "properties": {"Aberdeen city":"Moclips CDP","Washington":"Washington","WA":"WA"},
"geometry":{ "type": "Point", "coordinates": [-124.198456,47.229431]}},
{ "type": "Feature", "properties": {"Aberdeen city":"Monroe city","Washington":"Washington","WA":"WA"},
"geometry":{ "type": "Point", "coordinates": [-121.984013,47.859792]}},
{ "type": "Feature", "properties": {"Aberdeen city":"Monroe North CDP","Washington":"Washington","WA":"WA"},
"geometry":{ "type": "Point", "coordinates": [-121.988546,47.882808]}},
{ "type": "Feature", "properties": {"Aberdeen city":"Montesano city","Washington":"Washington","WA":"WA"},
"geometry":{ "type": "Point", "coordinates": [-123.585711,47.014726]}},
{ "type": "Feature", "properties": {"Aberdeen city":"Morton city","Washington":"Washington","WA":"WA"},
"geometry":{ "type": "Point", "coordinates": [-122.281449,46.557382]}},
{ "type": "Feature", "properties": {"Aberdeen city":"Moses Lake city","Washington":"Washington","WA":"WA"},
"geometry":{ "type": "Point", "coordinates": [-119.276384,47.12785]}},
{ "type": "Feature", "properties": {"Aberdeen city":"Moses Lake North CDP","Washington":"Washington","WA":"WA"},
"geometry":{ "type": "Point", "coordinates": [-119.317775,47.194955]}},
{ "type": "Feature", "properties": {"Aberdeen city":"Mossyrock city","Washington":"Washington","WA":"WA"},
"geometry":{ "type": "Point", "coordinates": [-122.488679,46.530491]}},
{ "type": "Feature", "properties": {"Aberdeen city":"Mountlake Terrace city","Washington":"Washington","WA":"WA"},
"geometry":{ "type": "Point", "coordinates": [-122.302607,47.794329]}},
{ "type": "Feature", "properties": {"Aberdeen city":"Mount Vernon city","Washington":"Washington","WA":"WA"},
"geometry":{ "type": "Point", "coordinates": [-122.311832,48.417071]}},
{ "type": "Feature", "properties": {"Aberdeen city":"Mount Vista CDP","Washington":"Washington","WA":"WA"},
"geometry":{ "type": "Point", "coordinates": [-122.631565,45.737288]}},
{ "type": "Feature", "properties": {"Aberdeen city":"Moxee city","Washington":"Washington","WA":"WA"},
"geometry":{ "type": "Point", "coordinates": [-120.396581,46.563966]}},
{ "type": "Feature", "properties": {"Aberdeen city":"Mukilteo city","Washington":"Washington","WA":"WA"},
"geometry":{ "type": "Point", "coordinates": [-122.302253,47.913018]}},
{ "type": "Feature", "properties": {"Aberdeen city":"Naches town","Washington":"Washington","WA":"WA"},
"geometry":{ "type": "Point", "coordinates": [-120.691208,46.725985]}},
{ "type": "Feature", "properties": {"Aberdeen city":"Napavine city","Washington":"Washington","WA":"WA"},
"geometry":{ "type": "Point", "coordinates": [-122.902031,46.586796]}},
{ "type": "Feature", "properties": {"Aberdeen city":"Naselle CDP","Washington":"Washington","WA":"WA"},
"geometry":{ "type": "Point", "coordinates": [-123.781565,46.370501]}},
{ "type": "Feature", "properties": {"Aberdeen city":"Navy Yard City CDP","Washington":"Washington","WA":"WA"},
"geometry":{ "type": "Point", "coordinates": [-122.662454,47.552965]}},
{ "type": "Feature", "properties": {"Aberdeen city":"Neah Bay CDP","Washington":"Washington","WA":"WA"},
"geometry":{ "type": "Point", "coordinates": [-124.611559,48.360963]}},
{ "type": "Feature", "properties": {"Aberdeen city":"Neilton CDP","Washington":"Washington","WA":"WA"},
"geometry":{ "type": "Point", "coordinates": [-123.878202,47.403121]}},
{ "type": "Feature", "properties": {"Aberdeen city":"Nespelem town","Washington":"Washington","WA":"WA"},
"geometry":{ "type": "Point", "coordinates": [-118.972115,48.166906]}},
{ "type": "Feature", "properties": {"Aberdeen city":"Nespelem Community CDP","Washington":"Washington","WA":"WA"},
"geometry":{ "type": "Point", "coordinates": [-119.048694,48.162461]}},
{ "type": "Feature", "properties": {"Aberdeen city":"Newcastle city","Washington":"Washington","WA":"WA"},
"geometry":{ "type": "Point", "coordinates": [-122.165582,47.531486]}},
{ "type": "Feature", "properties": {"Aberdeen city":"Newport city","Washington":"Washington","WA":"WA"},
"geometry":{ "type": "Point", "coordinates": [-117.054641,48.178221]}},
{ "type": "Feature", "properties": {"Aberdeen city":"Nile CDP","Washington":"Washington","WA":"WA"},
"geometry":{ "type": "Point", "coordinates": [-120.943753,46.834868]}},
{ "type": "Feature", "properties": {"Aberdeen city":"Nisqually Indian Community CDP","Washington":"Washington","WA":"WA"},
"geometry":{ "type": "Point", "coordinates": [-122.680389,47.029128]}},
{ "type": "Feature", "properties": {"Aberdeen city":"Nooksack city","Washington":"Washington","WA":"WA"},
"geometry":{ "type": "Point", "coordinates": [-122.317512,48.928112]}},
{ "type": "Feature", "properties": {"Aberdeen city":"Normandy Park city","Washington":"Washington","WA":"WA"},
"geometry":{ "type": "Point", "coordinates": [-122.344689,47.432975]}},
{ "type": "Feature", "properties": {"Aberdeen city":"North Bend city","Washington":"Washington","WA":"WA"},
"geometry":{ "type": "Point", "coordinates": [-121.768786,47.487967]}},
{ "type": "Feature", "properties": {"Aberdeen city":"North Bonneville city","Washington":"Washington","WA":"WA"},
"geometry":{ "type": "Point", "coordinates": [-121.972748,45.641393]}},
{ "type": "Feature", "properties": {"Aberdeen city":"North Fort Lewis CDP","Washington":"Washington","WA":"WA"},
"geometry":{ "type": "Point", "coordinates": [-122.594551,47.1213]}},
{ "type": "Feature", "properties": {"Aberdeen city":"North Lynnwood CDP","Washington":"Washington","WA":"WA"},
"geometry":{ "type": "Point", "coordinates": [-122.276265,47.853329]}},
{ "type": "Feature", "properties": {"Aberdeen city":"North Omak CDP","Washington":"Washington","WA":"WA"},
"geometry":{ "type": "Point", "coordinates": [-119.445839,48.443955]}},
{ "type": "Feature", "properties": {"Aberdeen city":"Northport town","Washington":"Washington","WA":"WA"},
"geometry":{ "type": "Point", "coordinates": [-117.779696,48.915792]}},
{ "type": "Feature", "properties": {"Aberdeen city":"North Puyallup CDP","Washington":"Washington","WA":"WA"},
"geometry":{ "type": "Point", "coordinates": [-122.278444,47.198898]}},
{ "type": "Feature", "properties": {"Aberdeen city":"North Sultan CDP","Washington":"Washington","WA":"WA"},
"geometry":{ "type": "Point", "coordinates": [-121.822949,47.88274]}},
{ "type": "Feature", "properties": {"Aberdeen city":"Northwest Stanwood CDP","Washington":"Washington","WA":"WA"},
"geometry":{ "type": "Point", "coordinates": [-122.350122,48.262304]}},
{ "type": "Feature", "properties": {"Aberdeen city":"North Yelm CDP","Washington":"Washington","WA":"WA"},
"geometry":{ "type": "Point", "coordinates": [-122.613633,46.966074]}},
{ "type": "Feature", "properties": {"Aberdeen city":"Oakesdale town","Washington":"Washington","WA":"WA"},
"geometry":{ "type": "Point", "coordinates": [-117.24644,47.13047]}},
{ "type": "Feature", "properties": {"Aberdeen city":"Oak Harbor city","Washington":"Washington","WA":"WA"},
"geometry":{ "type": "Point", "coordinates": [-122.628154,48.293832]}},
{ "type": "Feature", "properties": {"Aberdeen city":"Oakville city","Washington":"Washington","WA":"WA"},
"geometry":{ "type": "Point", "coordinates": [-123.233507,46.840116]}},
{ "type": "Feature", "properties": {"Aberdeen city":"Ocean City CDP","Washington":"Washington","WA":"WA"},
"geometry":{ "type": "Point", "coordinates": [-124.156919,47.082471]}},
{ "type": "Feature", "properties": {"Aberdeen city":"Ocean Park CDP","Washington":"Washington","WA":"WA"},
"geometry":{ "type": "Point", "coordinates": [-124.041381,46.496743]}},
{ "type": "Feature", "properties": {"Aberdeen city":"Ocean Shores city","Washington":"Washington","WA":"WA"},
"geometry":{ "type": "Point", "coordinates": [-124.147207,46.965362]}},
{ "type": "Feature", "properties": {"Aberdeen city":"Ocosta CDP","Washington":"Washington","WA":"WA"},
"geometry":{ "type": "Point", "coordinates": [-124.032505,46.885532]}},
{ "type": "Feature", "properties": {"Aberdeen city":"Odessa town","Washington":"Washington","WA":"WA"},
"geometry":{ "type": "Point", "coordinates": [-118.689445,47.332599]}},
{ "type": "Feature", "properties": {"Aberdeen city":"Okanogan city","Washington":"Washington","WA":"WA"},
"geometry":{ "type": "Point", "coordinates": [-119.578768,48.367273]}},
{ "type": "Feature", "properties": {"Aberdeen city":"Olympia city","Washington":"Washington","WA":"WA"},
"geometry":{ "type": "Point", "coordinates": [-122.895,47.040604]}},
{ "type": "Feature", "properties": {"Aberdeen city":"Omak city","Washington":"Washington","WA":"WA"},
"geometry":{ "type": "Point", "coordinates": [-119.530623,48.422338]}},
{ "type": "Feature", "properties": {"Aberdeen city":"Onalaska CDP","Washington":"Washington","WA":"WA"},
"geometry":{ "type": "Point", "coordinates": [-122.711139,46.578224]}},
{ "type": "Feature", "properties": {"Aberdeen city":"Orchards CDP","Washington":"Washington","WA":"WA"},
"geometry":{ "type": "Point", "coordinates": [-122.530621,45.688975]}},
{ "type": "Feature", "properties": {"Aberdeen city":"Orient CDP","Washington":"Washington","WA":"WA"},
"geometry":{ "type": "Point", "coordinates": [-118.205898,48.863766]}},
{ "type": "Feature", "properties": {"Aberdeen city":"Oroville city","Washington":"Washington","WA":"WA"},
"geometry":{ "type": "Point", "coordinates": [-119.429969,48.946951]}},
{ "type": "Feature", "properties": {"Aberdeen city":"Orting city","Washington":"Washington","WA":"WA"},
"geometry":{ "type": "Point", "coordinates": [-122.211687,47.096936]}},
{ "type": "Feature", "properties": {"Aberdeen city":"Oso CDP","Washington":"Washington","WA":"WA"},
"geometry":{ "type": "Point", "coordinates": [-121.91624,48.283764]}},
{ "type": "Feature", "properties": {"Aberdeen city":"Othello city","Washington":"Washington","WA":"WA"},
"geometry":{ "type": "Point", "coordinates": [-119.165272,46.822136]}},
{ "type": "Feature", "properties": {"Aberdeen city":"Otis Orchards-East Farms CDP","Washington":"Washington","WA":"WA"},
"geometry":{ "type": "Point", "coordinates": [-117.08515,47.704932]}},
{ "type": "Feature", "properties": {"Aberdeen city":"Outlook CDP","Washington":"Washington","WA":"WA"},
"geometry":{ "type": "Point", "coordinates": [-120.092812,46.331153]}},
{ "type": "Feature", "properties": {"Aberdeen city":"Oyehut CDP","Washington":"Washington","WA":"WA"},
"geometry":{ "type": "Point", "coordinates": [-124.165177,47.022589]}},
{ "type": "Feature", "properties": {"Aberdeen city":"Pacific city","Washington":"Washington","WA":"WA"},
"geometry":{ "type": "Point", "coordinates": [-122.252429,47.261974]}},
{ "type": "Feature", "properties": {"Aberdeen city":"Pacific Beach CDP","Washington":"Washington","WA":"WA"},
"geometry":{ "type": "Point", "coordinates": [-124.196854,47.214135]}},
{ "type": "Feature", "properties": {"Aberdeen city":"Packwood CDP","Washington":"Washington","WA":"WA"},
"geometry":{ "type": "Point", "coordinates": [-121.670252,46.608524]}},
{ "type": "Feature", "properties": {"Aberdeen city":"Palouse city","Washington":"Washington","WA":"WA"},
"geometry":{ "type": "Point", "coordinates": [-117.075207,46.910326]}},
{ "type": "Feature", "properties": {"Aberdeen city":"Parker CDP","Washington":"Washington","WA":"WA"},
"geometry":{ "type": "Point", "coordinates": [-120.466813,46.502157]}},
{ "type": "Feature", "properties": {"Aberdeen city":"Parkland CDP","Washington":"Washington","WA":"WA"},
"geometry":{ "type": "Point", "coordinates": [-122.437837,47.141529]}},
{ "type": "Feature", "properties": {"Aberdeen city":"Parkwood CDP","Washington":"Washington","WA":"WA"},
"geometry":{ "type": "Point", "coordinates": [-122.604375,47.525175]}},
{ "type": "Feature", "properties": {"Aberdeen city":"Pasco city","Washington":"Washington","WA":"WA"},
"geometry":{ "type": "Point", "coordinates": [-119.12907,46.250289]}},
{ "type": "Feature", "properties": {"Aberdeen city":"Pataha CDP","Washington":"Washington","WA":"WA"},
"geometry":{ "type": "Point", "coordinates": [-117.544255,46.472674]}},
{ "type": "Feature", "properties": {"Aberdeen city":"Pateros city","Washington":"Washington","WA":"WA"},
"geometry":{ "type": "Point", "coordinates": [-119.900331,48.053094]}},
{ "type": "Feature", "properties": {"Aberdeen city":"Peaceful Valley CDP","Washington":"Washington","WA":"WA"},
"geometry":{ "type": "Point", "coordinates": [-122.148325,48.951001]}},
{ "type": "Feature", "properties": {"Aberdeen city":"Pe Ell town","Washington":"Washington","WA":"WA"},
"geometry":{ "type": "Point", "coordinates": [-123.298311,46.571314]}},
{ "type": "Feature", "properties": {"Aberdeen city":"Picnic Point CDP","Washington":"Washington","WA":"WA"},
"geometry":{ "type": "Point", "coordinates": [-122.308295,47.876457]}},
{ "type": "Feature", "properties": {"Aberdeen city":"Pine Grove CDP","Washington":"Washington","WA":"WA"},
"geometry":{ "type": "Point", "coordinates": [-118.683784,48.650161]}},
{ "type": "Feature", "properties": {"Aberdeen city":"Point Roberts CDP","Washington":"Washington","WA":"WA"},
"geometry":{ "type": "Point", "coordinates": [-123.059496,48.984669]}},
{ "type": "Feature", "properties": {"Aberdeen city":"Pomeroy city","Washington":"Washington","WA":"WA"},
"geometry":{ "type": "Point", "coordinates": [-117.596541,46.47376]}},
{ "type": "Feature", "properties": {"Aberdeen city":"Port Angeles city","Washington":"Washington","WA":"WA"},
"geometry":{ "type": "Point", "coordinates": [-123.448013,48.119236]}},
{ "type": "Feature", "properties": {"Aberdeen city":"Port Angeles East CDP","Washington":"Washington","WA":"WA"},
"geometry":{ "type": "Point", "coordinates": [-123.367131,48.109718]}},
{ "type": "Feature", "properties": {"Aberdeen city":"Porter CDP","Washington":"Washington","WA":"WA"},
"geometry":{ "type": "Point", "coordinates": [-123.280249,46.948728]}},
{ "type": "Feature", "properties": {"Aberdeen city":"Port Gamble Tribal Community CDP","Washington":"Washington","WA":"WA"},
"geometry":{ "type": "Point", "coordinates": [-122.557353,47.846162]}},
{ "type": "Feature", "properties": {"Aberdeen city":"Port Hadlock-Irondale CDP","Washington":"Washington","WA":"WA"},
"geometry":{ "type": "Point", "coordinates": [-122.791449,48.032782]}},
{ "type": "Feature", "properties": {"Aberdeen city":"Port Ludlow CDP","Washington":"Washington","WA":"WA"},
"geometry":{ "type": "Point", "coordinates": [-122.695066,47.914582]}},
{ "type": "Feature", "properties": {"Aberdeen city":"Port Orchard city","Washington":"Washington","WA":"WA"},
"geometry":{ "type": "Point", "coordinates": [-122.632431,47.538443]}},
{ "type": "Feature", "properties": {"Aberdeen city":"Port Townsend city","Washington":"Washington","WA":"WA"},
"geometry":{ "type": "Point", "coordinates": [-122.787876,48.121762]}},
{ "type": "Feature", "properties": {"Aberdeen city":"Poulsbo city","Washington":"Washington","WA":"WA"},
"geometry":{ "type": "Point", "coordinates": [-122.642152,47.741076]}},
{ "type": "Feature", "properties": {"Aberdeen city":"Prairie Heights CDP","Washington":"Washington","WA":"WA"},
"geometry":{ "type": "Point", "coordinates": [-122.109161,47.149653]}},
{ "type": "Feature", "properties": {"Aberdeen city":"Prairie Ridge CDP","Washington":"Washington","WA":"WA"},
"geometry":{ "type": "Point", "coordinates": [-122.139243,47.144388]}},
{ "type": "Feature", "properties": {"Aberdeen city":"Prescott city","Washington":"Washington","WA":"WA"},
"geometry":{ "type": "Point", "coordinates": [-118.312553,46.298834]}},
{ "type": "Feature", "properties": {"Aberdeen city":"Prosser city","Washington":"Washington","WA":"WA"},
"geometry":{ "type": "Point", "coordinates": [-119.765366,46.206551]}},
{ "type": "Feature", "properties": {"Aberdeen city":"Puget Island CDP","Washington":"Washington","WA":"WA"},
"geometry":{ "type": "Point", "coordinates": [-123.381854,46.175652]}},
{ "type": "Feature", "properties": {"Aberdeen city":"Pullman city","Washington":"Washington","WA":"WA"},
"geometry":{ "type": "Point", "coordinates": [-117.168277,46.733126]}},
{ "type": "Feature", "properties": {"Aberdeen city":"Purdy CDP","Washington":"Washington","WA":"WA"},
"geometry":{ "type": "Point", "coordinates": [-122.604598,47.396473]}},
{ "type": "Feature", "properties": {"Aberdeen city":"Puyallup city","Washington":"Washington","WA":"WA"},
"geometry":{ "type": "Point", "coordinates": [-122.291523,47.179046]}},
{ "type": "Feature", "properties": {"Aberdeen city":"Queets CDP","Washington":"Washington","WA":"WA"},
"geometry":{ "type": "Point", "coordinates": [-124.344762,47.526341]}},
{ "type": "Feature", "properties": {"Aberdeen city":"Quilcene CDP","Washington":"Washington","WA":"WA"},
"geometry":{ "type": "Point", "coordinates": [-122.91226,47.839248]}},
{ "type": "Feature", "properties": {"Aberdeen city":"Qui-nai-elt Village CDP","Washington":"Washington","WA":"WA"},
"geometry":{ "type": "Point", "coordinates": [-124.190175,47.250201]}},
{ "type": "Feature", "properties": {"Aberdeen city":"Quincy city","Washington":"Washington","WA":"WA"},
"geometry":{ "type": "Point", "coordinates": [-119.8525,47.234905]}},
{ "type": "Feature", "properties": {"Aberdeen city":"Raft Island CDP","Washington":"Washington","WA":"WA"},
"geometry":{ "type": "Point", "coordinates": [-122.667306,47.328216]}},
{ "type": "Feature", "properties": {"Aberdeen city":"Rainier city","Washington":"Washington","WA":"WA"},
"geometry":{ "type": "Point", "coordinates": [-122.686536,46.89167]}},
{ "type": "Feature", "properties": {"Aberdeen city":"Ravensdale CDP","Washington":"Washington","WA":"WA"},
"geometry":{ "type": "Point", "coordinates": [-121.980407,47.361865]}},
{ "type": "Feature", "properties": {"Aberdeen city":"Raymond city","Washington":"Washington","WA":"WA"},
"geometry":{ "type": "Point", "coordinates": [-123.739507,46.683742]}},
{ "type": "Feature", "properties": {"Aberdeen city":"Reardan town","Washington":"Washington","WA":"WA"},
"geometry":{ "type": "Point", "coordinates": [-117.878575,47.670094]}},
{ "type": "Feature", "properties": {"Aberdeen city":"Redmond city","Washington":"Washington","WA":"WA"},
"geometry":{ "type": "Point", "coordinates": [-122.115336,47.677924]}},
{ "type": "Feature", "properties": {"Aberdeen city":"Renton city","Washington":"Washington","WA":"WA"},
"geometry":{ "type": "Point", "coordinates": [-122.194613,47.47919]}},
{ "type": "Feature", "properties": {"Aberdeen city":"Republic city","Washington":"Washington","WA":"WA"},
"geometry":{ "type": "Point", "coordinates": [-118.733024,48.64882]}},
{ "type": "Feature", "properties": {"Aberdeen city":"Richland city","Washington":"Washington","WA":"WA"},
"geometry":{ "type": "Point", "coordinates": [-119.292247,46.281588]}},
{ "type": "Feature", "properties": {"Aberdeen city":"Ridgefield city","Washington":"Washington","WA":"WA"},
"geometry":{ "type": "Point", "coordinates": [-122.70546,45.811605]}},
{ "type": "Feature", "properties": {"Aberdeen city":"Ritzville city","Washington":"Washington","WA":"WA"},
"geometry":{ "type": "Point", "coordinates": [-118.375351,47.123059]}},
{ "type": "Feature", "properties": {"Aberdeen city":"Riverbend CDP","Washington":"Washington","WA":"WA"},
"geometry":{ "type": "Point", "coordinates": [-121.751156,47.464458]}},
{ "type": "Feature", "properties": {"Aberdeen city":"Riverpoint CDP","Washington":"Washington","WA":"WA"},
"geometry":{ "type": "Point", "coordinates": [-121.712389,47.479708]}},
{ "type": "Feature", "properties": {"Aberdeen city":"River Road CDP","Washington":"Washington","WA":"WA"},
"geometry":{ "type": "Point", "coordinates": [-123.127617,48.067697]}},
{ "type": "Feature", "properties": {"Aberdeen city":"Riverside town","Washington":"Washington","WA":"WA"},
"geometry":{ "type": "Point", "coordinates": [-119.515666,48.512937]}},
{ "type": "Feature", "properties": {"Aberdeen city":"Roche Harbor CDP","Washington":"Washington","WA":"WA"},
"geometry":{ "type": "Point", "coordinates": [-123.130616,48.607398]}},
{ "type": "Feature", "properties": {"Aberdeen city":"Rochester CDP","Washington":"Washington","WA":"WA"},
"geometry":{ "type": "Point", "coordinates": [-123.064253,46.820368]}},
{ "type": "Feature", "properties": {"Aberdeen city":"Rockford town","Washington":"Washington","WA":"WA"},
"geometry":{ "type": "Point", "coordinates": [-117.130627,47.451474]}},
{ "type": "Feature", "properties": {"Aberdeen city":"Rock Island city","Washington":"Washington","WA":"WA"},
"geometry":{ "type": "Point", "coordinates": [-120.142076,47.373167]}},
{ "type": "Feature", "properties": {"Aberdeen city":"Rockport CDP","Washington":"Washington","WA":"WA"},
"geometry":{ "type": "Point", "coordinates": [-121.607522,48.484737]}},
{ "type": "Feature", "properties": {"Aberdeen city":"Rocky Point CDP","Washington":"Washington","WA":"WA"},
"geometry":{ "type": "Point", "coordinates": [-122.666067,47.594091]}},
{ "type": "Feature", "properties": {"Aberdeen city":"Ronald CDP","Washington":"Washington","WA":"WA"},
"geometry":{ "type": "Point", "coordinates": [-121.033478,47.233754]}},
{ "type": "Feature", "properties": {"Aberdeen city":"Roosevelt CDP","Washington":"Washington","WA":"WA"},
"geometry":{ "type": "Point", "coordinates": [-120.236579,45.733056]}},
{ "type": "Feature", "properties": {"Aberdeen city":"Rosalia town","Washington":"Washington","WA":"WA"},
"geometry":{ "type": "Point", "coordinates": [-117.376477,47.236287]}},
{ "type": "Feature", "properties": {"Aberdeen city":"Rosburg CDP","Washington":"Washington","WA":"WA"},
"geometry":{ "type": "Point", "coordinates": [-123.643466,46.308133]}},
{ "type": "Feature", "properties": {"Aberdeen city":"Rosedale CDP","Washington":"Washington","WA":"WA"},
"geometry":{ "type": "Point", "coordinates": [-122.632544,47.341315]}},
{ "type": "Feature", "properties": {"Aberdeen city":"Roslyn city","Washington":"Washington","WA":"WA"},
"geometry":{ "type": "Point", "coordinates": [-121.141205,47.27003]}},
{ "type": "Feature", "properties": {"Aberdeen city":"Roy city","Washington":"Washington","WA":"WA"},
"geometry":{ "type": "Point", "coordinates": [-122.540975,46.989941]}},
{ "type": "Feature", "properties": {"Aberdeen city":"Royal City city","Washington":"Washington","WA":"WA"},
"geometry":{ "type": "Point", "coordinates": [-119.620741,46.901898]}},
{ "type": "Feature", "properties": {"Aberdeen city":"Ruston city","Washington":"Washington","WA":"WA"},
"geometry":{ "type": "Point", "coordinates": [-122.511769,47.297997]}},
{ "type": "Feature", "properties": {"Aberdeen city":"Ryderwood CDP","Washington":"Washington","WA":"WA"},
"geometry":{ "type": "Point", "coordinates": [-123.044179,46.374868]}},
{ "type": "Feature", "properties": {"Aberdeen city":"St. John town","Washington":"Washington","WA":"WA"},
"geometry":{ "type": "Point", "coordinates": [-117.588687,47.091474]}},
{ "type": "Feature", "properties": {"Aberdeen city":"Salmon Creek CDP","Washington":"Washington","WA":"WA"},
"geometry":{ "type": "Point", "coordinates": [-122.663207,45.709916]}},
{ "type": "Feature", "properties": {"Aberdeen city":"Sammamish city","Washington":"Washington","WA":"WA"},
"geometry":{ "type": "Point", "coordinates": [-122.038081,47.594268]}},
{ "type": "Feature", "properties": {"Aberdeen city":"Santiago CDP","Washington":"Washington","WA":"WA"},
"geometry":{ "type": "Point", "coordinates": [-124.231962,47.2988]}},
{ "type": "Feature", "properties": {"Aberdeen city":"Satsop CDP","Washington":"Washington","WA":"WA"},
"geometry":{ "type": "Point", "coordinates": [-123.483009,47.022858]}},
{ "type": "Feature", "properties": {"Aberdeen city":"Schwana CDP","Washington":"Washington","WA":"WA"},
"geometry":{ "type": "Point", "coordinates": [-119.923336,46.822086]}},
{ "type": "Feature", "properties": {"Aberdeen city":"Seabeck CDP","Washington":"Washington","WA":"WA"},
"geometry":{ "type": "Point", "coordinates": [-122.817973,47.644263]}},
{ "type": "Feature", "properties": {"Aberdeen city":"SeaTac city","Washington":"Washington","WA":"WA"},
"geometry":{ "type": "Point", "coordinates": [-122.298287,47.443403]}},
{ "type": "Feature", "properties": {"Aberdeen city":"Seattle city","Washington":"Washington","WA":"WA"},
"geometry":{ "type": "Point", "coordinates": [-122.351538,47.619335]}},
{ "type": "Feature", "properties": {"Aberdeen city":"Sedro-Woolley city","Washington":"Washington","WA":"WA"},
"geometry":{ "type": "Point", "coordinates": [-122.232162,48.511221]}},
{ "type": "Feature", "properties": {"Aberdeen city":"Sekiu CDP","Washington":"Washington","WA":"WA"},
"geometry":{ "type": "Point", "coordinates": [-124.303469,48.262998]}},
{ "type": "Feature", "properties": {"Aberdeen city":"Selah city","Washington":"Washington","WA":"WA"},
"geometry":{ "type": "Point", "coordinates": [-120.538257,46.645856]}},
{ "type": "Feature", "properties": {"Aberdeen city":"Sequim city","Washington":"Washington","WA":"WA"},
"geometry":{ "type": "Point", "coordinates": [-123.087809,48.073688]}},
{ "type": "Feature", "properties": {"Aberdeen city":"Shadow Lake CDP","Washington":"Washington","WA":"WA"},
"geometry":{ "type": "Point", "coordinates": [-122.079873,47.406058]}},
{ "type": "Feature", "properties": {"Aberdeen city":"Shelton city","Washington":"Washington","WA":"WA"},
"geometry":{ "type": "Point", "coordinates": [-123.11119,47.218912]}},
{ "type": "Feature", "properties": {"Aberdeen city":"Shoreline city","Washington":"Washington","WA":"WA"},
"geometry":{ "type": "Point", "coordinates": [-122.345505,47.756917]}},
{ "type": "Feature", "properties": {"Aberdeen city":"Silvana CDP","Washington":"Washington","WA":"WA"},
"geometry":{ "type": "Point", "coordinates": [-122.245761,48.201849]}},
{ "type": "Feature", "properties": {"Aberdeen city":"Silverdale CDP","Washington":"Washington","WA":"WA"},
"geometry":{ "type": "Point", "coordinates": [-122.681851,47.667733]}},
{ "type": "Feature", "properties": {"Aberdeen city":"Silver Firs CDP","Washington":"Washington","WA":"WA"},
"geometry":{ "type": "Point", "coordinates": [-122.149716,47.863505]}},
{ "type": "Feature", "properties": {"Aberdeen city":"Sisco Heights CDP","Washington":"Washington","WA":"WA"},
"geometry":{ "type": "Point", "coordinates": [-122.110596,48.118012]}},
{ "type": "Feature", "properties": {"Aberdeen city":"Skamokawa Valley CDP","Washington":"Washington","WA":"WA"},
"geometry":{ "type": "Point", "coordinates": [-123.401371,46.315241]}},
{ "type": "Feature", "properties": {"Aberdeen city":"Skokomish CDP","Washington":"Washington","WA":"WA"},
"geometry":{ "type": "Point", "coordinates": [-123.1588,47.328343]}},
{ "type": "Feature", "properties": {"Aberdeen city":"Skykomish town","Washington":"Washington","WA":"WA"},
"geometry":{ "type": "Point", "coordinates": [-121.356448,47.709852]}},
{ "type": "Feature", "properties": {"Aberdeen city":"Snohomish city","Washington":"Washington","WA":"WA"},
"geometry":{ "type": "Point", "coordinates": [-122.092684,47.928866]}},
{ "type": "Feature", "properties": {"Aberdeen city":"Snoqualmie city","Washington":"Washington","WA":"WA"},
"geometry":{ "type": "Point", "coordinates": [-121.868645,47.543245]}},
{ "type": "Feature", "properties": {"Aberdeen city":"Snoqualmie Pass CDP","Washington":"Washington","WA":"WA"},
"geometry":{ "type": "Point", "coordinates": [-121.410987,47.401408]}},
{ "type": "Feature", "properties": {"Aberdeen city":"Soap Lake city","Washington":"Washington","WA":"WA"},
"geometry":{ "type": "Point", "coordinates": [-119.484608,47.391092]}},
{ "type": "Feature", "properties": {"Aberdeen city":"South Bend city","Washington":"Washington","WA":"WA"},
"geometry":{ "type": "Point", "coordinates": [-123.801846,46.669889]}},
{ "type": "Feature", "properties": {"Aberdeen city":"South Cle Elum town","Washington":"Washington","WA":"WA"},
"geometry":{ "type": "Point", "coordinates": [-120.952549,47.186205]}},
{ "type": "Feature", "properties": {"Aberdeen city":"South Creek CDP","Washington":"Washington","WA":"WA"},
"geometry":{ "type": "Point", "coordinates": [-122.391334,47.000389]}},
{ "type": "Feature", "properties": {"Aberdeen city":"South Hill CDP","Washington":"Washington","WA":"WA"},
"geometry":{ "type": "Point", "coordinates": [-122.285264,47.120704]}},
{ "type": "Feature", "properties": {"Aberdeen city":"South Prairie town","Washington":"Washington","WA":"WA"},
"geometry":{ "type": "Point", "coordinates": [-122.096623,47.135386]}},
{ "type": "Feature", "properties": {"Aberdeen city":"South Wenatchee CDP","Washington":"Washington","WA":"WA"},
"geometry":{ "type": "Point", "coordinates": [-120.289252,47.394422]}},
{ "type": "Feature", "properties": {"Aberdeen city":"Southworth CDP","Washington":"Washington","WA":"WA"},
"geometry":{ "type": "Point", "coordinates": [-122.532242,47.51378]}},
{ "type": "Feature", "properties": {"Aberdeen city":"Spanaway CDP","Washington":"Washington","WA":"WA"},
"geometry":{ "type": "Point", "coordinates": [-122.42337,47.098061]}},
{ "type": "Feature", "properties": {"Aberdeen city":"Spangle city","Washington":"Washington","WA":"WA"},
"geometry":{ "type": "Point", "coordinates": [-117.381224,47.429894]}},
{ "type": "Feature", "properties": {"Aberdeen city":"Spokane city","Washington":"Washington","WA":"WA"},
"geometry":{ "type": "Point", "coordinates": [-117.433322,47.666935]}},
{ "type": "Feature", "properties": {"Aberdeen city":"Spokane Valley city","Washington":"Washington","WA":"WA"},
"geometry":{ "type": "Point", "coordinates": [-117.23278,47.663353]}},
{ "type": "Feature", "properties": {"Aberdeen city":"Sprague city","Washington":"Washington","WA":"WA"},
"geometry":{ "type": "Point", "coordinates": [-117.97129,47.304889]}},
{ "type": "Feature", "properties": {"Aberdeen city":"Springdale town","Washington":"Washington","WA":"WA"},
"geometry":{ "type": "Point", "coordinates": [-117.746565,48.057231]}},
{ "type": "Feature", "properties": {"Aberdeen city":"Stansberry Lake CDP","Washington":"Washington","WA":"WA"},
"geometry":{ "type": "Point", "coordinates": [-122.711992,47.38291]}},
{ "type": "Feature", "properties": {"Aberdeen city":"Stanwood city","Washington":"Washington","WA":"WA"},
"geometry":{ "type": "Point", "coordinates": [-122.342232,48.245144]}},
{ "type": "Feature", "properties": {"Aberdeen city":"Starbuck town","Washington":"Washington","WA":"WA"},
"geometry":{ "type": "Point", "coordinates": [-118.128876,46.521599]}},
{ "type": "Feature", "properties": {"Aberdeen city":"Startup CDP","Washington":"Washington","WA":"WA"},
"geometry":{ "type": "Point", "coordinates": [-121.754426,47.874183]}},
{ "type": "Feature", "properties": {"Aberdeen city":"Steilacoom town","Washington":"Washington","WA":"WA"},
"geometry":{ "type": "Point", "coordinates": [-122.592336,47.169267]}},
{ "type": "Feature", "properties": {"Aberdeen city":"Steptoe CDP","Washington":"Washington","WA":"WA"},
"geometry":{ "type": "Point", "coordinates": [-117.350209,47.007401]}},
{ "type": "Feature", "properties": {"Aberdeen city":"Stevenson city","Washington":"Washington","WA":"WA"},
"geometry":{ "type": "Point", "coordinates": [-121.896374,45.694743]}},
{ "type": "Feature", "properties": {"Aberdeen city":"Sudden Valley CDP","Washington":"Washington","WA":"WA"},
"geometry":{ "type": "Point", "coordinates": [-122.344096,48.723084]}},
{ "type": "Feature", "properties": {"Aberdeen city":"Sultan city","Washington":"Washington","WA":"WA"},
"geometry":{ "type": "Point", "coordinates": [-121.804106,47.871132]}},
{ "type": "Feature", "properties": {"Aberdeen city":"Sumas city","Washington":"Washington","WA":"WA"},
"geometry":{ "type": "Point", "coordinates": [-122.268453,48.995534]}},
{ "type": "Feature", "properties": {"Aberdeen city":"Summit CDP","Washington":"Washington","WA":"WA"},
"geometry":{ "type": "Point", "coordinates": [-122.363627,47.169445]}},
{ "type": "Feature", "properties": {"Aberdeen city":"Summit View CDP","Washington":"Washington","WA":"WA"},
"geometry":{ "type": "Point", "coordinates": [-122.352022,47.136325]}},
{ "type": "Feature", "properties": {"Aberdeen city":"Summitview CDP","Washington":"Washington","WA":"WA"},
"geometry":{ "type": "Point", "coordinates": [-120.6564,46.598279]}},
{ "type": "Feature", "properties": {"Aberdeen city":"Sumner city","Washington":"Washington","WA":"WA"},
"geometry":{ "type": "Point", "coordinates": [-122.236264,47.227215]}},
{ "type": "Feature", "properties": {"Aberdeen city":"Suncrest CDP","Washington":"Washington","WA":"WA"},
"geometry":{ "type": "Point", "coordinates": [-117.602998,47.828527]}},
{ "type": "Feature", "properties": {"Aberdeen city":"Sunday Lake CDP","Washington":"Washington","WA":"WA"},
"geometry":{ "type": "Point", "coordinates": [-122.270456,48.228253]}},
{ "type": "Feature", "properties": {"Aberdeen city":"Sunland Estates CDP","Washington":"Washington","WA":"WA"},
"geometry":{ "type": "Point", "coordinates": [-120.028303,47.074097]}},
{ "type": "Feature", "properties": {"Aberdeen city":"Sunnyside city","Washington":"Washington","WA":"WA"},
"geometry":{ "type": "Point", "coordinates": [-120.005834,46.315758]}},
{ "type": "Feature", "properties": {"Aberdeen city":"Sunnyslope CDP","Washington":"Washington","WA":"WA"},
"geometry":{ "type": "Point", "coordinates": [-120.353219,47.504826]}},
{ "type": "Feature", "properties": {"Aberdeen city":"Suquamish CDP","Washington":"Washington","WA":"WA"},
"geometry":{ "type": "Point", "coordinates": [-122.588347,47.725917]}},
{ "type": "Feature", "properties": {"Aberdeen city":"Swede Heaven CDP","Washington":"Washington","WA":"WA"},
"geometry":{ "type": "Point", "coordinates": [-121.709853,48.280667]}},
{ "type": "Feature", "properties": {"Aberdeen city":"Tacoma city","Washington":"Washington","WA":"WA"},
"geometry":{ "type": "Point", "coordinates": [-122.459832,47.252199]}},