{"type":"FeatureCollection","features":[
{ "type": "Feature", "properties": {"Name":"Aberdeen city","State":"Washington","State_Abbrev":"WA"},
"geometry":{ "type": "Point", "coordinates": [-123.811373,46.975205]}},
{ "type": "Feature", "properties": {"Name":"Aberdeen Gardens CDP","State":"Washington","State_Abbrev":"WA"},
"geometry":{ "type": "Point", "coordinates": [-123.777916,47.057318]}},
{ "type": "Feature", "properties": {"Name":"Acme CDP","State":"Washington","State_Abbrev":"WA"},
"geometry":{ "type": "Point", "coordinates": [-122.209962,48.716429]}},
{ "type": "Feature", "properties": {"Name":"Addy CDP","State":"Washington","State_Abbrev":"WA"},
"geometry":{ "type": "Point", "coordinates": [-117.837187,48.358908]}},
{ "type": "Feature", "properties": {"Name":"Ahtanum CDP","State":"Washington","State_Abbrev":"WA"},
"geometry":{ "type": "Point", "coordinates": [-120.613858,46.557222]}},
{ "type": "Feature", "properties": {"Name":"Airway Heights city","State":"Washington","State_Abbrev":"WA"},
"geometry":{ "type": "Point", "coordinates": [-117.579197,47.645943]}},
{ "type": "Feature", "properties": {"Name":"Albion town","State":"Washington","State_Abbrev":"WA"},
"geometry":{ "type": "Point", "coordinates": [-117.251227,46.7916]}},
{ "type": "Feature", "properties": {"Name":"Alder CDP","State":"Washington","State_Abbrev":"WA"},
"geometry":{ "type": "Point", "coordinates": [-122.2612,46.781985]}},
{ "type": "Feature", "properties": {"Name":"Alderton CDP","State":"Washington","State_Abbrev":"WA"},
"geometry":{ "type": "Point", "coordinates": [-122.222358,47.176252]}},
{ "type": "Feature", "properties": {"Name":"Alderwood Manor CDP","State":"Washington","State_Abbrev":"WA"},
"geometry":{ "type": "Point", "coordinates": [-122.267255,47.814603]}},
{ "type": "Feature", "properties": {"Name":"Alger CDP","State":"Washington","State_Abbrev":"WA"},
"geometry":{ "type": "Point", "coordinates": [-122.329285,48.610264]}},
{ "type": "Feature", "properties": {"Name":"Algona city","State":"Washington","State_Abbrev":"WA"},
"geometry":{ "type": "Point", "coordinates": [-122.250467,47.281987]}},
{ "type": "Feature", "properties": {"Name":"Allyn CDP","State":"Washington","State_Abbrev":"WA"},
"geometry":{ "type": "Point", "coordinates": [-122.839334,47.386829]}},
{ "type": "Feature", "properties": {"Name":"Almira town","State":"Washington","State_Abbrev":"WA"},
"geometry":{ "type": "Point", "coordinates": [-118.93699,47.710609]}},
{ "type": "Feature", "properties": {"Name":"Altoona CDP","State":"Washington","State_Abbrev":"WA"},
"geometry":{ "type": "Point", "coordinates": [-123.621217,46.269739]}},
{ "type": "Feature", "properties": {"Name":"Amanda Park CDP","State":"Washington","State_Abbrev":"WA"},
"geometry":{ "type": "Point", "coordinates": [-123.925148,47.45386]}},
{ "type": "Feature", "properties": {"Name":"Amboy CDP","State":"Washington","State_Abbrev":"WA"},
"geometry":{ "type": "Point", "coordinates": [-122.488854,45.915888]}},
{ "type": "Feature", "properties": {"Name":"Ames Lake CDP","State":"Washington","State_Abbrev":"WA"},
"geometry":{ "type": "Point", "coordinates": [-121.960584,47.633966]}},
{ "type": "Feature", "properties": {"Name":"Anacortes city","State":"Washington","State_Abbrev":"WA"},
"geometry":{ "type": "Point", "coordinates": [-122.62398,48.488725]}},
{ "type": "Feature", "properties": {"Name":"Anatone CDP","State":"Washington","State_Abbrev":"WA"},
"geometry":{ "type": "Point", "coordinates": [-117.132454,46.135417]}},
{ "type": "Feature", "properties": {"Name":"Anderson Island CDP","State":"Washington","State_Abbrev":"WA"},
"geometry":{ "type": "Point", "coordinates": [-122.681692,47.149874]}},
{ "type": "Feature", "properties": {"Name":"Arlington city","State":"Washington","State_Abbrev":"WA"},
"geometry":{ "type": "Point", "coordinates": [-122.144553,48.170372]}},
{ "type": "Feature", "properties": {"Name":"Arlington Heights CDP","State":"Washington","State_Abbrev":"WA"},
"geometry":{ "type": "Point", "coordinates": [-122.062995,48.211929]}},
{ "type": "Feature", "properties": {"Name":"Artondale CDP","State":"Washington","State_Abbrev":"WA"},
"geometry":{ "type": "Point", "coordinates": [-122.652488,47.303553]}},
{ "type": "Feature", "properties": {"Name":"Ashford CDP","State":"Washington","State_Abbrev":"WA"},
"geometry":{ "type": "Point", "coordinates": [-122.015472,46.754853]}},
{ "type": "Feature", "properties": {"Name":"Asotin city","State":"Washington","State_Abbrev":"WA"},
"geometry":{ "type": "Point", "coordinates": [-117.039804,46.333726]}},
{ "type": "Feature", "properties": {"Name":"Auburn city","State":"Washington","State_Abbrev":"WA"},
"geometry":{ "type": "Point", "coordinates": [-122.21,47.303773]}},
{ "type": "Feature", "properties": {"Name":"Bainbridge Island city","State":"Washington","State_Abbrev":"WA"},
"geometry":{ "type": "Point", "coordinates": [-122.507764,47.642487]}},
{ "type": "Feature", "properties": {"Name":"Bangor Base CDP","State":"Washington","State_Abbrev":"WA"},
"geometry":{ "type": "Point", "coordinates": [-122.714126,47.722257]}},
{ "type": "Feature", "properties": {"Name":"Banks Lake South CDP","State":"Washington","State_Abbrev":"WA"},
"geometry":{ "type": "Point", "coordinates": [-119.274437,47.630072]}},
{ "type": "Feature", "properties": {"Name":"Barberton CDP","State":"Washington","State_Abbrev":"WA"},
"geometry":{ "type": "Point", "coordinates": [-122.611443,45.713634]}},
{ "type": "Feature", "properties": {"Name":"Baring CDP","State":"Washington","State_Abbrev":"WA"},
"geometry":{ "type": "Point", "coordinates": [-121.481977,47.768598]}},
{ "type": "Feature", "properties": {"Name":"Barney's Junction CDP","State":"Washington","State_Abbrev":"WA"},
"geometry":{ "type": "Point", "coordinates": [-118.128962,48.620395]}},
{ "type": "Feature", "properties": {"Name":"Barstow CDP","State":"Washington","State_Abbrev":"WA"},
"geometry":{ "type": "Point", "coordinates": [-118.132862,48.778304]}},
{ "type": "Feature", "properties": {"Name":"Basin City CDP","State":"Washington","State_Abbrev":"WA"},
"geometry":{ "type": "Point", "coordinates": [-119.156647,46.589039]}},
{ "type": "Feature", "properties": {"Name":"Battle Ground city","State":"Washington","State_Abbrev":"WA"},
"geometry":{ "type": "Point", "coordinates": [-122.540963,45.776815]}},
{ "type": "Feature", "properties": {"Name":"Bay Center CDP","State":"Washington","State_Abbrev":"WA"},
"geometry":{ "type": "Point", "coordinates": [-123.953182,46.620753]}},
{ "type": "Feature", "properties": {"Name":"Bay View CDP","State":"Washington","State_Abbrev":"WA"},
"geometry":{ "type": "Point", "coordinates": [-122.462553,48.487]}},
{ "type": "Feature", "properties": {"Name":"Beacon Hill CDP","State":"Washington","State_Abbrev":"WA"},
"geometry":{ "type": "Point", "coordinates": [-122.92069,46.171191]}},
{ "type": "Feature", "properties": {"Name":"Beaux Arts Village town","State":"Washington","State_Abbrev":"WA"},
"geometry":{ "type": "Point", "coordinates": [-122.203646,47.585343]}},
{ "type": "Feature", "properties": {"Name":"Belfair CDP","State":"Washington","State_Abbrev":"WA"},
"geometry":{ "type": "Point", "coordinates": [-122.852831,47.446821]}},
{ "type": "Feature", "properties": {"Name":"Bellevue city","State":"Washington","State_Abbrev":"WA"},
"geometry":{ "type": "Point", "coordinates": [-122.15648,47.597837]}},
{ "type": "Feature", "properties": {"Name":"Bell Hill CDP","State":"Washington","State_Abbrev":"WA"},
"geometry":{ "type": "Point", "coordinates": [-123.086977,48.05495]}},
{ "type": "Feature", "properties": {"Name":"Bellingham city","State":"Washington","State_Abbrev":"WA"},
"geometry":{ "type": "Point", "coordinates": [-122.470179,48.753442]}},
{ "type": "Feature", "properties": {"Name":"Benton City city","State":"Washington","State_Abbrev":"WA"},
"geometry":{ "type": "Point", "coordinates": [-119.478982,46.263709]}},
{ "type": "Feature", "properties": {"Name":"Bethel CDP","State":"Washington","State_Abbrev":"WA"},
"geometry":{ "type": "Point", "coordinates": [-122.617517,47.4874]}},
{ "type": "Feature", "properties": {"Name":"Beverly CDP","State":"Washington","State_Abbrev":"WA"},
"geometry":{ "type": "Point", "coordinates": [-119.930266,46.834819]}},
{ "type": "Feature", "properties": {"Name":"Bickleton CDP","State":"Washington","State_Abbrev":"WA"},
"geometry":{ "type": "Point", "coordinates": [-120.30798,46.005641]}},
{ "type": "Feature", "properties": {"Name":"Big Lake CDP","State":"Washington","State_Abbrev":"WA"},
"geometry":{ "type": "Point", "coordinates": [-122.243228,48.395839]}},
{ "type": "Feature", "properties": {"Name":"Bingen city","State":"Washington","State_Abbrev":"WA"},
"geometry":{ "type": "Point", "coordinates": [-121.471778,45.713108]}},
{ "type": "Feature", "properties": {"Name":"Birch Bay CDP","State":"Washington","State_Abbrev":"WA"},
"geometry":{ "type": "Point", "coordinates": [-122.745262,48.923367]}},
{ "type": "Feature", "properties": {"Name":"Black Diamond city","State":"Washington","State_Abbrev":"WA"},
"geometry":{ "type": "Point", "coordinates": [-122.017685,47.314748]}},
{ "type": "Feature", "properties": {"Name":"Blaine city","State":"Washington","State_Abbrev":"WA"},
"geometry":{ "type": "Point", "coordinates": [-122.74877,48.98719]}},
{ "type": "Feature", "properties": {"Name":"Blyn CDP","State":"Washington","State_Abbrev":"WA"},
"geometry":{ "type": "Point", "coordinates": [-122.98016,48.009477]}},
{ "type": "Feature", "properties": {"Name":"Bonney Lake city","State":"Washington","State_Abbrev":"WA"},
"geometry":{ "type": "Point", "coordinates": [-122.163032,47.199502]}},
{ "type": "Feature", "properties": {"Name":"Bothell city","State":"Washington","State_Abbrev":"WA"},
"geometry":{ "type": "Point", "coordinates": [-122.204376,47.773531]}},
{ "type": "Feature", "properties": {"Name":"Bothell East CDP","State":"Washington","State_Abbrev":"WA"},
"geometry":{ "type": "Point", "coordinates": [-122.184394,47.806352]}},
{ "type": "Feature", "properties": {"Name":"Bothell West CDP","State":"Washington","State_Abbrev":"WA"},
"geometry":{ "type": "Point", "coordinates": [-122.24011,47.805597]}},
{ "type": "Feature", "properties": {"Name":"Boulevard Park CDP","State":"Washington","State_Abbrev":"WA"},
"geometry":{ "type": "Point", "coordinates": [-122.314844,47.513403]}},
{ "type": "Feature", "properties": {"Name":"Bow CDP","State":"Washington","State_Abbrev":"WA"},
"geometry":{ "type": "Point", "coordinates": [-122.407762,48.561285]}},
{ "type": "Feature", "properties": {"Name":"Boyds CDP","State":"Washington","State_Abbrev":"WA"},
"geometry":{ "type": "Point", "coordinates": [-118.132084,48.724435]}},
{ "type": "Feature", "properties": {"Name":"Brady CDP","State":"Washington","State_Abbrev":"WA"},
"geometry":{ "type": "Point", "coordinates": [-123.541933,47.004601]}},
{ "type": "Feature", "properties": {"Name":"Bremerton city","State":"Washington","State_Abbrev":"WA"},
"geometry":{ "type": "Point", "coordinates": [-122.717048,47.539877]}},
{ "type": "Feature", "properties": {"Name":"Brewster city","State":"Washington","State_Abbrev":"WA"},
"geometry":{ "type": "Point", "coordinates": [-119.769827,48.106954]}},
{ "type": "Feature", "properties": {"Name":"Bridgeport city","State":"Washington","State_Abbrev":"WA"},
"geometry":{ "type": "Point", "coordinates": [-119.672533,48.007006]}},
{ "type": "Feature", "properties": {"Name":"Brier city","State":"Washington","State_Abbrev":"WA"},
"geometry":{ "type": "Point", "coordinates": [-122.273432,47.792388]}},
{ "type": "Feature", "properties": {"Name":"Brinnon CDP","State":"Washington","State_Abbrev":"WA"},
"geometry":{ "type": "Point", "coordinates": [-122.9166,47.668614]}},
{ "type": "Feature", "properties": {"Name":"Browns Point CDP","State":"Washington","State_Abbrev":"WA"},
"geometry":{ "type": "Point", "coordinates": [-122.43672,47.303796]}},
{ "type": "Feature", "properties": {"Name":"Brush Prairie CDP","State":"Washington","State_Abbrev":"WA"},
"geometry":{ "type": "Point", "coordinates": [-122.548327,45.725043]}},
{ "type": "Feature", "properties": {"Name":"Bryant CDP","State":"Washington","State_Abbrev":"WA"},
"geometry":{ "type": "Point", "coordinates": [-122.1781,48.246467]}},
{ "type": "Feature", "properties": {"Name":"Bryn Mawr-Skyway CDP","State":"Washington","State_Abbrev":"WA"},
"geometry":{ "type": "Point", "coordinates": [-122.240594,47.494983]}},
{ "type": "Feature", "properties": {"Name":"Buckley city","State":"Washington","State_Abbrev":"WA"},
"geometry":{ "type": "Point", "coordinates": [-122.020272,47.162239]}},
{ "type": "Feature", "properties": {"Name":"Bucoda town","State":"Washington","State_Abbrev":"WA"},
"geometry":{ "type": "Point", "coordinates": [-122.869815,46.795255]}},
{ "type": "Feature", "properties": {"Name":"Buena CDP","State":"Washington","State_Abbrev":"WA"},
"geometry":{ "type": "Point", "coordinates": [-120.318245,46.427687]}},
{ "type": "Feature", "properties": {"Name":"Bunk Foss CDP","State":"Washington","State_Abbrev":"WA"},
"geometry":{ "type": "Point", "coordinates": [-122.094437,47.961701]}},
{ "type": "Feature", "properties": {"Name":"Burbank CDP","State":"Washington","State_Abbrev":"WA"},
"geometry":{ "type": "Point", "coordinates": [-118.983373,46.198387]}},
{ "type": "Feature", "properties": {"Name":"Burien city","State":"Washington","State_Abbrev":"WA"},
"geometry":{ "type": "Point", "coordinates": [-122.344661,47.475605]}},
{ "type": "Feature", "properties": {"Name":"Burley CDP","State":"Washington","State_Abbrev":"WA"},
"geometry":{ "type": "Point", "coordinates": [-122.644705,47.415957]}},
{ "type": "Feature", "properties": {"Name":"Burlington city","State":"Washington","State_Abbrev":"WA"},
"geometry":{ "type": "Point", "coordinates": [-122.328882,48.466355]}},
{ "type": "Feature", "properties": {"Name":"Camano CDP","State":"Washington","State_Abbrev":"WA"},
"geometry":{ "type": "Point", "coordinates": [-122.462132,48.152467]}},
{ "type": "Feature", "properties": {"Name":"Camas city","State":"Washington","State_Abbrev":"WA"},
"geometry":{ "type": "Point", "coordinates": [-122.430381,45.601809]}},
{ "type": "Feature", "properties": {"Name":"Canterwood CDP","State":"Washington","State_Abbrev":"WA"},
"geometry":{ "type": "Point", "coordinates": [-122.602016,47.376491]}},
{ "type": "Feature", "properties": {"Name":"Canyon Creek CDP","State":"Washington","State_Abbrev":"WA"},
"geometry":{ "type": "Point", "coordinates": [-121.982476,48.110002]}},
{ "type": "Feature", "properties": {"Name":"Carbonado town","State":"Washington","State_Abbrev":"WA"},
"geometry":{ "type": "Point", "coordinates": [-122.051841,47.08232]}},
{ "type": "Feature", "properties": {"Name":"Carlsborg CDP","State":"Washington","State_Abbrev":"WA"},
"geometry":{ "type": "Point", "coordinates": [-123.169679,48.084167]}},
{ "type": "Feature", "properties": {"Name":"Carnation city","State":"Washington","State_Abbrev":"WA"},
"geometry":{ "type": "Point", "coordinates": [-121.90067,47.644188]}},
{ "type": "Feature", "properties": {"Name":"Carson CDP","State":"Washington","State_Abbrev":"WA"},
"geometry":{ "type": "Point", "coordinates": [-121.82621,45.734805]}},
{ "type": "Feature", "properties": {"Name":"Cascade Valley CDP","State":"Washington","State_Abbrev":"WA"},
"geometry":{ "type": "Point", "coordinates": [-119.328343,47.141022]}},
{ "type": "Feature", "properties": {"Name":"Cashmere city","State":"Washington","State_Abbrev":"WA"},
"geometry":{ "type": "Point", "coordinates": [-120.467036,47.518054]}},
{ "type": "Feature", "properties": {"Name":"Castle Rock city","State":"Washington","State_Abbrev":"WA"},
"geometry":{ "type": "Point", "coordinates": [-122.903925,46.271858]}},
{ "type": "Feature", "properties": {"Name":"Cathcart CDP","State":"Washington","State_Abbrev":"WA"},
"geometry":{ "type": "Point", "coordinates": [-122.10579,47.852593]}},
{ "type": "Feature", "properties": {"Name":"Cathlamet town","State":"Washington","State_Abbrev":"WA"},
"geometry":{ "type": "Point", "coordinates": [-123.384018,46.205819]}},
{ "type": "Feature", "properties": {"Name":"Cavalero CDP","State":"Washington","State_Abbrev":"WA"},
"geometry":{ "type": "Point", "coordinates": [-122.076633,47.975068]}},
{ "type": "Feature", "properties": {"Name":"Centerville CDP","State":"Washington","State_Abbrev":"WA"},
"geometry":{ "type": "Point", "coordinates": [-120.90808,45.753994]}},
{ "type": "Feature", "properties": {"Name":"Centralia city","State":"Washington","State_Abbrev":"WA"},
"geometry":{ "type": "Point", "coordinates": [-122.970947,46.72205]}},
{ "type": "Feature", "properties": {"Name":"Central Park CDP","State":"Washington","State_Abbrev":"WA"},
"geometry":{ "type": "Point", "coordinates": [-123.702302,46.971808]}},
{ "type": "Feature", "properties": {"Name":"Chain Lake CDP","State":"Washington","State_Abbrev":"WA"},
"geometry":{ "type": "Point", "coordinates": [-121.98709,47.902259]}},
{ "type": "Feature", "properties": {"Name":"Chehalis city","State":"Washington","State_Abbrev":"WA"},
"geometry":{ "type": "Point", "coordinates": [-122.965425,46.664176]}},
{ "type": "Feature", "properties": {"Name":"Chelan city","State":"Washington","State_Abbrev":"WA"},
"geometry":{ "type": "Point", "coordinates": [-120.013572,47.844282]}},
{ "type": "Feature", "properties": {"Name":"Chelan Falls CDP","State":"Washington","State_Abbrev":"WA"},
"geometry":{ "type": "Point", "coordinates": [-119.988255,47.799429]}},
{ "type": "Feature", "properties": {"Name":"Cheney city","State":"Washington","State_Abbrev":"WA"},
"geometry":{ "type": "Point", "coordinates": [-117.581546,47.49113]}},
{ "type": "Feature", "properties": {"Name":"Cherry Grove CDP","State":"Washington","State_Abbrev":"WA"},
"geometry":{ "type": "Point", "coordinates": [-122.576683,45.802185]}},
{ "type": "Feature", "properties": {"Name":"Chewelah city","State":"Washington","State_Abbrev":"WA"},
"geometry":{ "type": "Point", "coordinates": [-117.716945,48.28264]}},
{ "type": "Feature", "properties": {"Name":"Chico CDP","State":"Washington","State_Abbrev":"WA"},
"geometry":{ "type": "Point", "coordinates": [-122.719306,47.622554]}},
{ "type": "Feature", "properties": {"Name":"Chinook CDP","State":"Washington","State_Abbrev":"WA"},
"geometry":{ "type": "Point", "coordinates": [-123.942213,46.27552]}},
{ "type": "Feature", "properties": {"Name":"Clallam Bay CDP","State":"Washington","State_Abbrev":"WA"},
"geometry":{ "type": "Point", "coordinates": [-124.257783,48.25352]}},
{ "type": "Feature", "properties": {"Name":"Clarkston city","State":"Washington","State_Abbrev":"WA"},
"geometry":{ "type": "Point", "coordinates": [-117.050135,46.415405]}},
{ "type": "Feature", "properties": {"Name":"Clarkston Heights-Vineland CDP","State":"Washington","State_Abbrev":"WA"},
"geometry":{ "type": "Point", "coordinates": [-117.092016,46.375406]}},
{ "type": "Feature", "properties": {"Name":"Clayton CDP","State":"Washington","State_Abbrev":"WA"},
"geometry":{ "type": "Point", "coordinates": [-117.561155,48.001222]}},
{ "type": "Feature", "properties": {"Name":"Clear Lake CDP","State":"Washington","State_Abbrev":"WA"},
"geometry":{ "type": "Point", "coordinates": [-122.304963,46.92844]}},
{ "type": "Feature", "properties": {"Name":"Clear Lake CDP","State":"Washington","State_Abbrev":"WA"},
"geometry":{ "type": "Point", "coordinates": [-122.23949,48.448301]}},
{ "type": "Feature", "properties": {"Name":"Clearview CDP","State":"Washington","State_Abbrev":"WA"},
"geometry":{ "type": "Point", "coordinates": [-122.145145,47.829183]}},
{ "type": "Feature", "properties": {"Name":"Cle Elum city","State":"Washington","State_Abbrev":"WA"},
"geometry":{ "type": "Point", "coordinates": [-120.952843,47.194638]}},
{ "type": "Feature", "properties": {"Name":"Cliffdell CDP","State":"Washington","State_Abbrev":"WA"},
"geometry":{ "type": "Point", "coordinates": [-121.043014,46.922197]}},
{ "type": "Feature", "properties": {"Name":"Clinton CDP","State":"Washington","State_Abbrev":"WA"},
"geometry":{ "type": "Point", "coordinates": [-122.352274,47.962381]}},
{ "type": "Feature", "properties": {"Name":"Clover Creek CDP","State":"Washington","State_Abbrev":"WA"},
"geometry":{ "type": "Point", "coordinates": [-122.380456,47.143317]}},
{ "type": "Feature", "properties": {"Name":"Clyde Hill city","State":"Washington","State_Abbrev":"WA"},
"geometry":{ "type": "Point", "coordinates": [-122.217983,47.630354]}},
{ "type": "Feature", "properties": {"Name":"Cohassett Beach CDP","State":"Washington","State_Abbrev":"WA"},
"geometry":{ "type": "Point", "coordinates": [-124.106113,46.864882]}},
{ "type": "Feature", "properties": {"Name":"Colfax city","State":"Washington","State_Abbrev":"WA"},
"geometry":{ "type": "Point", "coordinates": [-117.345271,46.901602]}},
{ "type": "Feature", "properties": {"Name":"College Place city","State":"Washington","State_Abbrev":"WA"},
"geometry":{ "type": "Point", "coordinates": [-118.389413,46.041572]}},
{ "type": "Feature", "properties": {"Name":"Colton town","State":"Washington","State_Abbrev":"WA"},
"geometry":{ "type": "Point", "coordinates": [-117.128445,46.567467]}},
{ "type": "Feature", "properties": {"Name":"Colville city","State":"Washington","State_Abbrev":"WA"},
"geometry":{ "type": "Point", "coordinates": [-117.898513,48.545461]}},
{ "type": "Feature", "properties": {"Name":"Conconully town","State":"Washington","State_Abbrev":"WA"},
"geometry":{ "type": "Point", "coordinates": [-119.752129,48.558553]}},
{ "type": "Feature", "properties": {"Name":"Concrete town","State":"Washington","State_Abbrev":"WA"},
"geometry":{ "type": "Point", "coordinates": [-121.755155,48.532617]}},
{ "type": "Feature", "properties": {"Name":"Connell city","State":"Washington","State_Abbrev":"WA"},
"geometry":{ "type": "Point", "coordinates": [-118.840553,46.660492]}},
{ "type": "Feature", "properties": {"Name":"Conway CDP","State":"Washington","State_Abbrev":"WA"},
"geometry":{ "type": "Point", "coordinates": [-122.344432,48.335682]}},
{ "type": "Feature", "properties": {"Name":"Copalis Beach CDP","State":"Washington","State_Abbrev":"WA"},
"geometry":{ "type": "Point", "coordinates": [-124.166453,47.124571]}},
{ "type": "Feature", "properties": {"Name":"Cosmopolis city","State":"Washington","State_Abbrev":"WA"},
"geometry":{ "type": "Point", "coordinates": [-123.772895,46.954312]}},
{ "type": "Feature", "properties": {"Name":"Cottage Lake CDP","State":"Washington","State_Abbrev":"WA"},
"geometry":{ "type": "Point", "coordinates": [-122.075988,47.746452]}},
{ "type": "Feature", "properties": {"Name":"Cougar CDP","State":"Washington","State_Abbrev":"WA"},
"geometry":{ "type": "Point", "coordinates": [-122.303364,46.049292]}},
{ "type": "Feature", "properties": {"Name":"Coulee City town","State":"Washington","State_Abbrev":"WA"},
"geometry":{ "type": "Point", "coordinates": [-119.289529,47.611733]}},
{ "type": "Feature", "properties": {"Name":"Coulee Dam town","State":"Washington","State_Abbrev":"WA"},
"geometry":{ "type": "Point", "coordinates": [-118.97628,47.968511]}},
{ "type": "Feature", "properties": {"Name":"Country Homes CDP","State":"Washington","State_Abbrev":"WA"},
"geometry":{ "type": "Point", "coordinates": [-117.41987,47.74785]}},
{ "type": "Feature", "properties": {"Name":"Coupeville town","State":"Washington","State_Abbrev":"WA"},
"geometry":{ "type": "Point", "coordinates": [-122.679466,48.218795]}},
{ "type": "Feature", "properties": {"Name":"Covington city","State":"Washington","State_Abbrev":"WA"},
"geometry":{ "type": "Point", "coordinates": [-122.104561,47.364793]}},
{ "type": "Feature", "properties": {"Name":"Cowiche CDP","State":"Washington","State_Abbrev":"WA"},
"geometry":{ "type": "Point", "coordinates": [-120.711936,46.671898]}},
{ "type": "Feature", "properties": {"Name":"Crescent Bar CDP","State":"Washington","State_Abbrev":"WA"},
"geometry":{ "type": "Point", "coordinates": [-119.996573,47.216626]}},
{ "type": "Feature", "properties": {"Name":"Creston town","State":"Washington","State_Abbrev":"WA"},
"geometry":{ "type": "Point", "coordinates": [-118.519913,47.759415]}},
{ "type": "Feature", "properties": {"Name":"Crocker CDP","State":"Washington","State_Abbrev":"WA"},
"geometry":{ "type": "Point", "coordinates": [-122.126744,47.090847]}},
{ "type": "Feature", "properties": {"Name":"Curlew CDP","State":"Washington","State_Abbrev":"WA"},
"geometry":{ "type": "Point", "coordinates": [-118.604516,48.877715]}},
{ "type": "Feature", "properties": {"Name":"Curlew Lake CDP","State":"Washington","State_Abbrev":"WA"},
"geometry":{ "type": "Point", "coordinates": [-118.668214,48.732932]}},
{ "type": "Feature", "properties": {"Name":"Cusick town","State":"Washington","State_Abbrev":"WA"},
"geometry":{ "type": "Point", "coordinates": [-117.292457,48.328488]}},
{ "type": "Feature", "properties": {"Name":"Custer CDP","State":"Washington","State_Abbrev":"WA"},
"geometry":{ "type": "Point", "coordinates": [-122.636994,48.91285]}},
{ "type": "Feature", "properties": {"Name":"Dallesport CDP","State":"Washington","State_Abbrev":"WA"},
"geometry":{ "type": "Point", "coordinates": [-121.168866,45.631591]}},
{ "type": "Feature", "properties": {"Name":"Danville CDP","State":"Washington","State_Abbrev":"WA"},
"geometry":{ "type": "Point", "coordinates": [-118.506895,48.993638]}},
{ "type": "Feature", "properties": {"Name":"Darrington town","State":"Washington","State_Abbrev":"WA"},
"geometry":{ "type": "Point", "coordinates": [-121.607845,48.258788]}},
{ "type": "Feature", "properties": {"Name":"Dash Point CDP","State":"Washington","State_Abbrev":"WA"},
"geometry":{ "type": "Point", "coordinates": [-122.413977,47.312502]}},
{ "type": "Feature", "properties": {"Name":"Davenport city","State":"Washington","State_Abbrev":"WA"},
"geometry":{ "type": "Point", "coordinates": [-118.15188,47.655042]}},
{ "type": "Feature", "properties": {"Name":"Dayton city","State":"Washington","State_Abbrev":"WA"},
"geometry":{ "type": "Point", "coordinates": [-117.976778,46.316796]}},
{ "type": "Feature", "properties": {"Name":"Deep River CDP","State":"Washington","State_Abbrev":"WA"},
"geometry":{ "type": "Point", "coordinates": [-123.70495,46.353583]}},
{ "type": "Feature", "properties": {"Name":"Deer Park city","State":"Washington","State_Abbrev":"WA"},
"geometry":{ "type": "Point", "coordinates": [-117.439788,47.964205]}},
{ "type": "Feature", "properties": {"Name":"Deming CDP","State":"Washington","State_Abbrev":"WA"},
"geometry":{ "type": "Point", "coordinates": [-122.236134,48.830359]}},
{ "type": "Feature", "properties": {"Name":"Desert Aire CDP","State":"Washington","State_Abbrev":"WA"},
"geometry":{ "type": "Point", "coordinates": [-119.92905,46.694214]}},
{ "type": "Feature", "properties": {"Name":"Des Moines city","State":"Washington","State_Abbrev":"WA"},
"geometry":{ "type": "Point", "coordinates": [-122.317581,47.388708]}},
{ "type": "Feature", "properties": {"Name":"Disautel CDP","State":"Washington","State_Abbrev":"WA"},
"geometry":{ "type": "Point", "coordinates": [-119.230075,48.344519]}},
{ "type": "Feature", "properties": {"Name":"Dixie CDP","State":"Washington","State_Abbrev":"WA"},
"geometry":{ "type": "Point", "coordinates": [-118.151897,46.140434]}},
{ "type": "Feature", "properties": {"Name":"Dollars Corner CDP","State":"Washington","State_Abbrev":"WA"},
"geometry":{ "type": "Point", "coordinates": [-122.599968,45.780236]}},
{ "type": "Feature", "properties": {"Name":"Donald CDP","State":"Washington","State_Abbrev":"WA"},
"geometry":{ "type": "Point", "coordinates": [-120.397331,46.476437]}},
{ "type": "Feature", "properties": {"Name":"Duluth CDP","State":"Washington","State_Abbrev":"WA"},
"geometry":{ "type": "Point", "coordinates": [-122.647039,45.783819]}},
{ "type": "Feature", "properties": {"Name":"DuPont city","State":"Washington","State_Abbrev":"WA"},
"geometry":{ "type": "Point", "coordinates": [-122.647576,47.107351]}},
{ "type": "Feature", "properties": {"Name":"Duvall city","State":"Washington","State_Abbrev":"WA"},
"geometry":{ "type": "Point", "coordinates": [-121.972224,47.735512]}},
{ "type": "Feature", "properties": {"Name":"East Cathlamet CDP","State":"Washington","State_Abbrev":"WA"},
"geometry":{ "type": "Point", "coordinates": [-123.359984,46.198327]}},
{ "type": "Feature", "properties": {"Name":"Eastmont CDP","State":"Washington","State_Abbrev":"WA"},
"geometry":{ "type": "Point", "coordinates": [-122.181536,47.897402]}},
{ "type": "Feature", "properties": {"Name":"Easton CDP","State":"Washington","State_Abbrev":"WA"},
"geometry":{ "type": "Point", "coordinates": [-121.159519,47.232711]}},
{ "type": "Feature", "properties": {"Name":"East Port Orchard CDP","State":"Washington","State_Abbrev":"WA"},
"geometry":{ "type": "Point", "coordinates": [-122.618315,47.519333]}},
{ "type": "Feature", "properties": {"Name":"East Renton Highlands CDP","State":"Washington","State_Abbrev":"WA"},
"geometry":{ "type": "Point", "coordinates": [-122.088495,47.473796]}},
{ "type": "Feature", "properties": {"Name":"East Wenatchee city","State":"Washington","State_Abbrev":"WA"},
"geometry":{ "type": "Point", "coordinates": [-120.283798,47.41745]}},
{ "type": "Feature", "properties": {"Name":"Eatonville town","State":"Washington","State_Abbrev":"WA"},
"geometry":{ "type": "Point", "coordinates": [-122.269568,46.868224]}},
{ "type": "Feature", "properties": {"Name":"Edgewood city","State":"Washington","State_Abbrev":"WA"},
"geometry":{ "type": "Point", "coordinates": [-122.285729,47.232074]}},
{ "type": "Feature", "properties": {"Name":"Edison CDP","State":"Washington","State_Abbrev":"WA"},
"geometry":{ "type": "Point", "coordinates": [-122.434329,48.567618]}},
{ "type": "Feature", "properties": {"Name":"Edmonds city","State":"Washington","State_Abbrev":"WA"},
"geometry":{ "type": "Point", "coordinates": [-122.35333,47.813604]}},
{ "type": "Feature", "properties": {"Name":"Elbe CDP","State":"Washington","State_Abbrev":"WA"},
"geometry":{ "type": "Point", "coordinates": [-122.196133,46.765691]}},
{ "type": "Feature", "properties": {"Name":"Electric City city","State":"Washington","State_Abbrev":"WA"},
"geometry":{ "type": "Point", "coordinates": [-119.046143,47.912961]}},
{ "type": "Feature", "properties": {"Name":"Elk Plain CDP","State":"Washington","State_Abbrev":"WA"},
"geometry":{ "type": "Point", "coordinates": [-122.365697,47.041876]}},
{ "type": "Feature", "properties": {"Name":"Ellensburg city","State":"Washington","State_Abbrev":"WA"},
"geometry":{ "type": "Point", "coordinates": [-120.549588,47.001168]}},
{ "type": "Feature", "properties": {"Name":"Elma city","State":"Washington","State_Abbrev":"WA"},
"geometry":{ "type": "Point", "coordinates": [-123.410764,47.005678]}},
{ "type": "Feature", "properties": {"Name":"Elmer City town","State":"Washington","State_Abbrev":"WA"},
"geometry":{ "type": "Point", "coordinates": [-118.953675,48.001499]}},
{ "type": "Feature", "properties": {"Name":"Endicott town","State":"Washington","State_Abbrev":"WA"},
"geometry":{ "type": "Point", "coordinates": [-117.686685,46.928231]}},
{ "type": "Feature", "properties": {"Name":"Enetai CDP","State":"Washington","State_Abbrev":"WA"},
"geometry":{ "type": "Point", "coordinates": [-122.602518,47.5859]}},
{ "type": "Feature", "properties": {"Name":"Entiat city","State":"Washington","State_Abbrev":"WA"},
"geometry":{ "type": "Point", "coordinates": [-120.222336,47.67697]}},
{ "type": "Feature", "properties": {"Name":"Enumclaw city","State":"Washington","State_Abbrev":"WA"},
"geometry":{ "type": "Point", "coordinates": [-121.988976,47.202179]}},
{ "type": "Feature", "properties": {"Name":"Ephrata city","State":"Washington","State_Abbrev":"WA"},
"geometry":{ "type": "Point", "coordinates": [-119.534343,47.312275]}},
{ "type": "Feature", "properties": {"Name":"Erlands Point CDP","State":"Washington","State_Abbrev":"WA"},
"geometry":{ "type": "Point", "coordinates": [-122.694181,47.602376]}},
{ "type": "Feature", "properties": {"Name":"Eschbach CDP","State":"Washington","State_Abbrev":"WA"},
"geometry":{ "type": "Point", "coordinates": [-120.632531,46.665058]}},
{ "type": "Feature", "properties": {"Name":"Esperance CDP","State":"Washington","State_Abbrev":"WA"},
"geometry":{ "type": "Point", "coordinates": [-122.34909,47.793236]}},
{ "type": "Feature", "properties": {"Name":"Everett city","State":"Washington","State_Abbrev":"WA"},
"geometry":{ "type": "Point", "coordinates": [-122.189895,47.965413]}},
{ "type": "Feature", "properties": {"Name":"Everson city","State":"Washington","State_Abbrev":"WA"},
"geometry":{ "type": "Point", "coordinates": [-122.353718,48.912517]}},
{ "type": "Feature", "properties": {"Name":"Fairchild AFB CDP","State":"Washington","State_Abbrev":"WA"},
"geometry":{ "type": "Point", "coordinates": [-117.648438,47.618647]}},
{ "type": "Feature", "properties": {"Name":"Fairfield town","State":"Washington","State_Abbrev":"WA"},
"geometry":{ "type": "Point", "coordinates": [-117.174847,47.384765]}},
{ "type": "Feature", "properties": {"Name":"Fairwood CDP","State":"Washington","State_Abbrev":"WA"},
"geometry":{ "type": "Point", "coordinates": [-122.142916,47.446754]}},
{ "type": "Feature", "properties": {"Name":"Fairwood CDP","State":"Washington","State_Abbrev":"WA"},
"geometry":{ "type": "Point", "coordinates": [-117.41706,47.766848]}},
{ "type": "Feature", "properties": {"Name":"Fall City CDP","State":"Washington","State_Abbrev":"WA"},
"geometry":{ "type": "Point", "coordinates": [-121.913697,47.569379]}},
{ "type": "Feature", "properties": {"Name":"Farmington town","State":"Washington","State_Abbrev":"WA"},
"geometry":{ "type": "Point", "coordinates": [-117.046358,47.088727]}},
{ "type": "Feature", "properties": {"Name":"Federal Way city","State":"Washington","State_Abbrev":"WA"},
"geometry":{ "type": "Point", "coordinates": [-122.337757,47.311596]}},
{ "type": "Feature", "properties": {"Name":"Felida CDP","State":"Washington","State_Abbrev":"WA"},
"geometry":{ "type": "Point", "coordinates": [-122.712657,45.71431]}},
{ "type": "Feature", "properties": {"Name":"Ferndale city","State":"Washington","State_Abbrev":"WA"},
"geometry":{ "type": "Point", "coordinates": [-122.588623,48.852628]}},
{ "type": "Feature", "properties": {"Name":"Fern Prairie CDP","State":"Washington","State_Abbrev":"WA"},
"geometry":{ "type": "Point", "coordinates": [-122.39627,45.636996]}},
{ "type": "Feature", "properties": {"Name":"Fife city","State":"Washington","State_Abbrev":"WA"},
"geometry":{ "type": "Point", "coordinates": [-122.351648,47.231623]}},
{ "type": "Feature", "properties": {"Name":"Fife Heights CDP","State":"Washington","State_Abbrev":"WA"},
"geometry":{ "type": "Point", "coordinates": [-122.345984,47.259696]}},
{ "type": "Feature", "properties": {"Name":"Finley CDP","State":"Washington","State_Abbrev":"WA"},
"geometry":{ "type": "Point", "coordinates": [-119.044664,46.169398]}},
{ "type": "Feature", "properties": {"Name":"Fircrest city","State":"Washington","State_Abbrev":"WA"},
"geometry":{ "type": "Point", "coordinates": [-122.515704,47.230716]}},
{ "type": "Feature", "properties": {"Name":"Five Corners CDP","State":"Washington","State_Abbrev":"WA"},
"geometry":{ "type": "Point", "coordinates": [-122.570554,45.689194]}},
{ "type": "Feature", "properties": {"Name":"Fobes Hill CDP","State":"Washington","State_Abbrev":"WA"},
"geometry":{ "type": "Point", "coordinates": [-122.134084,47.939235]}},
{ "type": "Feature", "properties": {"Name":"Fords Prairie CDP","State":"Washington","State_Abbrev":"WA"},
"geometry":{ "type": "Point", "coordinates": [-123.003739,46.74909]}},
{ "type": "Feature", "properties": {"Name":"Forks city","State":"Washington","State_Abbrev":"WA"},
"geometry":{ "type": "Point", "coordinates": [-124.39035,47.952758]}},
{ "type": "Feature", "properties": {"Name":"Fort Lewis CDP","State":"Washington","State_Abbrev":"WA"},
"geometry":{ "type": "Point", "coordinates": [-122.567439,47.095512]}},
{ "type": "Feature", "properties": {"Name":"Four Lakes CDP","State":"Washington","State_Abbrev":"WA"},
"geometry":{ "type": "Point", "coordinates": [-117.579233,47.562558]}},
{ "type": "Feature", "properties": {"Name":"Fox Island CDP","State":"Washington","State_Abbrev":"WA"},
"geometry":{ "type": "Point", "coordinates": [-122.646552,47.257686]}},
{ "type": "Feature", "properties": {"Name":"Frederickson CDP","State":"Washington","State_Abbrev":"WA"},
"geometry":{ "type": "Point", "coordinates": [-122.361615,47.091771]}},
{ "type": "Feature", "properties": {"Name":"Freeland CDP","State":"Washington","State_Abbrev":"WA"},
"geometry":{ "type": "Point", "coordinates": [-122.549937,48.028208]}},
{ "type": "Feature", "properties": {"Name":"Friday Harbor town","State":"Washington","State_Abbrev":"WA"},
"geometry":{ "type": "Point", "coordinates": [-123.018995,48.533947]}},
{ "type": "Feature", "properties": {"Name":"Garfield town","State":"Washington","State_Abbrev":"WA"},
"geometry":{ "type": "Point", "coordinates": [-117.139526,47.010248]}},
{ "type": "Feature", "properties": {"Name":"Garrett CDP","State":"Washington","State_Abbrev":"WA"},
"geometry":{ "type": "Point", "coordinates": [-118.40048,46.058991]}},
{ "type": "Feature", "properties": {"Name":"Geneva CDP","State":"Washington","State_Abbrev":"WA"},
"geometry":{ "type": "Point", "coordinates": [-122.402983,48.745268]}},
{ "type": "Feature", "properties": {"Name":"George city","State":"Washington","State_Abbrev":"WA"},
"geometry":{ "type": "Point", "coordinates": [-119.861683,47.083149]}},
{ "type": "Feature", "properties": {"Name":"Gig Harbor city","State":"Washington","State_Abbrev":"WA"},
"geometry":{ "type": "Point", "coordinates": [-122.600753,47.338378]}},
{ "type": "Feature", "properties": {"Name":"Glacier CDP","State":"Washington","State_Abbrev":"WA"},
"geometry":{ "type": "Point", "coordinates": [-121.932208,48.892055]}},
{ "type": "Feature", "properties": {"Name":"Gleed CDP","State":"Washington","State_Abbrev":"WA"},
"geometry":{ "type": "Point", "coordinates": [-120.602521,46.65934]}},
{ "type": "Feature", "properties": {"Name":"Glenwood CDP","State":"Washington","State_Abbrev":"WA"},
"geometry":{ "type": "Point", "coordinates": [-121.292587,46.022821]}},
{ "type": "Feature", "properties": {"Name":"Gold Bar city","State":"Washington","State_Abbrev":"WA"},
"geometry":{ "type": "Point", "coordinates": [-121.692006,47.856335]}},
{ "type": "Feature", "properties": {"Name":"Goldendale city","State":"Washington","State_Abbrev":"WA"},
"geometry":{ "type": "Point", "coordinates": [-120.823366,45.819145]}},
{ "type": "Feature", "properties": {"Name":"Gorst CDP","State":"Washington","State_Abbrev":"WA"},
"geometry":{ "type": "Point", "coordinates": [-122.70434,47.524544]}},
{ "type": "Feature", "properties": {"Name":"Graham CDP","State":"Washington","State_Abbrev":"WA"},
"geometry":{ "type": "Point", "coordinates": [-122.276854,47.034315]}},
{ "type": "Feature", "properties": {"Name":"Grand Coulee city","State":"Washington","State_Abbrev":"WA"},
"geometry":{ "type": "Point", "coordinates": [-119.002119,47.939091]}},
{ "type": "Feature", "properties": {"Name":"Grand Mound CDP","State":"Washington","State_Abbrev":"WA"},
"geometry":{ "type": "Point", "coordinates": [-123.010875,46.80028]}},
{ "type": "Feature", "properties": {"Name":"Grandview city","State":"Washington","State_Abbrev":"WA"},
"geometry":{ "type": "Point", "coordinates": [-119.908998,46.244335]}},
{ "type": "Feature", "properties": {"Name":"Granger city","State":"Washington","State_Abbrev":"WA"},
"geometry":{ "type": "Point", "coordinates": [-120.192673,46.345295]}},
{ "type": "Feature", "properties": {"Name":"Granite Falls city","State":"Washington","State_Abbrev":"WA"},
"geometry":{ "type": "Point", "coordinates": [-121.969206,48.089605]}},
{ "type": "Feature", "properties": {"Name":"Grapeview CDP","State":"Washington","State_Abbrev":"WA"},
"geometry":{ "type": "Point", "coordinates": [-122.82946,47.329763]}},
{ "type": "Feature", "properties": {"Name":"Grayland CDP","State":"Washington","State_Abbrev":"WA"},
"geometry":{ "type": "Point", "coordinates": [-124.091234,46.841645]}},
{ "type": "Feature", "properties": {"Name":"Grays River CDP","State":"Washington","State_Abbrev":"WA"},
"geometry":{ "type": "Point", "coordinates": [-123.581305,46.367914]}},
{ "type": "Feature", "properties": {"Name":"Green Bluff CDP","State":"Washington","State_Abbrev":"WA"},
"geometry":{ "type": "Point", "coordinates": [-117.274823,47.818418]}},
{ "type": "Feature", "properties": {"Name":"Greenwater CDP","State":"Washington","State_Abbrev":"WA"},
"geometry":{ "type": "Point", "coordinates": [-121.628469,47.144224]}},
{ "type": "Feature", "properties": {"Name":"Hamilton town","State":"Washington","State_Abbrev":"WA"},
"geometry":{ "type": "Point", "coordinates": [-121.995264,48.522478]}},
{ "type": "Feature", "properties": {"Name":"Hansville CDP","State":"Washington","State_Abbrev":"WA"},
"geometry":{ "type": "Point", "coordinates": [-122.57106,47.910095]}},
{ "type": "Feature", "properties": {"Name":"Harrah town","State":"Washington","State_Abbrev":"WA"},
"geometry":{ "type": "Point", "coordinates": [-120.540961,46.406119]}},
{ "type": "Feature", "properties": {"Name":"Harrington city","State":"Washington","State_Abbrev":"WA"},
"geometry":{ "type": "Point", "coordinates": [-118.255265,47.480159]}},
{ "type": "Feature", "properties": {"Name":"Hartline town","State":"Washington","State_Abbrev":"WA"},
"geometry":{ "type": "Point", "coordinates": [-119.10813,47.689449]}},
{ "type": "Feature", "properties": {"Name":"Hat Island CDP","State":"Washington","State_Abbrev":"WA"},
"geometry":{ "type": "Point", "coordinates": [-122.320653,48.013421]}},
{ "type": "Feature", "properties": {"Name":"Hatton town","State":"Washington","State_Abbrev":"WA"},
"geometry":{ "type": "Point", "coordinates": [-118.827688,46.773528]}},
{ "type": "Feature", "properties": {"Name":"Hazel Dell CDP","State":"Washington","State_Abbrev":"WA"},
"geometry":{ "type": "Point", "coordinates": [-122.652658,45.681881]}},
{ "type": "Feature", "properties": {"Name":"Herron Island CDP","State":"Washington","State_Abbrev":"WA"},
"geometry":{ "type": "Point", "coordinates": [-122.831951,47.267476]}},
{ "type": "Feature", "properties": {"Name":"High Bridge CDP","State":"Washington","State_Abbrev":"WA"},
"geometry":{ "type": "Point", "coordinates": [-122.023807,47.799898]}},
{ "type": "Feature", "properties": {"Name":"Hobart CDP","State":"Washington","State_Abbrev":"WA"},
"geometry":{ "type": "Point", "coordinates": [-122.005262,47.411787]}},
{ "type": "Feature", "properties": {"Name":"Hockinson CDP","State":"Washington","State_Abbrev":"WA"},
"geometry":{ "type": "Point", "coordinates": [-122.483334,45.730183]}},
{ "type": "Feature", "properties": {"Name":"Hogans Corner CDP","State":"Washington","State_Abbrev":"WA"},
"geometry":{ "type": "Point", "coordinates": [-124.161687,47.041496]}},
{ "type": "Feature", "properties": {"Name":"Home CDP","State":"Washington","State_Abbrev":"WA"},
"geometry":{ "type": "Point", "coordinates": [-122.790082,47.274685]}},
{ "type": "Feature", "properties": {"Name":"Hoodsport CDP","State":"Washington","State_Abbrev":"WA"},
"geometry":{ "type": "Point", "coordinates": [-123.154126,47.40198]}},
{ "type": "Feature", "properties": {"Name":"Hoquiam city","State":"Washington","State_Abbrev":"WA"},
"geometry":{ "type": "Point", "coordinates": [-123.909716,46.977202]}},
{ "type": "Feature", "properties": {"Name":"Humptulips CDP","State":"Washington","State_Abbrev":"WA"},
"geometry":{ "type": "Point", "coordinates": [-123.980539,47.233739]}},
{ "type": "Feature", "properties": {"Name":"Hunts Point town","State":"Washington","State_Abbrev":"WA"},
"geometry":{ "type": "Point", "coordinates": [-122.229197,47.642958]}},
{ "type": "Feature", "properties": {"Name":"Ilwaco city","State":"Washington","State_Abbrev":"WA"},
"geometry":{ "type": "Point", "coordinates": [-124.026732,46.312687]}},
{ "type": "Feature", "properties": {"Name":"Inchelium CDP","State":"Washington","State_Abbrev":"WA"},
"geometry":{ "type": "Point", "coordinates": [-118.245596,48.36374]}},
{ "type": "Feature", "properties": {"Name":"Index town","State":"Washington","State_Abbrev":"WA"},
"geometry":{ "type": "Point", "coordinates": [-121.555929,47.821262]}},
{ "type": "Feature", "properties": {"Name":"Indianola CDP","State":"Washington","State_Abbrev":"WA"},
"geometry":{ "type": "Point", "coordinates": [-122.511484,47.755273]}},
{ "type": "Feature", "properties": {"Name":"Ione town","State":"Washington","State_Abbrev":"WA"},
"geometry":{ "type": "Point", "coordinates": [-117.42203,48.739814]}},
{ "type": "Feature", "properties": {"Name":"Issaquah city","State":"Washington","State_Abbrev":"WA"},
"geometry":{ "type": "Point", "coordinates": [-122.049085,47.544488]}},
{ "type": "Feature", "properties": {"Name":"Jamestown CDP","State":"Washington","State_Abbrev":"WA"},
"geometry":{ "type": "Point", "coordinates": [-123.091043,48.122839]}},
{ "type": "Feature", "properties": {"Name":"Kahlotus city","State":"Washington","State_Abbrev":"WA"},
"geometry":{ "type": "Point", "coordinates": [-118.556139,46.643221]}},
{ "type": "Feature", "properties": {"Name":"Kalama city","State":"Washington","State_Abbrev":"WA"},
"geometry":{ "type": "Point", "coordinates": [-122.841937,46.017142]}},
{ "type": "Feature", "properties": {"Name":"Kapowsin CDP","State":"Washington","State_Abbrev":"WA"},
"geometry":{ "type": "Point", "coordinates": [-122.222955,46.968388]}},
{ "type": "Feature", "properties": {"Name":"Kayak Point CDP","State":"Washington","State_Abbrev":"WA"},
"geometry":{ "type": "Point", "coordinates": [-122.342276,48.142508]}},
{ "type": "Feature", "properties": {"Name":"Keller CDP","State":"Washington","State_Abbrev":"WA"},
"geometry":{ "type": "Point", "coordinates": [-118.716364,48.085189]}},
{ "type": "Feature", "properties": {"Name":"Kelso city","State":"Washington","State_Abbrev":"WA"},
"geometry":{ "type": "Point", "coordinates": [-122.886466,46.116751]}},
{ "type": "Feature", "properties": {"Name":"Kendall CDP","State":"Washington","State_Abbrev":"WA"},
"geometry":{ "type": "Point", "coordinates": [-122.132584,48.915467]}},
{ "type": "Feature", "properties": {"Name":"Kenmore city","State":"Washington","State_Abbrev":"WA"},
"geometry":{ "type": "Point", "coordinates": [-122.247244,47.749858]}},
{ "type": "Feature", "properties": {"Name":"Kennewick city","State":"Washington","State_Abbrev":"WA"},
"geometry":{ "type": "Point", "coordinates": [-119.175923,46.197622]}},
{ "type": "Feature", "properties": {"Name":"Kent city","State":"Washington","State_Abbrev":"WA"},
"geometry":{ "type": "Point", "coordinates": [-122.212727,47.38797]}},
{ "type": "Feature", "properties": {"Name":"Ketron Island CDP","State":"Washington","State_Abbrev":"WA"},
"geometry":{ "type": "Point", "coordinates": [-122.634125,47.156281]}},
{ "type": "Feature", "properties": {"Name":"Kettle Falls city","State":"Washington","State_Abbrev":"WA"},
"geometry":{ "type": "Point", "coordinates": [-118.06214,48.6056]}},
{ "type": "Feature", "properties": {"Name":"Key Center CDP","State":"Washington","State_Abbrev":"WA"},
"geometry":{ "type": "Point", "coordinates": [-122.754927,47.3306]}},
{ "type": "Feature", "properties": {"Name":"Keyport CDP","State":"Washington","State_Abbrev":"WA"},
"geometry":{ "type": "Point", "coordinates": [-122.624293,47.700204]}},
{ "type": "Feature", "properties": {"Name":"Kingston CDP","State":"Washington","State_Abbrev":"WA"},
"geometry":{ "type": "Point", "coordinates": [-122.506217,47.794382]}},
{ "type": "Feature", "properties": {"Name":"Kirkland city","State":"Washington","State_Abbrev":"WA"},
"geometry":{ "type": "Point", "coordinates": [-122.20417,47.696658]}},
{ "type": "Feature", "properties": {"Name":"Kitsap Lake CDP","State":"Washington","State_Abbrev":"WA"},
"geometry":{ "type": "Point", "coordinates": [-122.708802,47.590375]}},
{ "type": "Feature", "properties": {"Name":"Kittitas city","State":"Washington","State_Abbrev":"WA"},
"geometry":{ "type": "Point", "coordinates": [-120.418906,46.983702]}},
{ "type": "Feature", "properties": {"Name":"Klickitat CDP","State":"Washington","State_Abbrev":"WA"},
"geometry":{ "type": "Point", "coordinates": [-121.16258,45.817966]}},
{ "type": "Feature", "properties": {"Name":"Krupp town","State":"Washington","State_Abbrev":"WA"},
"geometry":{ "type": "Point", "coordinates": [-118.988702,47.41052]}},
{ "type": "Feature", "properties": {"Name":"La Center city","State":"Washington","State_Abbrev":"WA"},
"geometry":{ "type": "Point", "coordinates": [-122.675727,45.860494]}},
{ "type": "Feature", "properties": {"Name":"Lacey city","State":"Washington","State_Abbrev":"WA"},
"geometry":{ "type": "Point", "coordinates": [-122.798232,47.043087]}},
{ "type": "Feature", "properties": {"Name":"La Conner town","State":"Washington","State_Abbrev":"WA"},
"geometry":{ "type": "Point", "coordinates": [-122.494453,48.392564]}},
{ "type": "Feature", "properties": {"Name":"LaCrosse town","State":"Washington","State_Abbrev":"WA"},
"geometry":{ "type": "Point", "coordinates": [-117.917769,46.795521]}},
{ "type": "Feature", "properties": {"Name":"La Grande CDP","State":"Washington","State_Abbrev":"WA"},
"geometry":{ "type": "Point", "coordinates": [-122.283253,46.810734]}},
{ "type": "Feature", "properties": {"Name":"Lake Bosworth CDP","State":"Washington","State_Abbrev":"WA"},
"geometry":{ "type": "Point", "coordinates": [-121.982048,48.05548]}},
{ "type": "Feature", "properties": {"Name":"Lake Cassidy CDP","State":"Washington","State_Abbrev":"WA"},
"geometry":{ "type": "Point", "coordinates": [-122.082414,48.066029]}},
{ "type": "Feature", "properties": {"Name":"Lake Cavanaugh CDP","State":"Washington","State_Abbrev":"WA"},
"geometry":{ "type": "Point", "coordinates": [-122.010675,48.316823]}},
{ "type": "Feature", "properties": {"Name":"Lake Forest Park city","State":"Washington","State_Abbrev":"WA"},
"geometry":{ "type": "Point", "coordinates": [-122.291729,47.758911]}},
{ "type": "Feature", "properties": {"Name":"Lake Goodwin CDP","State":"Washington","State_Abbrev":"WA"},
"geometry":{ "type": "Point", "coordinates": [-122.276171,48.135355]}},
{ "type": "Feature", "properties": {"Name":"Lake Holm CDP","State":"Washington","State_Abbrev":"WA"},
"geometry":{ "type": "Point", "coordinates": [-122.129911,47.306388]}},
{ "type": "Feature", "properties": {"Name":"Lake Ketchum CDP","State":"Washington","State_Abbrev":"WA"},
"geometry":{ "type": "Point", "coordinates": [-122.346481,48.285835]}},
{ "type": "Feature", "properties": {"Name":"Lakeland North CDP","State":"Washington","State_Abbrev":"WA"},
"geometry":{ "type": "Point", "coordinates": [-122.282398,47.337326]}},
{ "type": "Feature", "properties": {"Name":"Lakeland South CDP","State":"Washington","State_Abbrev":"WA"},
"geometry":{ "type": "Point", "coordinates": [-122.284667,47.276093]}},
{ "type": "Feature", "properties": {"Name":"Lake McMurray CDP","State":"Washington","State_Abbrev":"WA"},
"geometry":{ "type": "Point", "coordinates": [-122.233323,48.319344]}},
{ "type": "Feature", "properties": {"Name":"Lake Marcel-Stillwater CDP","State":"Washington","State_Abbrev":"WA"},
"geometry":{ "type": "Point", "coordinates": [-121.915104,47.695094]}},
{ "type": "Feature", "properties": {"Name":"Lake Morton-Berrydale CDP","State":"Washington","State_Abbrev":"WA"},
"geometry":{ "type": "Point", "coordinates": [-122.103959,47.332843]}},
{ "type": "Feature", "properties": {"Name":"Lake Roesiger CDP","State":"Washington","State_Abbrev":"WA"},
"geometry":{ "type": "Point", "coordinates": [-121.905068,47.975501]}},
{ "type": "Feature", "properties": {"Name":"Lake Shore CDP","State":"Washington","State_Abbrev":"WA"},
"geometry":{ "type": "Point", "coordinates": [-122.691183,45.691132]}},
{ "type": "Feature", "properties": {"Name":"Lake Stevens city","State":"Washington","State_Abbrev":"WA"},
"geometry":{ "type": "Point", "coordinates": [-122.096828,48.003405]}},
{ "type": "Feature", "properties": {"Name":"Lake Stickney CDP","State":"Washington","State_Abbrev":"WA"},
"geometry":{ "type": "Point", "coordinates": [-122.252761,47.875788]}},
{ "type": "Feature", "properties": {"Name":"Lake Tapps CDP","State":"Washington","State_Abbrev":"WA"},
"geometry":{ "type": "Point", "coordinates": [-122.171247,47.230707]}},
{ "type": "Feature", "properties": {"Name":"Lakeview CDP","State":"Washington","State_Abbrev":"WA"},
"geometry":{ "type": "Point", "coordinates": [-119.504282,47.375543]}},
{ "type": "Feature", "properties": {"Name":"Lakewood city","State":"Washington","State_Abbrev":"WA"},
"geometry":{ "type": "Point", "coordinates": [-122.528106,47.164092]}},
{ "type": "Feature", "properties": {"Name":"Lamont town","State":"Washington","State_Abbrev":"WA"},
"geometry":{ "type": "Point", "coordinates": [-117.904939,47.200687]}},
{ "type": "Feature", "properties": {"Name":"Langley city","State":"Washington","State_Abbrev":"WA"},
"geometry":{ "type": "Point", "coordinates": [-122.407122,48.037537]}},
{ "type": "Feature", "properties": {"Name":"Larch Way CDP","State":"Washington","State_Abbrev":"WA"},
"geometry":{ "type": "Point", "coordinates": [-122.252747,47.8429]}},
{ "type": "Feature", "properties": {"Name":"Latah town","State":"Washington","State_Abbrev":"WA"},
"geometry":{ "type": "Point", "coordinates": [-117.155753,47.282112]}},
{ "type": "Feature", "properties": {"Name":"Laurier CDP","State":"Washington","State_Abbrev":"WA"},
"geometry":{ "type": "Point", "coordinates": [-118.224786,48.997298]}},
{ "type": "Feature", "properties": {"Name":"Leavenworth city","State":"Washington","State_Abbrev":"WA"},
"geometry":{ "type": "Point", "coordinates": [-120.663913,47.594704]}},
{ "type": "Feature", "properties": {"Name":"Lebam CDP","State":"Washington","State_Abbrev":"WA"},
"geometry":{ "type": "Point", "coordinates": [-123.550888,46.564091]}},
{ "type": "Feature", "properties": {"Name":"Lewisville CDP","State":"Washington","State_Abbrev":"WA"},
"geometry":{ "type": "Point", "coordinates": [-122.508244,45.81652]}},
{ "type": "Feature", "properties": {"Name":"Lexington CDP","State":"Washington","State_Abbrev":"WA"},
"geometry":{ "type": "Point", "coordinates": [-122.912611,46.189403]}},
{ "type": "Feature", "properties": {"Name":"Liberty Lake city","State":"Washington","State_Abbrev":"WA"},
"geometry":{ "type": "Point", "coordinates": [-117.104201,47.668451]}},
{ "type": "Feature", "properties": {"Name":"Lind town","State":"Washington","State_Abbrev":"WA"},
"geometry":{ "type": "Point", "coordinates": [-118.616374,46.97034]}},
{ "type": "Feature", "properties": {"Name":"Lochsloy CDP","State":"Washington","State_Abbrev":"WA"},
"geometry":{ "type": "Point", "coordinates": [-122.041061,48.05971]}},
{ "type": "Feature", "properties": {"Name":"Lofall CDP","State":"Washington","State_Abbrev":"WA"},
"geometry":{ "type": "Point", "coordinates": [-122.652013,47.810462]}},
{ "type": "Feature", "properties": {"Name":"Long Beach city","State":"Washington","State_Abbrev":"WA"},
"geometry":{ "type": "Point", "coordinates": [-124.057812,46.361934]}},
{ "type": "Feature", "properties": {"Name":"Longbranch CDP","State":"Washington","State_Abbrev":"WA"},
"geometry":{ "type": "Point", "coordinates": [-122.766883,47.22356]}},
{ "type": "Feature", "properties": {"Name":"Longview city","State":"Washington","State_Abbrev":"WA"},
"geometry":{ "type": "Point", "coordinates": [-122.964299,46.145707]}},
{ "type": "Feature", "properties": {"Name":"Longview Heights CDP","State":"Washington","State_Abbrev":"WA"},
"geometry":{ "type": "Point", "coordinates": [-122.953633,46.179841]}},
{ "type": "Feature", "properties": {"Name":"Loomis CDP","State":"Washington","State_Abbrev":"WA"},
"geometry":{ "type": "Point", "coordinates": [-119.639746,48.823338]}},
{ "type": "Feature", "properties": {"Name":"Loon Lake CDP","State":"Washington","State_Abbrev":"WA"},
"geometry":{ "type": "Point", "coordinates": [-117.625702,48.070402]}},
{ "type": "Feature", "properties": {"Name":"Lower Elochoman CDP","State":"Washington","State_Abbrev":"WA"},
"geometry":{ "type": "Point", "coordinates": [-123.369811,46.2185]}},
{ "type": "Feature", "properties": {"Name":"Lyle CDP","State":"Washington","State_Abbrev":"WA"},
"geometry":{ "type": "Point", "coordinates": [-121.280533,45.69558]}},
{ "type": "Feature", "properties": {"Name":"Lyman town","State":"Washington","State_Abbrev":"WA"},
"geometry":{ "type": "Point", "coordinates": [-122.065597,48.523789]}},
{ "type": "Feature", "properties": {"Name":"Lynden city","State":"Washington","State_Abbrev":"WA"},
"geometry":{ "type": "Point", "coordinates": [-122.454803,48.94992]}},
{ "type": "Feature", "properties": {"Name":"Lynnwood city","State":"Washington","State_Abbrev":"WA"},
"geometry":{ "type": "Point", "coordinates": [-122.300672,47.828979]}},
{ "type": "Feature", "properties": {"Name":"Mabton city","State":"Washington","State_Abbrev":"WA"},
"geometry":{ "type": "Point", "coordinates": [-119.993912,46.211546]}},
{ "type": "Feature", "properties": {"Name":"McChord AFB CDP","State":"Washington","State_Abbrev":"WA"},
"geometry":{ "type": "Point", "coordinates": [-122.491857,47.132689]}},
{ "type": "Feature", "properties": {"Name":"McCleary city","State":"Washington","State_Abbrev":"WA"},
"geometry":{ "type": "Point", "coordinates": [-123.269646,47.058457]}},
{ "type": "Feature", "properties": {"Name":"Machias CDP","State":"Washington","State_Abbrev":"WA"},
"geometry":{ "type": "Point", "coordinates": [-122.05171,47.991805]}},
{ "type": "Feature", "properties": {"Name":"McKenna CDP","State":"Washington","State_Abbrev":"WA"},
"geometry":{ "type": "Point", "coordinates": [-122.549865,46.934723]}},
{ "type": "Feature", "properties": {"Name":"McMillin CDP","State":"Washington","State_Abbrev":"WA"},
"geometry":{ "type": "Point", "coordinates": [-122.235252,47.12597]}},
{ "type": "Feature", "properties": {"Name":"Malden town","State":"Washington","State_Abbrev":"WA"},
"geometry":{ "type": "Point", "coordinates": [-117.473136,47.22959]}},
{ "type": "Feature", "properties": {"Name":"Malo CDP","State":"Washington","State_Abbrev":"WA"},
"geometry":{ "type": "Point", "coordinates": [-118.611993,48.799684]}},
{ "type": "Feature", "properties": {"Name":"Malone CDP","State":"Washington","State_Abbrev":"WA"},
"geometry":{ "type": "Point", "coordinates": [-123.307427,46.974382]}},
{ "type": "Feature", "properties": {"Name":"Malott CDP","State":"Washington","State_Abbrev":"WA"},
"geometry":{ "type": "Point", "coordinates": [-119.695593,48.291819]}},
{ "type": "Feature", "properties": {"Name":"Maltby CDP","State":"Washington","State_Abbrev":"WA"},
"geometry":{ "type": "Point", "coordinates": [-122.106217,47.802086]}},
{ "type": "Feature", "properties": {"Name":"Manchester CDP","State":"Washington","State_Abbrev":"WA"},
"geometry":{ "type": "Point", "coordinates": [-122.541167,47.547094]}},
{ "type": "Feature", "properties": {"Name":"Mansfield town","State":"Washington","State_Abbrev":"WA"},
"geometry":{ "type": "Point", "coordinates": [-119.638003,47.8119]}},
{ "type": "Feature", "properties": {"Name":"Manson CDP","State":"Washington","State_Abbrev":"WA"},
"geometry":{ "type": "Point", "coordinates": [-120.162266,47.874317]}},
{ "type": "Feature", "properties": {"Name":"Maple Falls CDP","State":"Washington","State_Abbrev":"WA"},
"geometry":{ "type": "Point", "coordinates": [-122.091198,48.918771]}},
{ "type": "Feature", "properties": {"Name":"Maple Heights-Lake Desire CDP","State":"Washington","State_Abbrev":"WA"},
"geometry":{ "type": "Point", "coordinates": [-122.092968,47.436892]}},
{ "type": "Feature", "properties": {"Name":"Maple Valley city","State":"Washington","State_Abbrev":"WA"},
"geometry":{ "type": "Point", "coordinates": [-122.034815,47.367147]}},
{ "type": "Feature", "properties": {"Name":"Maplewood CDP","State":"Washington","State_Abbrev":"WA"},
"geometry":{ "type": "Point", "coordinates": [-122.56549,47.376389]}},
{ "type": "Feature", "properties": {"Name":"Marblemount CDP","State":"Washington","State_Abbrev":"WA"},
"geometry":{ "type": "Point", "coordinates": [-121.439591,48.541756]}},
{ "type": "Feature", "properties": {"Name":"Marcus town","State":"Washington","State_Abbrev":"WA"},
"geometry":{ "type": "Point", "coordinates": [-118.05997,48.664298]}},
{ "type": "Feature", "properties": {"Name":"Marietta-Alderwood CDP","State":"Washington","State_Abbrev":"WA"},
"geometry":{ "type": "Point", "coordinates": [-122.555162,48.788096]}},
{ "type": "Feature", "properties": {"Name":"Marine View CDP","State":"Washington","State_Abbrev":"WA"},
"geometry":{ "type": "Point", "coordinates": [-119.350795,46.963725]}},
{ "type": "Feature", "properties": {"Name":"Markham CDP","State":"Washington","State_Abbrev":"WA"},
"geometry":{ "type": "Point", "coordinates": [-123.987873,46.914157]}},
{ "type": "Feature", "properties": {"Name":"Marrowstone CDP","State":"Washington","State_Abbrev":"WA"},
"geometry":{ "type": "Point", "coordinates": [-122.684007,48.031999]}},
{ "type": "Feature", "properties": {"Name":"Martha Lake CDP","State":"Washington","State_Abbrev":"WA"},
"geometry":{ "type": "Point", "coordinates": [-122.233092,47.844726]}},
{ "type": "Feature", "properties": {"Name":"Maryhill CDP","State":"Washington","State_Abbrev":"WA"},
"geometry":{ "type": "Point", "coordinates": [-120.807159,45.692755]}},
{ "type": "Feature", "properties": {"Name":"Marysville city","State":"Washington","State_Abbrev":"WA"},
"geometry":{ "type": "Point", "coordinates": [-122.154312,48.080214]}},
{ "type": "Feature", "properties": {"Name":"Mattawa city","State":"Washington","State_Abbrev":"WA"},
"geometry":{ "type": "Point", "coordinates": [-119.905376,46.736444]}},
{ "type": "Feature", "properties": {"Name":"May Creek CDP","State":"Washington","State_Abbrev":"WA"},
"geometry":{ "type": "Point", "coordinates": [-121.674311,47.85554]}},
{ "type": "Feature", "properties": {"Name":"Mead CDP","State":"Washington","State_Abbrev":"WA"},
"geometry":{ "type": "Point", "coordinates": [-117.349944,47.779527]}},
{ "type": "Feature", "properties": {"Name":"Meadowdale CDP","State":"Washington","State_Abbrev":"WA"},
"geometry":{ "type": "Point", "coordinates": [-122.323418,47.860638]}},
{ "type": "Feature", "properties": {"Name":"Meadow Glade CDP","State":"Washington","State_Abbrev":"WA"},
"geometry":{ "type": "Point", "coordinates": [-122.561452,45.752329]}},
{ "type": "Feature", "properties": {"Name":"Medical Lake city","State":"Washington","State_Abbrev":"WA"},
"geometry":{ "type": "Point", "coordinates": [-117.68945,47.571039]}},
{ "type": "Feature", "properties": {"Name":"Medina city","State":"Washington","State_Abbrev":"WA"},
"geometry":{ "type": "Point", "coordinates": [-122.242866,47.626541]}},
{ "type": "Feature", "properties": {"Name":"Mercer Island city","State":"Washington","State_Abbrev":"WA"},
"geometry":{ "type": "Point", "coordinates": [-122.231214,47.564004]}},
{ "type": "Feature", "properties": {"Name":"Mesa city","State":"Washington","State_Abbrev":"WA"},
"geometry":{ "type": "Point", "coordinates": [-119.001318,46.573488]}},
{ "type": "Feature", "properties": {"Name":"Metaline town","State":"Washington","State_Abbrev":"WA"},
"geometry":{ "type": "Point", "coordinates": [-117.38702,48.852336]}},
{ "type": "Feature", "properties": {"Name":"Metaline Falls town","State":"Washington","State_Abbrev":"WA"},
"geometry":{ "type": "Point", "coordinates": [-117.371892,48.861295]}},
{ "type": "Feature", "properties": {"Name":"Methow CDP","State":"Washington","State_Abbrev":"WA"},
"geometry":{ "type": "Point", "coordinates": [-120.005197,48.131075]}},
{ "type": "Feature", "properties": {"Name":"Midland CDP","State":"Washington","State_Abbrev":"WA"},
"geometry":{ "type": "Point", "coordinates": [-122.41202,47.173406]}},
{ "type": "Feature", "properties": {"Name":"Mill Creek city","State":"Washington","State_Abbrev":"WA"},
"geometry":{ "type": "Point", "coordinates": [-122.210598,47.865188]}},
{ "type": "Feature", "properties": {"Name":"Mill Creek East CDP","State":"Washington","State_Abbrev":"WA"},
"geometry":{ "type": "Point", "coordinates": [-122.187681,47.836054]}},
{ "type": "Feature", "properties": {"Name":"Millwood city","State":"Washington","State_Abbrev":"WA"},
"geometry":{ "type": "Point", "coordinates": [-117.280079,47.685566]}},
{ "type": "Feature", "properties": {"Name":"Milton city","State":"Washington","State_Abbrev":"WA"},
"geometry":{ "type": "Point", "coordinates": [-122.317289,47.251994]}},
{ "type": "Feature", "properties": {"Name":"Mineral CDP","State":"Washington","State_Abbrev":"WA"},
"geometry":{ "type": "Point", "coordinates": [-122.185993,46.719299]}},
{ "type": "Feature", "properties": {"Name":"Minnehaha CDP","State":"Washington","State_Abbrev":"WA"},
"geometry":{ "type": "Point", "coordinates": [-122.61789,45.656517]}},
{ "type": "Feature", "properties": {"Name":"Mirrormont CDP","State":"Washington","State_Abbrev":"WA"},
"geometry":{ "type": "Point", "coordinates": [-121.990205,47.460218]}},
{ "type": "Feature", "properties": {"Name":"Moclips CDP","State":"Washington","State_Abbrev":"WA"},
"geometry":{ "type": "Point", "coordinates": [-124.198456,47.229431]}},
{ "type": "Feature", "properties": {"Name":"Monroe city","State":"Washington","State_Abbrev":"WA"},
"geometry":{ "type": "Point", "coordinates": [-121.984013,47.859792]}},
{ "type": "Feature", "properties": {"Name":"Monroe North CDP","State":"Washington","State_Abbrev":"WA"},
"geometry":{ "type": "Point", "coordinates": [-121.988546,47.882808]}},
{ "type": "Feature", "properties": {"Name":"Montesano city","State":"Washington","State_Abbrev":"WA"},
"geometry":{ "type": "Point", "coordinates": [-123.585711,47.014726]}},
{ "type": "Feature", "properties": {"Name":"Morton city","State":"Washington","State_Abbrev":"WA"},
"geometry":{ "type": "Point", "coordinates": [-122.281449,46.557382]}},
{ "type": "Feature", "properties": {"Name":"Moses Lake city","State":"Washington","State_Abbrev":"WA"},
"geometry":{ "type": "Point", "coordinates": [-119.276384,47.12785]}},
{ "type": "Feature", "properties": {"Name":"Moses Lake North CDP","State":"Washington","State_Abbrev":"WA"},
"geometry":{ "type": "Point", "coordinates": [-119.317775,47.194955]}},
{ "type": "Feature", "properties": {"Name":"Mossyrock city","State":"Washington","State_Abbrev":"WA"},
"geometry":{ "type": "Point", "coordinates": [-122.488679,46.530491]}},
{ "type": "Feature", "properties": {"Name":"Mountlake Terrace city","State":"Washington","State_Abbrev":"WA"},
"geometry":{ "type": "Point", "coordinates": [-122.302607,47.794329]}},
{ "type": "Feature", "properties": {"Name":"Mount Vernon city","State":"Washington","State_Abbrev":"WA"},
"geometry":{ "type": "Point", "coordinates": [-122.311832,48.417071]}},
{ "type": "Feature", "properties": {"Name":"Mount Vista CDP","State":"Washington","State_Abbrev":"WA"},
"geometry":{ "type": "Point", "coordinates": [-122.631565,45.737288]}},
{ "type": "Feature", "properties": {"Name":"Moxee city","State":"Washington","State_Abbrev":"WA"},
"geometry":{ "type": "Point", "coordinates": [-120.396581,46.563966]}},
{ "type": "Feature", "properties": {"Name":"Mukilteo city","State":"Washington","State_Abbrev":"WA"},
"geometry":{ "type": "Point", "coordinates": [-122.302253,47.913018]}},
{ "type": "Feature", "properties": {"Name":"Naches town","State":"Washington","State_Abbrev":"WA"},
"geometry":{ "type": "Point", "coordinates": [-120.691208,46.725985]}},
{ "type": "Feature", "properties": {"Name":"Napavine city","State":"Washington","State_Abbrev":"WA"},
"geometry":{ "type": "Point", "coordinates": [-122.902031,46.586796]}},
{ "type": "Feature", "properties": {"Name":"Naselle CDP","State":"Washington","State_Abbrev":"WA"},
"geometry":{ "type": "Point", "coordinates": [-123.781565,46.370501]}},
{ "type": "Feature", "properties": {"Name":"Navy Yard City CDP","State":"Washington","State_Abbrev":"WA"},
"geometry":{ "type": "Point", "coordinates": [-122.662454,47.552965]}},
{ "type": "Feature", "properties": {"Name":"Neah Bay CDP","State":"Washington","State_Abbrev":"WA"},
"geometry":{ "type": "Point", "coordinates": [-124.611559,48.360963]}},
{ "type": "Feature", "properties": {"Name":"Neilton CDP","State":"Washington","State_Abbrev":"WA"},
"geometry":{ "type": "Point", "coordinates": [-123.878202,47.403121]}},
{ "type": "Feature", "properties": {"Name":"Nespelem town","State":"Washington","State_Abbrev":"WA"},
"geometry":{ "type": "Point", "coordinates": [-118.972115,48.166906]}},
{ "type": "Feature", "properties": {"Name":"Nespelem Community CDP","State":"Washington","State_Abbrev":"WA"},
"geometry":{ "type": "Point", "coordinates": [-119.048694,48.162461]}},
{ "type": "Feature", "properties": {"Name":"Newcastle city","State":"Washington","State_Abbrev":"WA"},
"geometry":{ "type": "Point", "coordinates": [-122.165582,47.531486]}},
{ "type": "Feature", "properties": {"Name":"Newport city","State":"Washington","State_Abbrev":"WA"},
"geometry":{ "type": "Point", "coordinates": [-117.054641,48.178221]}},
{ "type": "Feature", "properties": {"Name":"Nile CDP","State":"Washington","State_Abbrev":"WA"},
"geometry":{ "type": "Point", "coordinates": [-120.943753,46.834868]}},
{ "type": "Feature", "properties": {"Name":"Nisqually Indian Community CDP","State":"Washington","State_Abbrev":"WA"},
"geometry":{ "type": "Point", "coordinates": [-122.680389,47.029128]}},
{ "type": "Feature", "properties": {"Name":"Nooksack city","State":"Washington","State_Abbrev":"WA"},
"geometry":{ "type": "Point", "coordinates": [-122.317512,48.928112]}},
{ "type": "Feature", "properties": {"Name":"Normandy Park city","State":"Washington","State_Abbrev":"WA"},
"geometry":{ "type": "Point", "coordinates": [-122.344689,47.432975]}},
{ "type": "Feature", "properties": {"Name":"North Bend city","State":"Washington","State_Abbrev":"WA"},
"geometry":{ "type": "Point", "coordinates": [-121.768786,47.487967]}},
{ "type": "Feature", "properties": {"Name":"North Bonneville city","State":"Washington","State_Abbrev":"WA"},
"geometry":{ "type": "Point", "coordinates": [-121.972748,45.641393]}},
{ "type": "Feature", "properties": {"Name":"North Fort Lewis CDP","State":"Washington","State_Abbrev":"WA"},
"geometry":{ "type": "Point", "coordinates": [-122.594551,47.1213]}},
{ "type": "Feature", "properties": {"Name":"North Lynnwood CDP","State":"Washington","State_Abbrev":"WA"},
"geometry":{ "type": "Point", "coordinates": [-122.276265,47.853329]}},
{ "type": "Feature", "properties": {"Name":"North Omak CDP","State":"Washington","State_Abbrev":"WA"},
"geometry":{ "type": "Point", "coordinates": [-119.445839,48.443955]}},
{ "type": "Feature", "properties": {"Name":"Northport town","State":"Washington","State_Abbrev":"WA"},
"geometry":{ "type": "Point", "coordinates": [-117.779696,48.915792]}},
{ "type": "Feature", "properties": {"Name":"North Puyallup CDP","State":"Washington","State_Abbrev":"WA"},
"geometry":{ "type": "Point", "coordinates": [-122.278444,47.198898]}},
{ "type": "Feature", "properties": {"Name":"North Sultan CDP","State":"Washington","State_Abbrev":"WA"},
"geometry":{ "type": "Point", "coordinates": [-121.822949,47.88274]}},
{ "type": "Feature", "properties": {"Name":"Northwest Stanwood CDP","State":"Washington","State_Abbrev":"WA"},
"geometry":{ "type": "Point", "coordinates": [-122.350122,48.262304]}},
{ "type": "Feature", "properties": {"Name":"North Yelm CDP","State":"Washington","State_Abbrev":"WA"},
"geometry":{ "type": "Point", "coordinates": [-122.613633,46.966074]}},
{ "type": "Feature", "properties": {"Name":"Oakesdale town","State":"Washington","State_Abbrev":"WA"},
"geometry":{ "type": "Point", "coordinates": [-117.24644,47.13047]}},
{ "type": "Feature", "properties": {"Name":"Oak Harbor city","State":"Washington","State_Abbrev":"WA"},
"geometry":{ "type": "Point", "coordinates": [-122.628154,48.293832]}},
{ "type": "Feature", "properties": {"Name":"Oakville city","State":"Washington","State_Abbrev":"WA"},
"geometry":{ "type": "Point", "coordinates": [-123.233507,46.840116]}},
{ "type": "Feature", "properties": {"Name":"Ocean City CDP","State":"Washington","State_Abbrev":"WA"},
"geometry":{ "type": "Point", "coordinates": [-124.156919,47.082471]}},
{ "type": "Feature", "properties": {"Name":"Ocean Park CDP","State":"Washington","State_Abbrev":"WA"},
"geometry":{ "type": "Point", "coordinates": [-124.041381,46.496743]}},
{ "type": "Feature", "properties": {"Name":"Ocean Shores city","State":"Washington","State_Abbrev":"WA"},
"geometry":{ "type": "Point", "coordinates": [-124.147207,46.965362]}},
{ "type": "Feature", "properties": {"Name":"Ocosta CDP","State":"Washington","State_Abbrev":"WA"},
"geometry":{ "type": "Point", "coordinates": [-124.032505,46.885532]}},
{ "type": "Feature", "properties": {"Name":"Odessa town","State":"Washington","State_Abbrev":"WA"},
"geometry":{ "type": "Point", "coordinates": [-118.689445,47.332599]}},
{ "type": "Feature", "properties": {"Name":"Okanogan city","State":"Washington","State_Abbrev":"WA"},
"geometry":{ "type": "Point", "coordinates": [-119.578768,48.367273]}},
{ "type": "Feature", "properties": {"Name":"Olympia city","State":"Washington","State_Abbrev":"WA"},
"geometry":{ "type": "Point", "coordinates": [-122.895,47.040604]}},
{ "type": "Feature", "properties": {"Name":"Omak city","State":"Washington","State_Abbrev":"WA"},
"geometry":{ "type": "Point", "coordinates": [-119.530623,48.422338]}},
{ "type": "Feature", "properties": {"Name":"Onalaska CDP","State":"Washington","State_Abbrev":"WA"},
"geometry":{ "type": "Point", "coordinates": [-122.711139,46.578224]}},
{ "type": "Feature", "properties": {"Name":"Orchards CDP","State":"Washington","State_Abbrev":"WA"},
"geometry":{ "type": "Point", "coordinates": [-122.530621,45.688975]}},
{ "type": "Feature", "properties": {"Name":"Orient CDP","State":"Washington","State_Abbrev":"WA"},
"geometry":{ "type": "Point", "coordinates": [-118.205898,48.863766]}},
{ "type": "Feature", "properties": {"Name":"Oroville city","State":"Washington","State_Abbrev":"WA"},
"geometry":{ "type": "Point", "coordinates": [-119.429969,48.946951]}},
{ "type": "Feature", "properties": {"Name":"Orting city","State":"Washington","State_Abbrev":"WA"},
"geometry":{ "type": "Point", "coordinates": [-122.211687,47.096936]}},
{ "type": "Feature", "properties": {"Name":"Oso CDP","State":"Washington","State_Abbrev":"WA"},
"geometry":{ "type": "Point", "coordinates": [-121.91624,48.283764]}},
{ "type": "Feature", "properties": {"Name":"Othello city","State":"Washington","State_Abbrev":"WA"},
"geometry":{ "type": "Point", "coordinates": [-119.165272,46.822136]}},
{ "type": "Feature", "properties": {"Name":"Otis Orchards-East Farms CDP","State":"Washington","State_Abbrev":"WA"},
"geometry":{ "type": "Point", "coordinates": [-117.08515,47.704932]}},
{ "type": "Feature", "properties": {"Name":"Outlook CDP","State":"Washington","State_Abbrev":"WA"},
"geometry":{ "type": "Point", "coordinates": [-120.092812,46.331153]}},
{ "type": "Feature", "properties": {"Name":"Oyehut CDP","State":"Washington","State_Abbrev":"WA"},
"geometry":{ "type": "Point", "coordinates": [-124.165177,47.022589]}},
{ "type": "Feature", "properties": {"Name":"Pacific city","State":"Washington","State_Abbrev":"WA"},
"geometry":{ "type": "Point", "coordinates": [-122.252429,47.261974]}},
{ "type": "Feature", "properties": {"Name":"Pacific Beach CDP","State":"Washington","State_Abbrev":"WA"},
"geometry":{ "type": "Point", "coordinates": [-124.196854,47.214135]}},
{ "type": "Feature", "properties": {"Name":"Packwood CDP","State":"Washington","State_Abbrev":"WA"},
"geometry":{ "type": "Point", "coordinates": [-121.670252,46.608524]}},
{ "type": "Feature", "properties": {"Name":"Palouse city","State":"Washington","State_Abbrev":"WA"},
"geometry":{ "type": "Point", "coordinates": [-117.075207,46.910326]}},
{ "type": "Feature", "properties": {"Name":"Parker CDP","State":"Washington","State_Abbrev":"WA"},
"geometry":{ "type": "Point", "coordinates": [-120.466813,46.502157]}},
{ "type": "Feature", "properties": {"Name":"Parkland CDP","State":"Washington","State_Abbrev":"WA"},
"geometry":{ "type": "Point", "coordinates": [-122.437837,47.141529]}},
{ "type": "Feature", "properties": {"Name":"Parkwood CDP","State":"Washington","State_Abbrev":"WA"},
"geometry":{ "type": "Point", "coordinates": [-122.604375,47.525175]}},
{ "type": "Feature", "properties": {"Name":"Pasco city","State":"Washington","State_Abbrev":"WA"},
"geometry":{ "type": "Point", "coordinates": [-119.12907,46.250289]}},
{ "type": "Feature", "properties": {"Name":"Pataha CDP","State":"Washington","State_Abbrev":"WA"},
"geometry":{ "type": "Point", "coordinates": [-117.544255,46.472674]}},
{ "type": "Feature", "properties": {"Name":"Pateros city","State":"Washington","State_Abbrev":"WA"},
"geometry":{ "type": "Point", "coordinates": [-119.900331,48.053094]}},
{ "type": "Feature", "properties": {"Name":"Peaceful Valley CDP","State":"Washington","State_Abbrev":"WA"},
"geometry":{ "type": "Point", "coordinates": [-122.148325,48.951001]}},
{ "type": "Feature", "properties": {"Name":"Pe Ell town","State":"Washington","State_Abbrev":"WA"},
"geometry":{ "type": "Point", "coordinates": [-123.298311,46.571314]}},
{ "type": "Feature", "properties": {"Name":"Picnic Point CDP","State":"Washington","State_Abbrev":"WA"},
"geometry":{ "type": "Point", "coordinates": [-122.308295,47.876457]}},
{ "type": "Feature", "properties": {"Name":"Pine Grove CDP","State":"Washington","State_Abbrev":"WA"},
"geometry":{ "type": "Point", "coordinates": [-118.683784,48.650161]}},
{ "type": "Feature", "properties": {"Name":"Point Roberts CDP","State":"Washington","State_Abbrev":"WA"},
"geometry":{ "type": "Point", "coordinates": [-123.059496,48.984669]}},
{ "type": "Feature", "properties": {"Name":"Pomeroy city","State":"Washington","State_Abbrev":"WA"},
"geometry":{ "type": "Point", "coordinates": [-117.596541,46.47376]}},
{ "type": "Feature", "properties": {"Name":"Port Angeles city","State":"Washington","State_Abbrev":"WA"},
"geometry":{ "type": "Point", "coordinates": [-123.448013,48.119236]}},
{ "type": "Feature", "properties": {"Name":"Port Angeles East CDP","State":"Washington","State_Abbrev":"WA"},
"geometry":{ "type": "Point", "coordinates": [-123.367131,48.109718]}},
{ "type": "Feature", "properties": {"Name":"Porter CDP","State":"Washington","State_Abbrev":"WA"},
"geometry":{ "type": "Point", "coordinates": [-123.280249,46.948728]}},
{ "type": "Feature", "properties": {"Name":"Port Gamble Tribal Community CDP","State":"Washington","State_Abbrev":"WA"},
"geometry":{ "type": "Point", "coordinates": [-122.557353,47.846162]}},
{ "type": "Feature", "properties": {"Name":"Port Hadlock-Irondale CDP","State":"Washington","State_Abbrev":"WA"},
"geometry":{ "type": "Point", "coordinates": [-122.791449,48.032782]}},
{ "type": "Feature", "properties": {"Name":"Port Ludlow CDP","State":"Washington","State_Abbrev":"WA"},
"geometry":{ "type": "Point", "coordinates": [-122.695066,47.914582]}},
{ "type": "Feature", "properties": {"Name":"Port Orchard city","State":"Washington","State_Abbrev":"WA"},
"geometry":{ "type": "Point", "coordinates": [-122.632431,47.538443]}},
{ "type": "Feature", "properties": {"Name":"Port Townsend city","State":"Washington","State_Abbrev":"WA"},
"geometry":{ "type": "Point", "coordinates": [-122.787876,48.121762]}},
{ "type": "Feature", "properties": {"Name":"Poulsbo city","State":"Washington","State_Abbrev":"WA"},
"geometry":{ "type": "Point", "coordinates": [-122.642152,47.741076]}},
{ "type": "Feature", "properties": {"Name":"Prairie Heights CDP","State":"Washington","State_Abbrev":"WA"},
"geometry":{ "type": "Point", "coordinates": [-122.109161,47.149653]}},
{ "type": "Feature", "properties": {"Name":"Prairie Ridge CDP","State":"Washington","State_Abbrev":"WA"},
"geometry":{ "type": "Point", "coordinates": [-122.139243,47.144388]}},
{ "type": "Feature", "properties": {"Name":"Prescott city","State":"Washington","State_Abbrev":"WA"},
"geometry":{ "type": "Point", "coordinates": [-118.312553,46.298834]}},
{ "type": "Feature", "properties": {"Name":"Prosser city","State":"Washington","State_Abbrev":"WA"},
"geometry":{ "type": "Point", "coordinates": [-119.765366,46.206551]}},
{ "type": "Feature", "properties": {"Name":"Puget Island CDP","State":"Washington","State_Abbrev":"WA"},
"geometry":{ "type": "Point", "coordinates": [-123.381854,46.175652]}},
{ "type": "Feature", "properties": {"Name":"Pullman city","State":"Washington","State_Abbrev":"WA"},
"geometry":{ "type": "Point", "coordinates": [-117.168277,46.733126]}},
{ "type": "Feature", "properties": {"Name":"Purdy CDP","State":"Washington","State_Abbrev":"WA"},
"geometry":{ "type": "Point", "coordinates": [-122.604598,47.396473]}},
{ "type": "Feature", "properties": {"Name":"Puyallup city","State":"Washington","State_Abbrev":"WA"},
"geometry":{ "type": "Point", "coordinates": [-122.291523,47.179046]}},
{ "type": "Feature", "properties": {"Name":"Queets CDP","State":"Washington","State_Abbrev":"WA"},
"geometry":{ "type": "Point", "coordinates": [-124.344762,47.526341]}},
{ "type": "Feature", "properties": {"Name":"Quilcene CDP","State":"Washington","State_Abbrev":"WA"},
"geometry":{ "type": "Point", "coordinates": [-122.91226,47.839248]}},
{ "type": "Feature", "properties": {"Name":"Qui-nai-elt Village CDP","State":"Washington","State_Abbrev":"WA"},
"geometry":{ "type": "Point", "coordinates": [-124.190175,47.250201]}},
{ "type": "Feature", "properties": {"Name":"Quincy city","State":"Washington","State_Abbrev":"WA"},
"geometry":{ "type": "Point", "coordinates": [-119.8525,47.234905]}},
{ "type": "Feature", "properties": {"Name":"Raft Island CDP","State":"Washington","State_Abbrev":"WA"},
"geometry":{ "type": "Point", "coordinates": [-122.667306,47.328216]}},
{ "type": "Feature", "properties": {"Name":"Rainier city","State":"Washington","State_Abbrev":"WA"},
"geometry":{ "type": "Point", "coordinates": [-122.686536,46.89167]}},
{ "type": "Feature", "properties": {"Name":"Ravensdale CDP","State":"Washington","State_Abbrev":"WA"},
"geometry":{ "type": "Point", "coordinates": [-121.980407,47.361865]}},
{ "type": "Feature", "properties": {"Name":"Raymond city","State":"Washington","State_Abbrev":"WA"},
"geometry":{ "type": "Point", "coordinates": [-123.739507,46.683742]}},
{ "type": "Feature", "properties": {"Name":"Reardan town","State":"Washington","State_Abbrev":"WA"},
"geometry":{ "type": "Point", "coordinates": [-117.878575,47.670094]}},
{ "type": "Feature", "properties": {"Name":"Redmond city","State":"Washington","State_Abbrev":"WA"},
"geometry":{ "type": "Point", "coordinates": [-122.115336,47.677924]}},
{ "type": "Feature", "properties": {"Name":"Renton city","State":"Washington","State_Abbrev":"WA"},
"geometry":{ "type": "Point", "coordinates": [-122.194613,47.47919]}},
{ "type": "Feature", "properties": {"Name":"Republic city","State":"Washington","State_Abbrev":"WA"},
"geometry":{ "type": "Point", "coordinates": [-118.733024,48.64882]}},
{ "type": "Feature", "properties": {"Name":"Richland city","State":"Washington","State_Abbrev":"WA"},
"geometry":{ "type": "Point", "coordinates": [-119.292247,46.281588]}},
{ "type": "Feature", "properties": {"Name":"Ridgefield city","State":"Washington","State_Abbrev":"WA"},
"geometry":{ "type": "Point", "coordinates": [-122.70546,45.811605]}},
{ "type": "Feature", "properties": {"Name":"Ritzville city","State":"Washington","State_Abbrev":"WA"},
"geometry":{ "type": "Point", "coordinates": [-118.375351,47.123059]}},
{ "type": "Feature", "properties": {"Name":"Riverbend CDP","State":"Washington","State_Abbrev":"WA"},
"geometry":{ "type": "Point", "coordinates": [-121.751156,47.464458]}},
{ "type": "Feature", "properties": {"Name":"Riverpoint CDP","State":"Washington","State_Abbrev":"WA"},
"geometry":{ "type": "Point", "coordinates": [-121.712389,47.479708]}},
{ "type": "Feature", "properties": {"Name":"River Road CDP","State":"Washington","State_Abbrev":"WA"},
"geometry":{ "type": "Point", "coordinates": [-123.127617,48.067697]}},
{ "type": "Feature", "properties": {"Name":"Riverside town","State":"Washington","State_Abbrev":"WA"},
"geometry":{ "type": "Point", "coordinates": [-119.515666,48.512937]}},
{ "type": "Feature", "properties": {"Name":"Roche Harbor CDP","State":"Washington","State_Abbrev":"WA"},
"geometry":{ "type": "Point", "coordinates": [-123.130616,48.607398]}},
{ "type": "Feature", "properties": {"Name":"Rochester CDP","State":"Washington","State_Abbrev":"WA"},
"geometry":{ "type": "Point", "coordinates": [-123.064253,46.820368]}},
{ "type": "Feature", "properties": {"Name":"Rockford town","State":"Washington","State_Abbrev":"WA"},
"geometry":{ "type": "Point", "coordinates": [-117.130627,47.451474]}},
{ "type": "Feature", "properties": {"Name":"Rock Island city","State":"Washington","State_Abbrev":"WA"},
"geometry":{ "type": "Point", "coordinates": [-120.142076,47.373167]}},
{ "type": "Feature", "properties": {"Name":"Rockport CDP","State":"Washington","State_Abbrev":"WA"},
"geometry":{ "type": "Point", "coordinates": [-121.607522,48.484737]}},
{ "type": "Feature", "properties": {"Name":"Rocky Point CDP","State":"Washington","State_Abbrev":"WA"},
"geometry":{ "type": "Point", "coordinates": [-122.666067,47.594091]}},
{ "type": "Feature", "properties": {"Name":"Ronald CDP","State":"Washington","State_Abbrev":"WA"},
"geometry":{ "type": "Point", "coordinates": [-121.033478,47.233754]}},
{ "type": "Feature", "properties": {"Name":"Roosevelt CDP","State":"Washington","State_Abbrev":"WA"},
"geometry":{ "type": "Point", "coordinates": [-120.236579,45.733056]}},
{ "type": "Feature", "properties": {"Name":"Rosalia town","State":"Washington","State_Abbrev":"WA"},
"geometry":{ "type": "Point", "coordinates": [-117.376477,47.236287]}},
{ "type": "Feature", "properties": {"Name":"Rosburg CDP","State":"Washington","State_Abbrev":"WA"},
"geometry":{ "type": "Point", "coordinates": [-123.643466,46.308133]}},
{ "type": "Feature", "properties": {"Name":"Rosedale CDP","State":"Washington","State_Abbrev":"WA"},
"geometry":{ "type": "Point", "coordinates": [-122.632544,47.341315]}},
{ "type": "Feature", "properties": {"Name":"Roslyn city","State":"Washington","State_Abbrev":"WA"},
"geometry":{ "type": "Point", "coordinates": [-121.141205,47.27003]}},
{ "type": "Feature", "properties": {"Name":"Roy city","State":"Washington","State_Abbrev":"WA"},
"geometry":{ "type": "Point", "coordinates": [-122.540975,46.989941]}},
{ "type": "Feature", "properties": {"Name":"Royal City city","State":"Washington","State_Abbrev":"WA"},
"geometry":{ "type": "Point", "coordinates": [-119.620741,46.901898]}},
{ "type": "Feature", "properties": {"Name":"Ruston city","State":"Washington","State_Abbrev":"WA"},
"geometry":{ "type": "Point", "coordinates": [-122.511769,47.297997]}},
{ "type": "Feature", "properties": {"Name":"Ryderwood CDP","State":"Washington","State_Abbrev":"WA"},
"geometry":{ "type": "Point", "coordinates": [-123.044179,46.374868]}},
{ "type": "Feature", "properties": {"Name":"St. John town","State":"Washington","State_Abbrev":"WA"},
"geometry":{ "type": "Point", "coordinates": [-117.588687,47.091474]}},
{ "type": "Feature", "properties": {"Name":"Salmon Creek CDP","State":"Washington","State_Abbrev":"WA"},
"geometry":{ "type": "Point", "coordinates": [-122.663207,45.709916]}},
{ "type": "Feature", "properties": {"Name":"Sammamish city","State":"Washington","State_Abbrev":"WA"},
"geometry":{ "type": "Point", "coordinates": [-122.038081,47.594268]}},
{ "type": "Feature", "properties": {"Name":"Santiago CDP","State":"Washington","State_Abbrev":"WA"},
"geometry":{ "type": "Point", "coordinates": [-124.231962,47.2988]}},
{ "type": "Feature", "properties": {"Name":"Satsop CDP","State":"Washington","State_Abbrev":"WA"},
"geometry":{ "type": "Point", "coordinates": [-123.483009,47.022858]}},
{ "type": "Feature", "properties": {"Name":"Schwana CDP","State":"Washington","State_Abbrev":"WA"},
"geometry":{ "type": "Point", "coordinates": [-119.923336,46.822086]}},
{ "type": "Feature", "properties": {"Name":"Seabeck CDP","State":"Washington","State_Abbrev":"WA"},
"geometry":{ "type": "Point", "coordinates": [-122.817973,47.644263]}},
{ "type": "Feature", "properties": {"Name":"SeaTac city","State":"Washington","State_Abbrev":"WA"},
"geometry":{ "type": "Point", "coordinates": [-122.298287,47.443403]}},
{ "type": "Feature", "properties": {"Name":"Seattle city","State":"Washington","State_Abbrev":"WA"},
"geometry":{ "type": "Point", "coordinates": [-122.351538,47.619335]}},
{ "type": "Feature", "properties": {"Name":"Sedro-Woolley city","State":"Washington","State_Abbrev":"WA"},
"geometry":{ "type": "Point", "coordinates": [-122.232162,48.511221]}},
{ "type": "Feature", "properties": {"Name":"Sekiu CDP","State":"Washington","State_Abbrev":"WA"},
"geometry":{ "type": "Point", "coordinates": [-124.303469,48.262998]}},
{ "type": "Feature", "properties": {"Name":"Selah city","State":"Washington","State_Abbrev":"WA"},
"geometry":{ "type": "Point", "coordinates": [-120.538257,46.645856]}},
{ "type": "Feature", "properties": {"Name":"Sequim city","State":"Washington","State_Abbrev":"WA"},
"geometry":{ "type": "Point", "coordinates": [-123.087809,48.073688]}},
{ "type": "Feature", "properties": {"Name":"Shadow Lake CDP","State":"Washington","State_Abbrev":"WA"},
"geometry":{ "type": "Point", "coordinates": [-122.079873,47.406058]}},
{ "type": "Feature", "properties": {"Name":"Shelton city","State":"Washington","State_Abbrev":"WA"},
"geometry":{ "type": "Point", "coordinates": [-123.11119,47.218912]}},
{ "type": "Feature", "properties": {"Name":"Shoreline city","State":"Washington","State_Abbrev":"WA"},
"geometry":{ "type": "Point", "coordinates": [-122.345505,47.756917]}},
{ "type": "Feature", "properties": {"Name":"Silvana CDP","State":"Washington","State_Abbrev":"WA"},
"geometry":{ "type": "Point", "coordinates": [-122.245761,48.201849]}},
{ "type": "Feature", "properties": {"Name":"Silverdale CDP","State":"Washington","State_Abbrev":"WA"},
"geometry":{ "type": "Point", "coordinates": [-122.681851,47.667733]}},
{ "type": "Feature", "properties": {"Name":"Silver Firs CDP","State":"Washington","State_Abbrev":"WA"},
"geometry":{ "type": "Point", "coordinates": [-122.149716,47.863505]}},
{ "type": "Feature", "properties": {"Name":"Sisco Heights CDP","State":"Washington","State_Abbrev":"WA"},
"geometry":{ "type": "Point", "coordinates": [-122.110596,48.118012]}},
{ "type": "Feature", "properties": {"Name":"Skamokawa Valley CDP","State":"Washington","State_Abbrev":"WA"},
"geometry":{ "type": "Point", "coordinates": [-123.401371,46.315241]}},
{ "type": "Feature", "properties": {"Name":"Skokomish CDP","State":"Washington","State_Abbrev":"WA"},
"geometry":{ "type": "Point", "coordinates": [-123.1588,47.328343]}},
{ "type": "Feature", "properties": {"Name":"Skykomish town","State":"Washington","State_Abbrev":"WA"},
"geometry":{ "type": "Point", "coordinates": [-121.356448,47.709852]}},
{ "type": "Feature", "properties": {"Name":"Snohomish city","State":"Washington","State_Abbrev":"WA"},
"geometry":{ "type": "Point", "coordinates": [-122.092684,47.928866]}},
{ "type": "Feature", "properties": {"Name":"Snoqualmie city","State":"Washington","State_Abbrev":"WA"},
"geometry":{ "type": "Point", "coordinates": [-121.868645,47.543245]}},
{ "type": "Feature", "properties": {"Name":"Snoqualmie Pass CDP","State":"Washington","State_Abbrev":"WA"},
"geometry":{ "type": "Point", "coordinates": [-121.410987,47.401408]}},
{ "type": "Feature", "properties": {"Name":"Soap Lake city","State":"Washington","State_Abbrev":"WA"},
"geometry":{ "type": "Point", "coordinates": [-119.484608,47.391092]}},
{ "type": "Feature", "properties": {"Name":"South Bend city","State":"Washington","State_Abbrev":"WA"},
"geometry":{ "type": "Point", "coordinates": [-123.801846,46.669889]}},
{ "type": "Feature", "properties": {"Name":"South Cle Elum town","State":"Washington","State_Abbrev":"WA"},
"geometry":{ "type": "Point", "coordinates": [-120.952549,47.186205]}},
{ "type": "Feature", "properties": {"Name":"South Creek CDP","State":"Washington","State_Abbrev":"WA"},
"geometry":{ "type": "Point", "coordinates": [-122.391334,47.000389]}},
{ "type": "Feature", "properties": {"Name":"South Hill CDP","State":"Washington","State_Abbrev":"WA"},
"geometry":{ "type": "Point", "coordinates": [-122.285264,47.120704]}},
{ "type": "Feature", "properties": {"Name":"South Prairie town","State":"Washington","State_Abbrev":"WA"},
"geometry":{ "type": "Point", "coordinates": [-122.096623,47.135386]}},
{ "type": "Feature", "properties": {"Name":"South Wenatchee CDP","State":"Washington","State_Abbrev":"WA"},
"geometry":{ "type": "Point", "coordinates": [-120.289252,47.394422]}},
{ "type": "Feature", "properties": {"Name":"Southworth CDP","State":"Washington","State_Abbrev":"WA"},
"geometry":{ "type": "Point", "coordinates": [-122.532242,47.51378]}},
{ "type": "Feature", "properties": {"Name":"Spanaway CDP","State":"Washington","State_Abbrev":"WA"},
"geometry":{ "type": "Point", "coordinates": [-122.42337,47.098061]}},
{ "type": "Feature", "properties": {"Name":"Spangle city","State":"Washington","State_Abbrev":"WA"},
"geometry":{ "type": "Point", "coordinates": [-117.381224,47.429894]}},
{ "type": "Feature", "properties": {"Name":"Spokane city","State":"Washington","State_Abbrev":"WA"},
"geometry":{ "type": "Point", "coordinates": [-117.433322,47.666935]}},
{ "type": "Feature", "properties": {"Name":"Spokane Valley city","State":"Washington","State_Abbrev":"WA"},
"geometry":{ "type": "Point", "coordinates": [-117.23278,47.663353]}},
{ "type": "Feature", "properties": {"Name":"Sprague city","State":"Washington","State_Abbrev":"WA"},
"geometry":{ "type": "Point", "coordinates": [-117.97129,47.304889]}},
{ "type": "Feature", "properties": {"Name":"Springdale town","State":"Washington","State_Abbrev":"WA"},
"geometry":{ "type": "Point", "coordinates": [-117.746565,48.057231]}},
{ "type": "Feature", "properties": {"Name":"Stansberry Lake CDP","State":"Washington","State_Abbrev":"WA"},
"geometry":{ "type": "Point", "coordinates": [-122.711992,47.38291]}},
{ "type": "Feature", "properties": {"Name":"Stanwood city","State":"Washington","State_Abbrev":"WA"},
"geometry":{ "type": "Point", "coordinates": [-122.342232,48.245144]}},
{ "type": "Feature", "properties": {"Name":"Starbuck town","State":"Washington","State_Abbrev":"WA"},
"geometry":{ "type": "Point", "coordinates": [-118.128876,46.521599]}},
{ "type": "Feature", "properties": {"Name":"Startup CDP","State":"Washington","State_Abbrev":"WA"},
"geometry":{ "type": "Point", "coordinates": [-121.754426,47.874183]}},
{ "type": "Feature", "properties": {"Name":"Steilacoom town","State":"Washington","State_Abbrev":"WA"},
"geometry":{ "type": "Point", "coordinates": [-122.592336,47.169267]}},
{ "type": "Feature", "properties": {"Name":"Steptoe CDP","State":"Washington","State_Abbrev":"WA"},
"geometry":{ "type": "Point", "coordinates": [-117.350209,47.007401]}},
{ "type": "Feature", "properties": {"Name":"Stevenson city","State":"Washington","State_Abbrev":"WA"},
"geometry":{ "type": "Point", "coordinates": [-121.896374,45.694743]}},
{ "type": "Feature", "properties": {"Name":"Sudden Valley CDP","State":"Washington","State_Abbrev":"WA"},
"geometry":{ "type": "Point", "coordinates": [-122.344096,48.723084]}},
{ "type": "Feature", "properties": {"Name":"Sultan city","State":"Washington","State_Abbrev":"WA"},
"geometry":{ "type": "Point", "coordinates": [-121.804106,47.871132]}},
{ "type": "Feature", "properties": {"Name":"Sumas city","State":"Washington","State_Abbrev":"WA"},
"geometry":{ "type": "Point", "coordinates": [-122.268453,48.995534]}},
{ "type": "Feature", "properties": {"Name":"Summit CDP","State":"Washington","State_Abbrev":"WA"},
"geometry":{ "type": "Point", "coordinates": [-122.363627,47.169445]}},
{ "type": "Feature", "properties": {"Name":"Summit View CDP","State":"Washington","State_Abbrev":"WA"},
"geometry":{ "type": "Point", "coordinates": [-122.352022,47.136325]}},
{ "type": "Feature", "properties": {"Name":"Summitview CDP","State":"Washington","State_Abbrev":"WA"},
"geometry":{ "type": "Point", "coordinates": [-120.6564,46.598279]}},
{ "type": "Feature", "properties": {"Name":"Sumner city","State":"Washington","State_Abbrev":"WA"},
"geometry":{ "type": "Point", "coordinates": [-122.236264,47.227215]}},
{ "type": "Feature", "properties": {"Name":"Suncrest CDP","State":"Washington","State_Abbrev":"WA"},
"geometry":{ "type": "Point", "coordinates": [-117.602998,47.828527]}},
{ "type": "Feature", "properties": {"Name":"Sunday Lake CDP","State":"Washington","State_Abbrev":"WA"},
"geometry":{ "type": "Point", "coordinates": [-122.270456,48.228253]}},
{ "type": "Feature", "properties": {"Name":"Sunland Estates CDP","State":"Washington","State_Abbrev":"WA"},
"geometry":{ "type": "Point", "coordinates": [-120.028303,47.074097]}},
{ "type": "Feature", "properties": {"Name":"Sunnyside city","State":"Washington","State_Abbrev":"WA"},
"geometry":{ "type": "Point", "coordinates": [-120.005834,46.315758]}},
{ "type": "Feature", "properties": {"Name":"Sunnyslope CDP","State":"Washington","State_Abbrev":"WA"},
"geometry":{ "type": "Point", "coordinates": [-120.353219,47.504826]}},
{ "type": "Feature", "properties": {"Name":"Suquamish CDP","State":"Washington","State_Abbrev":"WA"},
"geometry":{ "type": "Point", "coordinates": [-122.588347,47.725917]}},
{ "type": "Feature", "properties": {"Name":"Swede Heaven CDP","State":"Washington","State_Abbrev":"WA"},
"geometry":{ "type": "Point", "coordinates": [-121.709853,48.280667]}},
{ "type": "Feature", "properties": {"Name":"Tacoma city","State":"Washington","State_Abbrev":"WA"},
"geometry":{ "type": "Point", "coordinates": [-122.459832,47.252199]}},
{ "type": "Feature", "properties": {"Name":"Taholah CDP","State":"Washington","State_Abbrev":"WA"},
"geometry":{ "type": "Point", "coordinates": [-124.272931,47.325981]}},
{ "type": "Feature", "properties": {"Name":"Tampico CDP","State":"Washington","State_Abbrev":"WA"},
"geometry":{ "type": "Point", "coordinates": [-120.874916,46.532214]}},
{ "type": "Feature", "properties": {"Name":"Tanglewilde CDP","State":"Washington","State_Abbrev":"WA"},
"geometry":{ "type": "Point", "coordinates": [-122.782217,47.051342]}},
{ "type": "Feature", "properties": {"Name":"Tehaleh CDP","State":"Washington","State_Abbrev":"WA"},
"geometry":{ "type": "Point", "coordinates": [-122.178885,47.116149]}},
{ "type": "Feature", "properties": {"Name":"Tekoa city","State":"Washington","State_Abbrev":"WA"},
"geometry":{ "type": "Point", "coordinates": [-117.073057,47.224731]}},
{ "type": "Feature", "properties": {"Name":"Tenino city","State":"Washington","State_Abbrev":"WA"},
"geometry":{ "type": "Point", "coordinates": [-122.86045,46.853817]}},
{ "type": "Feature", "properties": {"Name":"Terrace Heights CDP","State":"Washington","State_Abbrev":"WA"},
"geometry":{ "type": "Point", "coordinates": [-120.436007,46.600078]}},
{ "type": "Feature", "properties": {"Name":"Thorp CDP","State":"Washington","State_Abbrev":"WA"},
"geometry":{ "type": "Point", "coordinates": [-120.670837,47.065483]}},
{ "type": "Feature", "properties": {"Name":"Three Lakes CDP","State":"Washington","State_Abbrev":"WA"},
"geometry":{ "type": "Point", "coordinates": [-121.978502,47.955367]}},
{ "type": "Feature", "properties": {"Name":"Tieton city","State":"Washington","State_Abbrev":"WA"},
"geometry":{ "type": "Point", "coordinates": [-120.755784,46.702603]}},
{ "type": "Feature", "properties": {"Name":"Tokeland CDP","State":"Washington","State_Abbrev":"WA"},
"geometry":{ "type": "Point", "coordinates": [-123.983386,46.708781]}},
{ "type": "Feature", "properties": {"Name":"Toledo city","State":"Washington","State_Abbrev":"WA"},
"geometry":{ "type": "Point", "coordinates": [-122.85223,46.444721]}},
{ "type": "Feature", "properties": {"Name":"Tonasket city","State":"Washington","State_Abbrev":"WA"},
"geometry":{ "type": "Point", "coordinates": [-119.442297,48.707563]}},
{ "type": "Feature", "properties": {"Name":"Toppenish city","State":"Washington","State_Abbrev":"WA"},
"geometry":{ "type": "Point", "coordinates": [-120.312202,46.380498]}},
{ "type": "Feature", "properties": {"Name":"Torboy CDP","State":"Washington","State_Abbrev":"WA"},
"geometry":{ "type": "Point", "coordinates": [-118.669013,48.669266]}},
{ "type": "Feature", "properties": {"Name":"Touchet CDP","State":"Washington","State_Abbrev":"WA"},
"geometry":{ "type": "Point", "coordinates": [-118.672394,46.041103]}},
{ "type": "Feature", "properties": {"Name":"Town and Country CDP","State":"Washington","State_Abbrev":"WA"},
"geometry":{ "type": "Point", "coordinates": [-117.422965,47.727965]}},
{ "type": "Feature", "properties": {"Name":"Tracyton CDP","State":"Washington","State_Abbrev":"WA"},
"geometry":{ "type": "Point", "coordinates": [-122.653182,47.609576]}},
{ "type": "Feature", "properties": {"Name":"Trout Lake CDP","State":"Washington","State_Abbrev":"WA"},
"geometry":{ "type": "Point", "coordinates": [-121.528843,45.997772]}},
{ "type": "Feature", "properties": {"Name":"Tukwila city","State":"Washington","State_Abbrev":"WA"},
"geometry":{ "type": "Point", "coordinates": [-122.27574,47.476289]}},
{ "type": "Feature", "properties": {"Name":"Tumwater city","State":"Washington","State_Abbrev":"WA"},
"geometry":{ "type": "Point", "coordinates": [-122.917277,46.989463]}},
{ "type": "Feature", "properties": {"Name":"Twin Lakes CDP","State":"Washington","State_Abbrev":"WA"},
"geometry":{ "type": "Point", "coordinates": [-118.359053,48.262169]}},
{ "type": "Feature", "properties": {"Name":"Twisp town","State":"Washington","State_Abbrev":"WA"},
"geometry":{ "type": "Point", "coordinates": [-120.117135,48.361004]}},
{ "type": "Feature", "properties": {"Name":"Union CDP","State":"Washington","State_Abbrev":"WA"},
"geometry":{ "type": "Point", "coordinates": [-123.095079,47.347507]}},
{ "type": "Feature", "properties": {"Name":"Union Gap city","State":"Washington","State_Abbrev":"WA"},
"geometry":{ "type": "Point", "coordinates": [-120.492073,46.554429]}},
{ "type": "Feature", "properties": {"Name":"Union Hill-Novelty Hill CDP","State":"Washington","State_Abbrev":"WA"},
"geometry":{ "type": "Point", "coordinates": [-122.022686,47.682284]}},
{ "type": "Feature", "properties": {"Name":"Uniontown town","State":"Washington","State_Abbrev":"WA"},
"geometry":{ "type": "Point", "coordinates": [-117.086137,46.539091]}},
{ "type": "Feature", "properties": {"Name":"University Place city","State":"Washington","State_Abbrev":"WA"},
"geometry":{ "type": "Point", "coordinates": [-122.547259,47.215371]}},
{ "type": "Feature", "properties": {"Name":"Upper Elochoman CDP","State":"Washington","State_Abbrev":"WA"},
"geometry":{ "type": "Point", "coordinates": [-123.324565,46.240347]}},
{ "type": "Feature", "properties": {"Name":"Vader city","State":"Washington","State_Abbrev":"WA"},
"geometry":{ "type": "Point", "coordinates": [-122.956943,46.404515]}},
{ "type": "Feature", "properties": {"Name":"Valley CDP","State":"Washington","State_Abbrev":"WA"},
"geometry":{ "type": "Point", "coordinates": [-117.724464,48.172881]}},
{ "type": "Feature", "properties": {"Name":"Vancouver city","State":"Washington","State_Abbrev":"WA"},
"geometry":{ "type": "Point", "coordinates": [-122.596567,45.637156]}},
{ "type": "Feature", "properties": {"Name":"Vantage CDP","State":"Washington","State_Abbrev":"WA"},
"geometry":{ "type": "Point", "coordinates": [-119.99215,46.945232]}},
{ "type": "Feature", "properties": {"Name":"Vashon CDP","State":"Washington","State_Abbrev":"WA"},
"geometry":{ "type": "Point", "coordinates": [-122.455105,47.411191]}},
{ "type": "Feature", "properties": {"Name":"Vaughn CDP","State":"Washington","State_Abbrev":"WA"},
"geometry":{ "type": "Point", "coordinates": [-122.78249,47.357979]}},
{ "type": "Feature", "properties": {"Name":"Venersborg CDP","State":"Washington","State_Abbrev":"WA"},
"geometry":{ "type": "Point", "coordinates": [-122.471557,45.785974]}},
{ "type": "Feature", "properties": {"Name":"Verlot CDP","State":"Washington","State_Abbrev":"WA"},
"geometry":{ "type": "Point", "coordinates": [-121.759218,48.101994]}},
{ "type": "Feature", "properties": {"Name":"Waitsburg city","State":"Washington","State_Abbrev":"WA"},
"geometry":{ "type": "Point", "coordinates": [-118.150871,46.269799]}},
{ "type": "Feature", "properties": {"Name":"Walla Walla city","State":"Washington","State_Abbrev":"WA"},
"geometry":{ "type": "Point", "coordinates": [-118.337033,46.067006]}},
{ "type": "Feature", "properties": {"Name":"Walla Walla East CDP","State":"Washington","State_Abbrev":"WA"},
"geometry":{ "type": "Point", "coordinates": [-118.303305,46.045935]}},
{ "type": "Feature", "properties": {"Name":"Waller CDP","State":"Washington","State_Abbrev":"WA"},
"geometry":{ "type": "Point", "coordinates": [-122.367804,47.20431]}},
{ "type": "Feature", "properties": {"Name":"Wallula CDP","State":"Washington","State_Abbrev":"WA"},
"geometry":{ "type": "Point", "coordinates": [-118.905593,46.0847]}},
{ "type": "Feature", "properties": {"Name":"Wapato city","State":"Washington","State_Abbrev":"WA"},
"geometry":{ "type": "Point", "coordinates": [-120.421507,46.443632]}},
{ "type": "Feature", "properties": {"Name":"Warden city","State":"Washington","State_Abbrev":"WA"},
"geometry":{ "type": "Point", "coordinates": [-119.052783,46.967256]}},
{ "type": "Feature", "properties": {"Name":"Warm Beach CDP","State":"Washington","State_Abbrev":"WA"},
"geometry":{ "type": "Point", "coordinates": [-122.347701,48.165106]}},
{ "type": "Feature", "properties": {"Name":"Washougal city","State":"Washington","State_Abbrev":"WA"},
"geometry":{ "type": "Point", "coordinates": [-122.346384,45.582801]}},
{ "type": "Feature", "properties": {"Name":"Washtucna town","State":"Washington","State_Abbrev":"WA"},
"geometry":{ "type": "Point", "coordinates": [-118.310539,46.75391]}},
{ "type": "Feature", "properties": {"Name":"Waterville town","State":"Washington","State_Abbrev":"WA"},
"geometry":{ "type": "Point", "coordinates": [-120.070682,47.648019]}},
{ "type": "Feature", "properties": {"Name":"Wauna CDP","State":"Washington","State_Abbrev":"WA"},
"geometry":{ "type": "Point", "coordinates": [-122.669385,47.383066]}},
{ "type": "Feature", "properties": {"Name":"Waverly town","State":"Washington","State_Abbrev":"WA"},
"geometry":{ "type": "Point", "coordinates": [-117.231225,47.338087]}},
{ "type": "Feature", "properties": {"Name":"Wenatchee city","State":"Washington","State_Abbrev":"WA"},
"geometry":{ "type": "Point", "coordinates": [-120.329266,47.435985]}},
{ "type": "Feature", "properties": {"Name":"West Clarkston-Highland CDP","State":"Washington","State_Abbrev":"WA"},
"geometry":{ "type": "Point", "coordinates": [-117.064486,46.402499]}},
{ "type": "Feature", "properties": {"Name":"West Pasco CDP","State":"Washington","State_Abbrev":"WA"},
"geometry":{ "type": "Point", "coordinates": [-119.182636,46.254319]}},
{ "type": "Feature", "properties": {"Name":"Westport city","State":"Washington","State_Abbrev":"WA"},
"geometry":{ "type": "Point", "coordinates": [-124.119847,46.891815]}},
{ "type": "Feature", "properties": {"Name":"West Richland city","State":"Washington","State_Abbrev":"WA"},
"geometry":{ "type": "Point", "coordinates": [-119.387768,46.313808]}},
{ "type": "Feature", "properties": {"Name":"Wheeler CDP","State":"Washington","State_Abbrev":"WA"},
"geometry":{ "type": "Point", "coordinates": [-119.175978,47.134935]}},
{ "type": "Feature", "properties": {"Name":"Whidbey Island Station CDP","State":"Washington","State_Abbrev":"WA"},
"geometry":{ "type": "Point", "coordinates": [-122.653869,48.349186]}},
{ "type": "Feature", "properties": {"Name":"White Center CDP","State":"Washington","State_Abbrev":"WA"},
"geometry":{ "type": "Point", "coordinates": [-122.348063,47.50924]}},
{ "type": "Feature", "properties": {"Name":"White Salmon city","State":"Washington","State_Abbrev":"WA"},
"geometry":{ "type": "Point", "coordinates": [-121.485388,45.728394]}},
{ "type": "Feature", "properties": {"Name":"White Swan CDP","State":"Washington","State_Abbrev":"WA"},
"geometry":{ "type": "Point", "coordinates": [-120.738123,46.376978]}},
{ "type": "Feature", "properties": {"Name":"Wilbur town","State":"Washington","State_Abbrev":"WA"},
"geometry":{ "type": "Point", "coordinates": [-118.71194,47.758132]}},
{ "type": "Feature", "properties": {"Name":"Wilderness Rim CDP","State":"Washington","State_Abbrev":"WA"},
"geometry":{ "type": "Point", "coordinates": [-121.768572,47.446975]}},
{ "type": "Feature", "properties": {"Name":"Wilkeson town","State":"Washington","State_Abbrev":"WA"},
"geometry":{ "type": "Point", "coordinates": [-122.052453,47.101266]}},
{ "type": "Feature", "properties": {"Name":"Willapa CDP","State":"Washington","State_Abbrev":"WA"},
"geometry":{ "type": "Point", "coordinates": [-123.664752,46.675447]}},
{ "type": "Feature", "properties": {"Name":"Wilson Creek town","State":"Washington","State_Abbrev":"WA"},
"geometry":{ "type": "Point", "coordinates": [-119.117651,47.423013]}},
{ "type": "Feature", "properties": {"Name":"Winlock city","State":"Washington","State_Abbrev":"WA"},
"geometry":{ "type": "Point", "coordinates": [-122.934229,46.490659]}},
{ "type": "Feature", "properties": {"Name":"Winthrop town","State":"Washington","State_Abbrev":"WA"},
"geometry":{ "type": "Point", "coordinates": [-120.179084,48.471574]}},
{ "type": "Feature", "properties": {"Name":"Wishram CDP","State":"Washington","State_Abbrev":"WA"},
"geometry":{ "type": "Point", "coordinates": [-120.971368,45.661331]}},
{ "type": "Feature", "properties": {"Name":"Wollochet CDP","State":"Washington","State_Abbrev":"WA"},
"geometry":{ "type": "Point", "coordinates": [-122.577147,47.282729]}},
{ "type": "Feature", "properties": {"Name":"Woodinville city","State":"Washington","State_Abbrev":"WA"},
"geometry":{ "type": "Point", "coordinates": [-122.146791,47.757695]}},
{ "type": "Feature", "properties": {"Name":"Woodland city","State":"Washington","State_Abbrev":"WA"},
"geometry":{ "type": "Point", "coordinates": [-122.753502,45.918183]}},
{ "type": "Feature", "properties": {"Name":"Woods Creek CDP","State":"Washington","State_Abbrev":"WA"},
"geometry":{ "type": "Point", "coordinates": [-121.902614,47.877446]}},
{ "type": "Feature", "properties": {"Name":"Woodway city","State":"Washington","State_Abbrev":"WA"},
"geometry":{ "type": "Point", "coordinates": [-122.388019,47.787946]}},
{ "type": "Feature", "properties": {"Name":"Yacolt town","State":"Washington","State_Abbrev":"WA"},
"geometry":{ "type": "Point", "coordinates": [-122.40628,45.865243]}},
{ "type": "Feature", "properties": {"Name":"Yakima city","State":"Washington","State_Abbrev":"WA"},
"geometry":{ "type": "Point", "coordinates": [-120.5494,46.590938]}},
{ "type": "Feature", "properties": {"Name":"Yarrow Point town","State":"Washington","State_Abbrev":"WA"},
"geometry":{ "type": "Point", "coordinates": [-122.219994,47.644576]}},
{ "type": "Feature", "properties": {"Name":"Yelm city","State":"Washington","State_Abbrev":"WA"},
"geometry":{ "type": "Point", "coordinates": [-122.643159,46.942608]}},
{ "type": "Feature", "properties": {"Name":"Zillah city","State":"Washington","State_Abbrev":"WA"},
"geometry":{ "type": "Point", "coordinates": [-120.272663,46.408424]}}]}
