{"type":"FeatureCollection","features":[
{ "type": "Feature", "properties": {"Name":"Accoville CDP","State":"West Virginia","State_Abbrev":"WV"},
"geometry":{ "type": "Point", "coordinates": [-81.82695,37.76473]}},
{ "type": "Feature", "properties": {"Name":"Addison (Webster Springs) town","State":"West Virginia","State_Abbrev":"WV"},
"geometry":{ "type": "Point", "coordinates": [-80.405301,38.477704]}},
{ "type": "Feature", "properties": {"Name":"Adrian CDP","State":"West Virginia","State_Abbrev":"WV"},
"geometry":{ "type": "Point", "coordinates": [-80.27292,38.906881]}},
{ "type": "Feature", "properties": {"Name":"Albright town","State":"West Virginia","State_Abbrev":"WV"},
"geometry":{ "type": "Point", "coordinates": [-79.639805,39.494735]}},
{ "type": "Feature", "properties": {"Name":"Alderson town","State":"West Virginia","State_Abbrev":"WV"},
"geometry":{ "type": "Point", "coordinates": [-80.641983,37.729747]}},
{ "type": "Feature", "properties": {"Name":"Alum Creek CDP","State":"West Virginia","State_Abbrev":"WV"},
"geometry":{ "type": "Point", "coordinates": [-81.83856,38.289046]}},
{ "type": "Feature", "properties": {"Name":"Amherstdale CDP","State":"West Virginia","State_Abbrev":"WV"},
"geometry":{ "type": "Point", "coordinates": [-81.827071,37.782622]}},
{ "type": "Feature", "properties": {"Name":"Anawalt town","State":"West Virginia","State_Abbrev":"WV"},
"geometry":{ "type": "Point", "coordinates": [-81.440596,37.336456]}},
{ "type": "Feature", "properties": {"Name":"Anmoore town","State":"West Virginia","State_Abbrev":"WV"},
"geometry":{ "type": "Point", "coordinates": [-80.293972,39.256318]}},
{ "type": "Feature", "properties": {"Name":"Ansted town","State":"West Virginia","State_Abbrev":"WV"},
"geometry":{ "type": "Point", "coordinates": [-81.103542,38.135444]}},
{ "type": "Feature", "properties": {"Name":"Apple Grove CDP","State":"West Virginia","State_Abbrev":"WV"},
"geometry":{ "type": "Point", "coordinates": [-82.171736,38.666585]}},
{ "type": "Feature", "properties": {"Name":"Arbovale CDP","State":"West Virginia","State_Abbrev":"WV"},
"geometry":{ "type": "Point", "coordinates": [-79.811685,38.435369]}},
{ "type": "Feature", "properties": {"Name":"Arthurdale CDP","State":"West Virginia","State_Abbrev":"WV"},
"geometry":{ "type": "Point", "coordinates": [-79.817517,39.495056]}},
{ "type": "Feature", "properties": {"Name":"Athens town","State":"West Virginia","State_Abbrev":"WV"},
"geometry":{ "type": "Point", "coordinates": [-81.012462,37.420736]}},
{ "type": "Feature", "properties": {"Name":"Auburn town","State":"West Virginia","State_Abbrev":"WV"},
"geometry":{ "type": "Point", "coordinates": [-80.85624,39.096151]}},
{ "type": "Feature", "properties": {"Name":"Aurora CDP","State":"West Virginia","State_Abbrev":"WV"},
"geometry":{ "type": "Point", "coordinates": [-79.554583,39.325407]}},
{ "type": "Feature", "properties": {"Name":"Bancroft town","State":"West Virginia","State_Abbrev":"WV"},
"geometry":{ "type": "Point", "coordinates": [-81.841443,38.510654]}},
{ "type": "Feature", "properties": {"Name":"Barboursville village","State":"West Virginia","State_Abbrev":"WV"},
"geometry":{ "type": "Point", "coordinates": [-82.295332,38.406383]}},
{ "type": "Feature", "properties": {"Name":"Barrackville town","State":"West Virginia","State_Abbrev":"WV"},
"geometry":{ "type": "Point", "coordinates": [-80.169786,39.501715]}},
{ "type": "Feature", "properties": {"Name":"Bartley CDP","State":"West Virginia","State_Abbrev":"WV"},
"geometry":{ "type": "Point", "coordinates": [-81.733856,37.334736]}},
{ "type": "Feature", "properties": {"Name":"Bartow CDP","State":"West Virginia","State_Abbrev":"WV"},
"geometry":{ "type": "Point", "coordinates": [-79.785783,38.542163]}},
{ "type": "Feature", "properties": {"Name":"Bath (Berkeley Springs) town","State":"West Virginia","State_Abbrev":"WV"},
"geometry":{ "type": "Point", "coordinates": [-78.227534,39.624722]}},
{ "type": "Feature", "properties": {"Name":"Baxter CDP","State":"West Virginia","State_Abbrev":"WV"},
"geometry":{ "type": "Point", "coordinates": [-80.144176,39.540758]}},
{ "type": "Feature", "properties": {"Name":"Bayard town","State":"West Virginia","State_Abbrev":"WV"},
"geometry":{ "type": "Point", "coordinates": [-79.366175,39.271062]}},
{ "type": "Feature", "properties": {"Name":"Beards Fork CDP","State":"West Virginia","State_Abbrev":"WV"},
"geometry":{ "type": "Point", "coordinates": [-81.227681,38.065037]}},
{ "type": "Feature", "properties": {"Name":"Beaver CDP","State":"West Virginia","State_Abbrev":"WV"},
"geometry":{ "type": "Point", "coordinates": [-81.157152,37.732918]}},
{ "type": "Feature", "properties": {"Name":"Beckley city","State":"West Virginia","State_Abbrev":"WV"},
"geometry":{ "type": "Point", "coordinates": [-81.16155,37.773148]}},
{ "type": "Feature", "properties": {"Name":"Beech Bottom village","State":"West Virginia","State_Abbrev":"WV"},
"geometry":{ "type": "Point", "coordinates": [-80.657935,40.223251]}},
{ "type": "Feature", "properties": {"Name":"Belington town","State":"West Virginia","State_Abbrev":"WV"},
"geometry":{ "type": "Point", "coordinates": [-79.940847,39.015074]}},
{ "type": "Feature", "properties": {"Name":"Belle town","State":"West Virginia","State_Abbrev":"WV"},
"geometry":{ "type": "Point", "coordinates": [-81.5367,38.235388]}},
{ "type": "Feature", "properties": {"Name":"Belmont city","State":"West Virginia","State_Abbrev":"WV"},
"geometry":{ "type": "Point", "coordinates": [-81.263823,39.378046]}},
{ "type": "Feature", "properties": {"Name":"Belva CDP","State":"West Virginia","State_Abbrev":"WV"},
"geometry":{ "type": "Point", "coordinates": [-81.187801,38.233657]}},
{ "type": "Feature", "properties": {"Name":"Benwood city","State":"West Virginia","State_Abbrev":"WV"},
"geometry":{ "type": "Point", "coordinates": [-80.730567,40.004606]}},
{ "type": "Feature", "properties": {"Name":"Bergoo CDP","State":"West Virginia","State_Abbrev":"WV"},
"geometry":{ "type": "Point", "coordinates": [-80.297678,38.482901]}},
{ "type": "Feature", "properties": {"Name":"Berwind CDP","State":"West Virginia","State_Abbrev":"WV"},
"geometry":{ "type": "Point", "coordinates": [-81.655808,37.260429]}},
{ "type": "Feature", "properties": {"Name":"Bethany town","State":"West Virginia","State_Abbrev":"WV"},
"geometry":{ "type": "Point", "coordinates": [-80.560862,40.204846]}},
{ "type": "Feature", "properties": {"Name":"Bethlehem village","State":"West Virginia","State_Abbrev":"WV"},
"geometry":{ "type": "Point", "coordinates": [-80.688097,40.044377]}},
{ "type": "Feature", "properties": {"Name":"Beverly town","State":"West Virginia","State_Abbrev":"WV"},
"geometry":{ "type": "Point", "coordinates": [-79.871805,38.844082]}},
{ "type": "Feature", "properties": {"Name":"Big Chimney CDP","State":"West Virginia","State_Abbrev":"WV"},
"geometry":{ "type": "Point", "coordinates": [-81.531808,38.415207]}},
{ "type": "Feature", "properties": {"Name":"Big Creek CDP","State":"West Virginia","State_Abbrev":"WV"},
"geometry":{ "type": "Point", "coordinates": [-82.036073,38.005365]}},
{ "type": "Feature", "properties": {"Name":"Big Sandy CDP","State":"West Virginia","State_Abbrev":"WV"},
"geometry":{ "type": "Point", "coordinates": [-81.705939,37.461102]}},
{ "type": "Feature", "properties": {"Name":"Birch River CDP","State":"West Virginia","State_Abbrev":"WV"},
"geometry":{ "type": "Point", "coordinates": [-80.752646,38.495468]}},
{ "type": "Feature", "properties": {"Name":"Blacksville town","State":"West Virginia","State_Abbrev":"WV"},
"geometry":{ "type": "Point", "coordinates": [-80.214711,39.715642]}},
{ "type": "Feature", "properties": {"Name":"Blennerhassett CDP","State":"West Virginia","State_Abbrev":"WV"},
"geometry":{ "type": "Point", "coordinates": [-81.630867,39.256453]}},
{ "type": "Feature", "properties": {"Name":"Bluefield city","State":"West Virginia","State_Abbrev":"WV"},
"geometry":{ "type": "Point", "coordinates": [-81.21134,37.262822]}},
{ "type": "Feature", "properties": {"Name":"Bluewell CDP","State":"West Virginia","State_Abbrev":"WV"},
"geometry":{ "type": "Point", "coordinates": [-81.255683,37.314756]}},
{ "type": "Feature", "properties": {"Name":"Boaz CDP","State":"West Virginia","State_Abbrev":"WV"},
"geometry":{ "type": "Point", "coordinates": [-81.488366,39.368841]}},
{ "type": "Feature", "properties": {"Name":"Bolivar town","State":"West Virginia","State_Abbrev":"WV"},
"geometry":{ "type": "Point", "coordinates": [-77.751726,39.324209]}},
{ "type": "Feature", "properties": {"Name":"Bolt CDP","State":"West Virginia","State_Abbrev":"WV"},
"geometry":{ "type": "Point", "coordinates": [-81.416376,37.761566]}},
{ "type": "Feature", "properties": {"Name":"Boomer CDP","State":"West Virginia","State_Abbrev":"WV"},
"geometry":{ "type": "Point", "coordinates": [-81.27478,38.148749]}},
{ "type": "Feature", "properties": {"Name":"Booth CDP","State":"West Virginia","State_Abbrev":"WV"},
"geometry":{ "type": "Point", "coordinates": [-80.019103,39.597621]}},
{ "type": "Feature", "properties": {"Name":"Bowden CDP","State":"West Virginia","State_Abbrev":"WV"},
"geometry":{ "type": "Point", "coordinates": [-79.708895,38.909186]}},
{ "type": "Feature", "properties": {"Name":"Bradley CDP","State":"West Virginia","State_Abbrev":"WV"},
"geometry":{ "type": "Point", "coordinates": [-81.215582,37.867888]}},
{ "type": "Feature", "properties": {"Name":"Bradshaw town","State":"West Virginia","State_Abbrev":"WV"},
"geometry":{ "type": "Point", "coordinates": [-81.79733,37.349449]}},
{ "type": "Feature", "properties": {"Name":"Bramwell town","State":"West Virginia","State_Abbrev":"WV"},
"geometry":{ "type": "Point", "coordinates": [-81.307672,37.329505]}},
{ "type": "Feature", "properties": {"Name":"Brandonville town","State":"West Virginia","State_Abbrev":"WV"},
"geometry":{ "type": "Point", "coordinates": [-79.627666,39.667062]}},
{ "type": "Feature", "properties": {"Name":"Brandywine CDP","State":"West Virginia","State_Abbrev":"WV"},
"geometry":{ "type": "Point", "coordinates": [-79.240624,38.619385]}},
{ "type": "Feature", "properties": {"Name":"Brenton CDP","State":"West Virginia","State_Abbrev":"WV"},
"geometry":{ "type": "Point", "coordinates": [-81.636284,37.601252]}},
{ "type": "Feature", "properties": {"Name":"Bridgeport city","State":"West Virginia","State_Abbrev":"WV"},
"geometry":{ "type": "Point", "coordinates": [-80.242901,39.303356]}},
{ "type": "Feature", "properties": {"Name":"Brookhaven CDP","State":"West Virginia","State_Abbrev":"WV"},
"geometry":{ "type": "Point", "coordinates": [-79.88295,39.606211]}},
{ "type": "Feature", "properties": {"Name":"Bruceton Mills town","State":"West Virginia","State_Abbrev":"WV"},
"geometry":{ "type": "Point", "coordinates": [-79.640606,39.659396]}},
{ "type": "Feature", "properties": {"Name":"Bruno CDP","State":"West Virginia","State_Abbrev":"WV"},
"geometry":{ "type": "Point", "coordinates": [-81.878981,37.690886]}},
{ "type": "Feature", "properties": {"Name":"Brush Fork CDP","State":"West Virginia","State_Abbrev":"WV"},
"geometry":{ "type": "Point", "coordinates": [-81.239212,37.277344]}},
{ "type": "Feature", "properties": {"Name":"Buckhannon city","State":"West Virginia","State_Abbrev":"WV"},
"geometry":{ "type": "Point", "coordinates": [-80.228243,38.992734]}},
{ "type": "Feature", "properties": {"Name":"Bud CDP","State":"West Virginia","State_Abbrev":"WV"},
"geometry":{ "type": "Point", "coordinates": [-81.380547,37.524843]}},
{ "type": "Feature", "properties": {"Name":"Buffalo town","State":"West Virginia","State_Abbrev":"WV"},
"geometry":{ "type": "Point", "coordinates": [-81.981558,38.611799]}},
{ "type": "Feature", "properties": {"Name":"Burlington CDP","State":"West Virginia","State_Abbrev":"WV"},
"geometry":{ "type": "Point", "coordinates": [-78.922207,39.337013]}},
{ "type": "Feature", "properties": {"Name":"Burnsville town","State":"West Virginia","State_Abbrev":"WV"},
"geometry":{ "type": "Point", "coordinates": [-80.652732,38.855517]}},
{ "type": "Feature", "properties": {"Name":"Cairo town","State":"West Virginia","State_Abbrev":"WV"},
"geometry":{ "type": "Point", "coordinates": [-81.153691,39.207326]}},
{ "type": "Feature", "properties": {"Name":"Camden-on-Gauley town","State":"West Virginia","State_Abbrev":"WV"},
"geometry":{ "type": "Point", "coordinates": [-80.597456,38.368958]}},
{ "type": "Feature", "properties": {"Name":"Cameron city","State":"West Virginia","State_Abbrev":"WV"},
"geometry":{ "type": "Point", "coordinates": [-80.57009,39.830273]}},
{ "type": "Feature", "properties": {"Name":"Capon Bridge town","State":"West Virginia","State_Abbrev":"WV"},
"geometry":{ "type": "Point", "coordinates": [-78.432752,39.301985]}},
{ "type": "Feature", "properties": {"Name":"Carolina CDP","State":"West Virginia","State_Abbrev":"WV"},
"geometry":{ "type": "Point", "coordinates": [-80.272261,39.479387]}},
{ "type": "Feature", "properties": {"Name":"Carpendale town","State":"West Virginia","State_Abbrev":"WV"},
"geometry":{ "type": "Point", "coordinates": [-78.789659,39.627704]}},
{ "type": "Feature", "properties": {"Name":"Cass CDP","State":"West Virginia","State_Abbrev":"WV"},
"geometry":{ "type": "Point", "coordinates": [-79.919936,38.39704]}},
{ "type": "Feature", "properties": {"Name":"Cassville CDP","State":"West Virginia","State_Abbrev":"WV"},
"geometry":{ "type": "Point", "coordinates": [-80.065463,39.681477]}},
{ "type": "Feature", "properties": {"Name":"Cedar Grove town","State":"West Virginia","State_Abbrev":"WV"},
"geometry":{ "type": "Point", "coordinates": [-81.437944,38.222389]}},
{ "type": "Feature", "properties": {"Name":"Century CDP","State":"West Virginia","State_Abbrev":"WV"},
"geometry":{ "type": "Point", "coordinates": [-80.188115,39.100256]}},
{ "type": "Feature", "properties": {"Name":"Ceredo city","State":"West Virginia","State_Abbrev":"WV"},
"geometry":{ "type": "Point", "coordinates": [-82.548424,38.3957]}},
{ "type": "Feature", "properties": {"Name":"Chapmanville town","State":"West Virginia","State_Abbrev":"WV"},
"geometry":{ "type": "Point", "coordinates": [-82.020382,37.970853]}},
{ "type": "Feature", "properties": {"Name":"Charleston city","State":"West Virginia","State_Abbrev":"WV"},
"geometry":{ "type": "Point", "coordinates": [-81.632324,38.348692]}},
{ "type": "Feature", "properties": {"Name":"Charles Town city","State":"West Virginia","State_Abbrev":"WV"},
"geometry":{ "type": "Point", "coordinates": [-77.881276,39.26401]}},
{ "type": "Feature", "properties": {"Name":"Charlton Heights CDP","State":"West Virginia","State_Abbrev":"WV"},
"geometry":{ "type": "Point", "coordinates": [-81.235151,38.126495]}},
{ "type": "Feature", "properties": {"Name":"Chattaroy CDP","State":"West Virginia","State_Abbrev":"WV"},
"geometry":{ "type": "Point", "coordinates": [-82.273721,37.706174]}},
{ "type": "Feature", "properties": {"Name":"Chauncey CDP","State":"West Virginia","State_Abbrev":"WV"},
"geometry":{ "type": "Point", "coordinates": [-81.979043,37.763573]}},
{ "type": "Feature", "properties": {"Name":"Cheat Lake CDP","State":"West Virginia","State_Abbrev":"WV"},
"geometry":{ "type": "Point", "coordinates": [-79.848095,39.663582]}},
{ "type": "Feature", "properties": {"Name":"Chelyan CDP","State":"West Virginia","State_Abbrev":"WV"},
"geometry":{ "type": "Point", "coordinates": [-81.492779,38.195745]}},
{ "type": "Feature", "properties": {"Name":"Chesapeake town","State":"West Virginia","State_Abbrev":"WV"},
"geometry":{ "type": "Point", "coordinates": [-81.536202,38.222882]}},
{ "type": "Feature", "properties": {"Name":"Chester city","State":"West Virginia","State_Abbrev":"WV"},
"geometry":{ "type": "Point", "coordinates": [-80.56273,40.612924]}},
{ "type": "Feature", "properties": {"Name":"Clarksburg city","State":"West Virginia","State_Abbrev":"WV"},
"geometry":{ "type": "Point", "coordinates": [-80.361787,39.270296]}},
{ "type": "Feature", "properties": {"Name":"Clay town","State":"West Virginia","State_Abbrev":"WV"},
"geometry":{ "type": "Point", "coordinates": [-81.08491,38.461457]}},
{ "type": "Feature", "properties": {"Name":"Clearview village","State":"West Virginia","State_Abbrev":"WV"},
"geometry":{ "type": "Point", "coordinates": [-80.690766,40.139055]}},
{ "type": "Feature", "properties": {"Name":"Clendenin town","State":"West Virginia","State_Abbrev":"WV"},
"geometry":{ "type": "Point", "coordinates": [-81.351512,38.484469]}},
{ "type": "Feature", "properties": {"Name":"Clifton CDP","State":"West Virginia","State_Abbrev":"WV"},
"geometry":{ "type": "Point", "coordinates": [-82.039207,39.004172]}},
{ "type": "Feature", "properties": {"Name":"Coal City CDP","State":"West Virginia","State_Abbrev":"WV"},
"geometry":{ "type": "Point", "coordinates": [-81.214118,37.676589]}},
{ "type": "Feature", "properties": {"Name":"Coal Fork CDP","State":"West Virginia","State_Abbrev":"WV"},
"geometry":{ "type": "Point", "coordinates": [-81.523516,38.328068]}},
{ "type": "Feature", "properties": {"Name":"Colcord CDP","State":"West Virginia","State_Abbrev":"WV"},
"geometry":{ "type": "Point", "coordinates": [-81.437392,37.945079]}},
{ "type": "Feature", "properties": {"Name":"Colliers CDP","State":"West Virginia","State_Abbrev":"WV"},
"geometry":{ "type": "Point", "coordinates": [-80.537693,40.365109]}},
{ "type": "Feature", "properties": {"Name":"Comfort CDP","State":"West Virginia","State_Abbrev":"WV"},
"geometry":{ "type": "Point", "coordinates": [-81.61018,38.131694]}},
{ "type": "Feature", "properties": {"Name":"Corinne CDP","State":"West Virginia","State_Abbrev":"WV"},
"geometry":{ "type": "Point", "coordinates": [-81.363471,37.568331]}},
{ "type": "Feature", "properties": {"Name":"Cottageville CDP","State":"West Virginia","State_Abbrev":"WV"},
"geometry":{ "type": "Point", "coordinates": [-81.82575,38.867442]}},
{ "type": "Feature", "properties": {"Name":"Covel CDP","State":"West Virginia","State_Abbrev":"WV"},
"geometry":{ "type": "Point", "coordinates": [-81.319712,37.490744]}},
{ "type": "Feature", "properties": {"Name":"Cowen town","State":"West Virginia","State_Abbrev":"WV"},
"geometry":{ "type": "Point", "coordinates": [-80.553859,38.410576]}},
{ "type": "Feature", "properties": {"Name":"Crab Orchard CDP","State":"West Virginia","State_Abbrev":"WV"},
"geometry":{ "type": "Point", "coordinates": [-81.230833,37.741001]}},
{ "type": "Feature", "properties": {"Name":"Craigsville CDP","State":"West Virginia","State_Abbrev":"WV"},
"geometry":{ "type": "Point", "coordinates": [-80.646241,38.321233]}},
{ "type": "Feature", "properties": {"Name":"Crooked Creek CDP","State":"West Virginia","State_Abbrev":"WV"},
"geometry":{ "type": "Point", "coordinates": [-81.974669,37.883967]}},
{ "type": "Feature", "properties": {"Name":"Cross Lanes CDP","State":"West Virginia","State_Abbrev":"WV"},
"geometry":{ "type": "Point", "coordinates": [-81.769876,38.43558]}},
{ "type": "Feature", "properties": {"Name":"Crum CDP","State":"West Virginia","State_Abbrev":"WV"},
"geometry":{ "type": "Point", "coordinates": [-82.447023,37.909462]}},
{ "type": "Feature", "properties": {"Name":"Crumpler CDP","State":"West Virginia","State_Abbrev":"WV"},
"geometry":{ "type": "Point", "coordinates": [-81.331297,37.426221]}},
{ "type": "Feature", "properties": {"Name":"Cucumber CDP","State":"West Virginia","State_Abbrev":"WV"},
"geometry":{ "type": "Point", "coordinates": [-81.624061,37.278587]}},
{ "type": "Feature", "properties": {"Name":"Culloden CDP","State":"West Virginia","State_Abbrev":"WV"},
"geometry":{ "type": "Point", "coordinates": [-82.070733,38.415111]}},
{ "type": "Feature", "properties": {"Name":"Cunard CDP","State":"West Virginia","State_Abbrev":"WV"},
"geometry":{ "type": "Point", "coordinates": [-81.04024,37.999473]}},
{ "type": "Feature", "properties": {"Name":"Dailey CDP","State":"West Virginia","State_Abbrev":"WV"},
"geometry":{ "type": "Point", "coordinates": [-79.896746,38.796868]}},
{ "type": "Feature", "properties": {"Name":"Daniels CDP","State":"West Virginia","State_Abbrev":"WV"},
"geometry":{ "type": "Point", "coordinates": [-81.130097,37.722065]}},
{ "type": "Feature", "properties": {"Name":"Danville town","State":"West Virginia","State_Abbrev":"WV"},
"geometry":{ "type": "Point", "coordinates": [-81.833964,38.080122]}},
{ "type": "Feature", "properties": {"Name":"Davis town","State":"West Virginia","State_Abbrev":"WV"},
"geometry":{ "type": "Point", "coordinates": [-79.462547,39.126826]}},
{ "type": "Feature", "properties": {"Name":"Davy town","State":"West Virginia","State_Abbrev":"WV"},
"geometry":{ "type": "Point", "coordinates": [-81.641866,37.47756]}},
{ "type": "Feature", "properties": {"Name":"Deep Water CDP","State":"West Virginia","State_Abbrev":"WV"},
"geometry":{ "type": "Point", "coordinates": [-81.253436,38.120375]}},
{ "type": "Feature", "properties": {"Name":"Delbarton town","State":"West Virginia","State_Abbrev":"WV"},
"geometry":{ "type": "Point", "coordinates": [-82.186127,37.705232]}},
{ "type": "Feature", "properties": {"Name":"Despard CDP","State":"West Virginia","State_Abbrev":"WV"},
"geometry":{ "type": "Point", "coordinates": [-80.315842,39.287364]}},
{ "type": "Feature", "properties": {"Name":"Dixie CDP","State":"West Virginia","State_Abbrev":"WV"},
"geometry":{ "type": "Point", "coordinates": [-81.194289,38.250884]}},
{ "type": "Feature", "properties": {"Name":"Dorothy CDP","State":"West Virginia","State_Abbrev":"WV"},
"geometry":{ "type": "Point", "coordinates": [-81.451144,37.956357]}},
{ "type": "Feature", "properties": {"Name":"Dunbar city","State":"West Virginia","State_Abbrev":"WV"},
"geometry":{ "type": "Point", "coordinates": [-81.736107,38.369527]}},
{ "type": "Feature", "properties": {"Name":"Dupont City CDP","State":"West Virginia","State_Abbrev":"WV"},
"geometry":{ "type": "Point", "coordinates": [-81.568805,38.266574]}},
{ "type": "Feature", "properties": {"Name":"Durbin town","State":"West Virginia","State_Abbrev":"WV"},
"geometry":{ "type": "Point", "coordinates": [-79.827822,38.547126]}},
{ "type": "Feature", "properties": {"Name":"Earling CDP","State":"West Virginia","State_Abbrev":"WV"},
"geometry":{ "type": "Point", "coordinates": [-81.916077,37.766844]}},
{ "type": "Feature", "properties": {"Name":"East Bank town","State":"West Virginia","State_Abbrev":"WV"},
"geometry":{ "type": "Point", "coordinates": [-81.44414,38.215322]}},
{ "type": "Feature", "properties": {"Name":"East Dailey CDP","State":"West Virginia","State_Abbrev":"WV"},
"geometry":{ "type": "Point", "coordinates": [-79.891134,38.779424]}},
{ "type": "Feature", "properties": {"Name":"East View CDP","State":"West Virginia","State_Abbrev":"WV"},
"geometry":{ "type": "Point", "coordinates": [-80.305079,39.269166]}},
{ "type": "Feature", "properties": {"Name":"Eccles CDP","State":"West Virginia","State_Abbrev":"WV"},
"geometry":{ "type": "Point", "coordinates": [-81.264136,37.781993]}},
{ "type": "Feature", "properties": {"Name":"Eleanor town","State":"West Virginia","State_Abbrev":"WV"},
"geometry":{ "type": "Point", "coordinates": [-81.924945,38.536074]}},
{ "type": "Feature", "properties": {"Name":"Elizabeth town","State":"West Virginia","State_Abbrev":"WV"},
"geometry":{ "type": "Point", "coordinates": [-81.397266,39.062276]}},
{ "type": "Feature", "properties": {"Name":"Elk Garden town","State":"West Virginia","State_Abbrev":"WV"},
"geometry":{ "type": "Point", "coordinates": [-79.155556,39.386228]}},
{ "type": "Feature", "properties": {"Name":"Elkins city","State":"West Virginia","State_Abbrev":"WV"},
"geometry":{ "type": "Point", "coordinates": [-79.854036,38.923813]}},
{ "type": "Feature", "properties": {"Name":"Elkview CDP","State":"West Virginia","State_Abbrev":"WV"},
"geometry":{ "type": "Point", "coordinates": [-81.474232,38.431986]}},
{ "type": "Feature", "properties": {"Name":"Ellenboro town","State":"West Virginia","State_Abbrev":"WV"},
"geometry":{ "type": "Point", "coordinates": [-81.055655,39.270009]}},
{ "type": "Feature", "properties": {"Name":"Enterprise CDP","State":"West Virginia","State_Abbrev":"WV"},
"geometry":{ "type": "Point", "coordinates": [-80.283387,39.419649]}},
{ "type": "Feature", "properties": {"Name":"Eskdale CDP","State":"West Virginia","State_Abbrev":"WV"},
"geometry":{ "type": "Point", "coordinates": [-81.448405,38.092622]}},
{ "type": "Feature", "properties": {"Name":"Fairlea CDP","State":"West Virginia","State_Abbrev":"WV"},
"geometry":{ "type": "Point", "coordinates": [-80.458661,37.775162]}},
{ "type": "Feature", "properties": {"Name":"Fairmont city","State":"West Virginia","State_Abbrev":"WV"},
"geometry":{ "type": "Point", "coordinates": [-80.149089,39.476877]}},
{ "type": "Feature", "properties": {"Name":"Fairview town","State":"West Virginia","State_Abbrev":"WV"},
"geometry":{ "type": "Point", "coordinates": [-80.246765,39.592703]}},
{ "type": "Feature", "properties": {"Name":"Falling Spring town","State":"West Virginia","State_Abbrev":"WV"},
"geometry":{ "type": "Point", "coordinates": [-80.357044,37.992429]}},
{ "type": "Feature", "properties": {"Name":"Falling Waters CDP","State":"West Virginia","State_Abbrev":"WV"},
"geometry":{ "type": "Point", "coordinates": [-77.887544,39.563771]}},
{ "type": "Feature", "properties": {"Name":"Falls View CDP","State":"West Virginia","State_Abbrev":"WV"},
"geometry":{ "type": "Point", "coordinates": [-81.25481,38.130946]}},
{ "type": "Feature", "properties": {"Name":"Farmington town","State":"West Virginia","State_Abbrev":"WV"},
"geometry":{ "type": "Point", "coordinates": [-80.250434,39.51223]}},
{ "type": "Feature", "properties": {"Name":"Fayetteville town","State":"West Virginia","State_Abbrev":"WV"},
"geometry":{ "type": "Point", "coordinates": [-81.108284,38.061376]}},
{ "type": "Feature", "properties": {"Name":"Fenwick CDP","State":"West Virginia","State_Abbrev":"WV"},
"geometry":{ "type": "Point", "coordinates": [-80.581036,38.229924]}},
{ "type": "Feature", "properties": {"Name":"Flatwoods town","State":"West Virginia","State_Abbrev":"WV"},
"geometry":{ "type": "Point", "coordinates": [-80.652501,38.716997]}},
{ "type": "Feature", "properties": {"Name":"Flemington town","State":"West Virginia","State_Abbrev":"WV"},
"geometry":{ "type": "Point", "coordinates": [-80.128512,39.266612]}},
{ "type": "Feature", "properties": {"Name":"Follansbee city","State":"West Virginia","State_Abbrev":"WV"},
"geometry":{ "type": "Point", "coordinates": [-80.597203,40.337005]}},
{ "type": "Feature", "properties": {"Name":"Fort Ashby CDP","State":"West Virginia","State_Abbrev":"WV"},
"geometry":{ "type": "Point", "coordinates": [-78.772162,39.492359]}},
{ "type": "Feature", "properties": {"Name":"Fort Gay town","State":"West Virginia","State_Abbrev":"WV"},
"geometry":{ "type": "Point", "coordinates": [-82.591316,38.1222]}},
{ "type": "Feature", "properties": {"Name":"Frank CDP","State":"West Virginia","State_Abbrev":"WV"},
"geometry":{ "type": "Point", "coordinates": [-79.807952,38.54618]}},
{ "type": "Feature", "properties": {"Name":"Franklin town","State":"West Virginia","State_Abbrev":"WV"},
"geometry":{ "type": "Point", "coordinates": [-79.333342,38.645266]}},
{ "type": "Feature", "properties": {"Name":"Friendly town","State":"West Virginia","State_Abbrev":"WV"},
"geometry":{ "type": "Point", "coordinates": [-81.061844,39.513665]}},
{ "type": "Feature", "properties": {"Name":"Gallipolis Ferry CDP","State":"West Virginia","State_Abbrev":"WV"},
"geometry":{ "type": "Point", "coordinates": [-82.204045,38.774495]}},
{ "type": "Feature", "properties": {"Name":"Galloway CDP","State":"West Virginia","State_Abbrev":"WV"},
"geometry":{ "type": "Point", "coordinates": [-80.127724,39.23387]}},
{ "type": "Feature", "properties": {"Name":"Garten CDP","State":"West Virginia","State_Abbrev":"WV"},
"geometry":{ "type": "Point", "coordinates": [-81.073257,38.034804]}},
{ "type": "Feature", "properties": {"Name":"Gary city","State":"West Virginia","State_Abbrev":"WV"},
"geometry":{ "type": "Point", "coordinates": [-81.53571,37.363212]}},
{ "type": "Feature", "properties": {"Name":"Gassaway town","State":"West Virginia","State_Abbrev":"WV"},
"geometry":{ "type": "Point", "coordinates": [-80.770361,38.666723]}},
{ "type": "Feature", "properties": {"Name":"Gatewood CDP","State":"West Virginia","State_Abbrev":"WV"},
"geometry":{ "type": "Point", "coordinates": [-81.064999,38.004565]}},
{ "type": "Feature", "properties": {"Name":"Gauley Bridge town","State":"West Virginia","State_Abbrev":"WV"},
"geometry":{ "type": "Point", "coordinates": [-81.209625,38.166763]}},
{ "type": "Feature", "properties": {"Name":"Ghent CDP","State":"West Virginia","State_Abbrev":"WV"},
"geometry":{ "type": "Point", "coordinates": [-81.106248,37.618521]}},
{ "type": "Feature", "properties": {"Name":"Gilbert town","State":"West Virginia","State_Abbrev":"WV"},
"geometry":{ "type": "Point", "coordinates": [-81.870443,37.614936]}},
{ "type": "Feature", "properties": {"Name":"Gilbert Creek CDP","State":"West Virginia","State_Abbrev":"WV"},
"geometry":{ "type": "Point", "coordinates": [-81.890588,37.569667]}},
{ "type": "Feature", "properties": {"Name":"Glasgow town","State":"West Virginia","State_Abbrev":"WV"},
"geometry":{ "type": "Point", "coordinates": [-81.419226,38.212681]}},
{ "type": "Feature", "properties": {"Name":"Glen Dale city","State":"West Virginia","State_Abbrev":"WV"},
"geometry":{ "type": "Point", "coordinates": [-80.755381,39.94643]}},
{ "type": "Feature", "properties": {"Name":"Glen Ferris CDP","State":"West Virginia","State_Abbrev":"WV"},
"geometry":{ "type": "Point", "coordinates": [-81.221063,38.15499]}},
{ "type": "Feature", "properties": {"Name":"Glen Fork CDP","State":"West Virginia","State_Abbrev":"WV"},
"geometry":{ "type": "Point", "coordinates": [-81.538307,37.701281]}},
{ "type": "Feature", "properties": {"Name":"Glen Jean CDP","State":"West Virginia","State_Abbrev":"WV"},
"geometry":{ "type": "Point", "coordinates": [-81.152954,37.927068]}},
{ "type": "Feature", "properties": {"Name":"Glenville town","State":"West Virginia","State_Abbrev":"WV"},
"geometry":{ "type": "Point", "coordinates": [-80.833331,38.940159]}},
{ "type": "Feature", "properties": {"Name":"Glen White CDP","State":"West Virginia","State_Abbrev":"WV"},
"geometry":{ "type": "Point", "coordinates": [-81.279707,37.729977]}},
{ "type": "Feature", "properties": {"Name":"Grafton city","State":"West Virginia","State_Abbrev":"WV"},
"geometry":{ "type": "Point", "coordinates": [-80.016083,39.340638]}},
{ "type": "Feature", "properties": {"Name":"Grantsville town","State":"West Virginia","State_Abbrev":"WV"},
"geometry":{ "type": "Point", "coordinates": [-81.093234,38.92069]}},
{ "type": "Feature", "properties": {"Name":"Grant Town town","State":"West Virginia","State_Abbrev":"WV"},
"geometry":{ "type": "Point", "coordinates": [-80.177899,39.560818]}},
{ "type": "Feature", "properties": {"Name":"Granville town","State":"West Virginia","State_Abbrev":"WV"},
"geometry":{ "type": "Point", "coordinates": [-79.999178,39.648779]}},
{ "type": "Feature", "properties": {"Name":"Great Cacapon CDP","State":"West Virginia","State_Abbrev":"WV"},
"geometry":{ "type": "Point", "coordinates": [-78.285705,39.614317]}},
{ "type": "Feature", "properties": {"Name":"Green Bank CDP","State":"West Virginia","State_Abbrev":"WV"},
"geometry":{ "type": "Point", "coordinates": [-79.834413,38.426716]}},
{ "type": "Feature", "properties": {"Name":"Green Spring CDP","State":"West Virginia","State_Abbrev":"WV"},
"geometry":{ "type": "Point", "coordinates": [-78.63535,39.521597]}},
{ "type": "Feature", "properties": {"Name":"Greenview CDP","State":"West Virginia","State_Abbrev":"WV"},
"geometry":{ "type": "Point", "coordinates": [-81.819418,37.996042]}},
{ "type": "Feature", "properties": {"Name":"Greenville CDP","State":"West Virginia","State_Abbrev":"WV"},
"geometry":{ "type": "Point", "coordinates": [-81.873345,37.721827]}},
{ "type": "Feature", "properties": {"Name":"Gypsy CDP","State":"West Virginia","State_Abbrev":"WV"},
"geometry":{ "type": "Point", "coordinates": [-80.306982,39.364809]}},
{ "type": "Feature", "properties": {"Name":"Hambleton town","State":"West Virginia","State_Abbrev":"WV"},
"geometry":{ "type": "Point", "coordinates": [-79.64559,39.081032]}},
{ "type": "Feature", "properties": {"Name":"Hamlin town","State":"West Virginia","State_Abbrev":"WV"},
"geometry":{ "type": "Point", "coordinates": [-82.102019,38.27788]}},
{ "type": "Feature", "properties": {"Name":"Handley town","State":"West Virginia","State_Abbrev":"WV"},
"geometry":{ "type": "Point", "coordinates": [-81.374818,38.191015]}},
{ "type": "Feature", "properties": {"Name":"Hansford CDP","State":"West Virginia","State_Abbrev":"WV"},
"geometry":{ "type": "Point", "coordinates": [-81.397816,38.205601]}},
{ "type": "Feature", "properties": {"Name":"Harman town","State":"West Virginia","State_Abbrev":"WV"},
"geometry":{ "type": "Point", "coordinates": [-79.524552,38.921069]}},
{ "type": "Feature", "properties": {"Name":"Harpers Ferry town","State":"West Virginia","State_Abbrev":"WV"},
"geometry":{ "type": "Point", "coordinates": [-77.741442,39.325243]}},
{ "type": "Feature", "properties": {"Name":"Harrisville town","State":"West Virginia","State_Abbrev":"WV"},
"geometry":{ "type": "Point", "coordinates": [-81.048493,39.211887]}},
{ "type": "Feature", "properties": {"Name":"Hartford City town","State":"West Virginia","State_Abbrev":"WV"},
"geometry":{ "type": "Point", "coordinates": [-81.988076,38.994997]}},
{ "type": "Feature", "properties": {"Name":"Harts CDP","State":"West Virginia","State_Abbrev":"WV"},
"geometry":{ "type": "Point", "coordinates": [-82.129331,38.047091]}},
{ "type": "Feature", "properties": {"Name":"Hedgesville town","State":"West Virginia","State_Abbrev":"WV"},
"geometry":{ "type": "Point", "coordinates": [-77.994482,39.554428]}},
{ "type": "Feature", "properties": {"Name":"Helen CDP","State":"West Virginia","State_Abbrev":"WV"},
"geometry":{ "type": "Point", "coordinates": [-81.313031,37.637441]}},
{ "type": "Feature", "properties": {"Name":"Helvetia CDP","State":"West Virginia","State_Abbrev":"WV"},
"geometry":{ "type": "Point", "coordinates": [-80.199277,38.705793]}},
{ "type": "Feature", "properties": {"Name":"Henderson town","State":"West Virginia","State_Abbrev":"WV"},
"geometry":{ "type": "Point", "coordinates": [-82.1353,38.831041]}},
{ "type": "Feature", "properties": {"Name":"Hendricks town","State":"West Virginia","State_Abbrev":"WV"},
"geometry":{ "type": "Point", "coordinates": [-79.629084,39.076091]}},
{ "type": "Feature", "properties": {"Name":"Henlawson CDP","State":"West Virginia","State_Abbrev":"WV"},
"geometry":{ "type": "Point", "coordinates": [-81.981116,37.899691]}},
{ "type": "Feature", "properties": {"Name":"Hepzibah CDP","State":"West Virginia","State_Abbrev":"WV"},
"geometry":{ "type": "Point", "coordinates": [-80.334028,39.330855]}},
{ "type": "Feature", "properties": {"Name":"Hico CDP","State":"West Virginia","State_Abbrev":"WV"},
"geometry":{ "type": "Point", "coordinates": [-81.010746,38.116627]}},
{ "type": "Feature", "properties": {"Name":"Hillsboro town","State":"West Virginia","State_Abbrev":"WV"},
"geometry":{ "type": "Point", "coordinates": [-80.210696,38.138381]}},
{ "type": "Feature", "properties": {"Name":"Hilltop CDP","State":"West Virginia","State_Abbrev":"WV"},
"geometry":{ "type": "Point", "coordinates": [-81.152684,37.939194]}},
{ "type": "Feature", "properties": {"Name":"Hinkleville CDP","State":"West Virginia","State_Abbrev":"WV"},
"geometry":{ "type": "Point", "coordinates": [-80.263515,38.923937]}},
{ "type": "Feature", "properties": {"Name":"Hinton city","State":"West Virginia","State_Abbrev":"WV"},
"geometry":{ "type": "Point", "coordinates": [-80.88113,37.674595]}},
{ "type": "Feature", "properties": {"Name":"Holden CDP","State":"West Virginia","State_Abbrev":"WV"},
"geometry":{ "type": "Point", "coordinates": [-82.081222,37.819366]}},
{ "type": "Feature", "properties": {"Name":"Hollygrove CDP","State":"West Virginia","State_Abbrev":"WV"},
"geometry":{ "type": "Point", "coordinates": [-81.393745,38.191105]}},
{ "type": "Feature", "properties": {"Name":"Hometown CDP","State":"West Virginia","State_Abbrev":"WV"},
"geometry":{ "type": "Point", "coordinates": [-81.855215,38.528832]}},
{ "type": "Feature", "properties": {"Name":"Hooverson Heights CDP","State":"West Virginia","State_Abbrev":"WV"},
"geometry":{ "type": "Point", "coordinates": [-80.581185,40.315355]}},
{ "type": "Feature", "properties": {"Name":"Hundred town","State":"West Virginia","State_Abbrev":"WV"},
"geometry":{ "type": "Point", "coordinates": [-80.45759,39.683584]}},
{ "type": "Feature", "properties": {"Name":"Huntersville CDP","State":"West Virginia","State_Abbrev":"WV"},
"geometry":{ "type": "Point", "coordinates": [-80.015188,38.185963]}},
{ "type": "Feature", "properties": {"Name":"Huntington city","State":"West Virginia","State_Abbrev":"WV"},
"geometry":{ "type": "Point", "coordinates": [-82.434689,38.410651]}},
{ "type": "Feature", "properties": {"Name":"Hurricane city","State":"West Virginia","State_Abbrev":"WV"},
"geometry":{ "type": "Point", "coordinates": [-82.018082,38.427474]}},
{ "type": "Feature", "properties": {"Name":"Huttonsville town","State":"West Virginia","State_Abbrev":"WV"},
"geometry":{ "type": "Point", "coordinates": [-79.976621,38.713804]}},
{ "type": "Feature", "properties": {"Name":"Iaeger town","State":"West Virginia","State_Abbrev":"WV"},
"geometry":{ "type": "Point", "coordinates": [-81.818455,37.460144]}},
{ "type": "Feature", "properties": {"Name":"Idamay CDP","State":"West Virginia","State_Abbrev":"WV"},
"geometry":{ "type": "Point", "coordinates": [-80.254748,39.492501]}},
{ "type": "Feature", "properties": {"Name":"Institute CDP","State":"West Virginia","State_Abbrev":"WV"},
"geometry":{ "type": "Point", "coordinates": [-81.765631,38.379465]}},
{ "type": "Feature", "properties": {"Name":"Inwood CDP","State":"West Virginia","State_Abbrev":"WV"},
"geometry":{ "type": "Point", "coordinates": [-78.055191,39.353822]}},
{ "type": "Feature", "properties": {"Name":"Itmann CDP","State":"West Virginia","State_Abbrev":"WV"},
"geometry":{ "type": "Point", "coordinates": [-81.409406,37.570719]}},
{ "type": "Feature", "properties": {"Name":"Jacksonburg CDP","State":"West Virginia","State_Abbrev":"WV"},
"geometry":{ "type": "Point", "coordinates": [-80.63866,39.53587]}},
{ "type": "Feature", "properties": {"Name":"Jane Lew town","State":"West Virginia","State_Abbrev":"WV"},
"geometry":{ "type": "Point", "coordinates": [-80.408009,39.110783]}},
{ "type": "Feature", "properties": {"Name":"Jefferson CDP","State":"West Virginia","State_Abbrev":"WV"},
"geometry":{ "type": "Point", "coordinates": [-81.78685,38.377133]}},
{ "type": "Feature", "properties": {"Name":"Junior town","State":"West Virginia","State_Abbrev":"WV"},
"geometry":{ "type": "Point", "coordinates": [-79.95259,38.976606]}},
{ "type": "Feature", "properties": {"Name":"Justice CDP","State":"West Virginia","State_Abbrev":"WV"},
"geometry":{ "type": "Point", "coordinates": [-81.833685,37.601371]}},
{ "type": "Feature", "properties": {"Name":"Justice Addition CDP","State":"West Virginia","State_Abbrev":"WV"},
"geometry":{ "type": "Point", "coordinates": [-81.992983,37.889892]}},
{ "type": "Feature", "properties": {"Name":"Kanawha CDP","State":"West Virginia","State_Abbrev":"WV"},
"geometry":{ "type": "Point", "coordinates": [-81.457794,39.204145]}},
{ "type": "Feature", "properties": {"Name":"Kenova city","State":"West Virginia","State_Abbrev":"WV"},
"geometry":{ "type": "Point", "coordinates": [-82.5821,38.402246]}},
{ "type": "Feature", "properties": {"Name":"Kermit town","State":"West Virginia","State_Abbrev":"WV"},
"geometry":{ "type": "Point", "coordinates": [-82.408643,37.842461]}},
{ "type": "Feature", "properties": {"Name":"Keyser city","State":"West Virginia","State_Abbrev":"WV"},
"geometry":{ "type": "Point", "coordinates": [-78.982088,39.439428]}},
{ "type": "Feature", "properties": {"Name":"Keystone city","State":"West Virginia","State_Abbrev":"WV"},
"geometry":{ "type": "Point", "coordinates": [-81.446167,37.41581]}},
{ "type": "Feature", "properties": {"Name":"Kimball town","State":"West Virginia","State_Abbrev":"WV"},
"geometry":{ "type": "Point", "coordinates": [-81.514949,37.419971]}},
{ "type": "Feature", "properties": {"Name":"Kimberly CDP","State":"West Virginia","State_Abbrev":"WV"},
"geometry":{ "type": "Point", "coordinates": [-81.296696,38.140762]}},
{ "type": "Feature", "properties": {"Name":"Kincaid CDP","State":"West Virginia","State_Abbrev":"WV"},
"geometry":{ "type": "Point", "coordinates": [-81.276256,38.041381]}},
{ "type": "Feature", "properties": {"Name":"Kingwood city","State":"West Virginia","State_Abbrev":"WV"},
"geometry":{ "type": "Point", "coordinates": [-79.68225,39.471953]}},
{ "type": "Feature", "properties": {"Name":"Kistler CDP","State":"West Virginia","State_Abbrev":"WV"},
"geometry":{ "type": "Point", "coordinates": [-81.851457,37.764584]}},
{ "type": "Feature", "properties": {"Name":"Kopperston CDP","State":"West Virginia","State_Abbrev":"WV"},
"geometry":{ "type": "Point", "coordinates": [-81.576507,37.749562]}},
{ "type": "Feature", "properties": {"Name":"Lashmeet CDP","State":"West Virginia","State_Abbrev":"WV"},
"geometry":{ "type": "Point", "coordinates": [-81.196733,37.422771]}},
{ "type": "Feature", "properties": {"Name":"Lavalette CDP","State":"West Virginia","State_Abbrev":"WV"},
"geometry":{ "type": "Point", "coordinates": [-82.447893,38.32237]}},
{ "type": "Feature", "properties": {"Name":"Leon town","State":"West Virginia","State_Abbrev":"WV"},
"geometry":{ "type": "Point", "coordinates": [-81.954469,38.748076]}},
{ "type": "Feature", "properties": {"Name":"Lesage CDP","State":"West Virginia","State_Abbrev":"WV"},
"geometry":{ "type": "Point", "coordinates": [-82.282256,38.486675]}},
{ "type": "Feature", "properties": {"Name":"Lester town","State":"West Virginia","State_Abbrev":"WV"},
"geometry":{ "type": "Point", "coordinates": [-81.302734,37.732043]}},
{ "type": "Feature", "properties": {"Name":"Lewisburg city","State":"West Virginia","State_Abbrev":"WV"},
"geometry":{ "type": "Point", "coordinates": [-80.432601,37.809397]}},
{ "type": "Feature", "properties": {"Name":"Littleton CDP","State":"West Virginia","State_Abbrev":"WV"},
"geometry":{ "type": "Point", "coordinates": [-80.515857,39.704498]}},
{ "type": "Feature", "properties": {"Name":"Logan city","State":"West Virginia","State_Abbrev":"WV"},
"geometry":{ "type": "Point", "coordinates": [-81.98813,37.851894]}},
{ "type": "Feature", "properties": {"Name":"Lost Creek town","State":"West Virginia","State_Abbrev":"WV"},
"geometry":{ "type": "Point", "coordinates": [-80.348419,39.1627]}},
{ "type": "Feature", "properties": {"Name":"Lubeck CDP","State":"West Virginia","State_Abbrev":"WV"},
"geometry":{ "type": "Point", "coordinates": [-81.612388,39.230239]}},
{ "type": "Feature", "properties": {"Name":"Lumberport town","State":"West Virginia","State_Abbrev":"WV"},
"geometry":{ "type": "Point", "coordinates": [-80.348328,39.374162]}},
{ "type": "Feature", "properties": {"Name":"Mabscott town","State":"West Virginia","State_Abbrev":"WV"},
"geometry":{ "type": "Point", "coordinates": [-81.213291,37.76896]}},
{ "type": "Feature", "properties": {"Name":"MacArthur CDP","State":"West Virginia","State_Abbrev":"WV"},
"geometry":{ "type": "Point", "coordinates": [-81.20249,37.747885]}},
{ "type": "Feature", "properties": {"Name":"McConnell CDP","State":"West Virginia","State_Abbrev":"WV"},
"geometry":{ "type": "Point", "coordinates": [-81.963829,37.828562]}},
{ "type": "Feature", "properties": {"Name":"McMechen city","State":"West Virginia","State_Abbrev":"WV"},
"geometry":{ "type": "Point", "coordinates": [-80.733493,39.986517]}},
{ "type": "Feature", "properties": {"Name":"Madison city","State":"West Virginia","State_Abbrev":"WV"},
"geometry":{ "type": "Point", "coordinates": [-81.794917,38.064192]}},
{ "type": "Feature", "properties": {"Name":"Malden CDP","State":"West Virginia","State_Abbrev":"WV"},
"geometry":{ "type": "Point", "coordinates": [-81.557963,38.300794]}},
{ "type": "Feature", "properties": {"Name":"Mallory CDP","State":"West Virginia","State_Abbrev":"WV"},
"geometry":{ "type": "Point", "coordinates": [-81.81829,37.727581]}},
{ "type": "Feature", "properties": {"Name":"Man town","State":"West Virginia","State_Abbrev":"WV"},
"geometry":{ "type": "Point", "coordinates": [-81.880378,37.743893]}},
{ "type": "Feature", "properties": {"Name":"Mannington city","State":"West Virginia","State_Abbrev":"WV"},
"geometry":{ "type": "Point", "coordinates": [-80.34049,39.528695]}},
{ "type": "Feature", "properties": {"Name":"Marlinton town","State":"West Virginia","State_Abbrev":"WV"},
"geometry":{ "type": "Point", "coordinates": [-80.087547,38.224097]}},
{ "type": "Feature", "properties": {"Name":"Marmet city","State":"West Virginia","State_Abbrev":"WV"},
"geometry":{ "type": "Point", "coordinates": [-81.575407,38.245726]}},
{ "type": "Feature", "properties": {"Name":"Martinsburg city","State":"West Virginia","State_Abbrev":"WV"},
"geometry":{ "type": "Point", "coordinates": [-77.978212,39.457769]}},
{ "type": "Feature", "properties": {"Name":"Mason town","State":"West Virginia","State_Abbrev":"WV"},
"geometry":{ "type": "Point", "coordinates": [-82.032975,39.016476]}},
{ "type": "Feature", "properties": {"Name":"Masontown town","State":"West Virginia","State_Abbrev":"WV"},
"geometry":{ "type": "Point", "coordinates": [-79.800284,39.551167]}},
{ "type": "Feature", "properties": {"Name":"Matewan town","State":"West Virginia","State_Abbrev":"WV"},
"geometry":{ "type": "Point", "coordinates": [-82.159266,37.622251]}},
{ "type": "Feature", "properties": {"Name":"Matheny CDP","State":"West Virginia","State_Abbrev":"WV"},
"geometry":{ "type": "Point", "coordinates": [-81.598569,37.663535]}},
{ "type": "Feature", "properties": {"Name":"Matoaka town","State":"West Virginia","State_Abbrev":"WV"},
"geometry":{ "type": "Point", "coordinates": [-81.241802,37.4182]}},
{ "type": "Feature", "properties": {"Name":"Maybeury CDP","State":"West Virginia","State_Abbrev":"WV"},
"geometry":{ "type": "Point", "coordinates": [-81.357999,37.366561]}},
{ "type": "Feature", "properties": {"Name":"Meadow Bridge town","State":"West Virginia","State_Abbrev":"WV"},
"geometry":{ "type": "Point", "coordinates": [-80.857064,37.861627]}},
{ "type": "Feature", "properties": {"Name":"Middlebourne town","State":"West Virginia","State_Abbrev":"WV"},
"geometry":{ "type": "Point", "coordinates": [-80.910576,39.494888]}},
{ "type": "Feature", "properties": {"Name":"Middleway CDP","State":"West Virginia","State_Abbrev":"WV"},
"geometry":{ "type": "Point", "coordinates": [-77.980578,39.303519]}},
{ "type": "Feature", "properties": {"Name":"Mill Creek town","State":"West Virginia","State_Abbrev":"WV"},
"geometry":{ "type": "Point", "coordinates": [-79.972492,38.731941]}},
{ "type": "Feature", "properties": {"Name":"Milton town","State":"West Virginia","State_Abbrev":"WV"},
"geometry":{ "type": "Point", "coordinates": [-82.145992,38.438008]}},
{ "type": "Feature", "properties": {"Name":"Mineralwells CDP","State":"West Virginia","State_Abbrev":"WV"},
"geometry":{ "type": "Point", "coordinates": [-81.513616,39.181198]}},
{ "type": "Feature", "properties": {"Name":"Mitchell Heights town","State":"West Virginia","State_Abbrev":"WV"},
"geometry":{ "type": "Point", "coordinates": [-81.986598,37.908697]}},
{ "type": "Feature", "properties": {"Name":"Monaville CDP","State":"West Virginia","State_Abbrev":"WV"},
"geometry":{ "type": "Point", "coordinates": [-81.989277,37.814588]}},
{ "type": "Feature", "properties": {"Name":"Monongah town","State":"West Virginia","State_Abbrev":"WV"},
"geometry":{ "type": "Point", "coordinates": [-80.220774,39.458342]}},
{ "type": "Feature", "properties": {"Name":"Montcalm CDP","State":"West Virginia","State_Abbrev":"WV"},
"geometry":{ "type": "Point", "coordinates": [-81.249309,37.352245]}},
{ "type": "Feature", "properties": {"Name":"Montgomery city","State":"West Virginia","State_Abbrev":"WV"},
"geometry":{ "type": "Point", "coordinates": [-81.319698,38.173414]}},
{ "type": "Feature", "properties": {"Name":"Montrose town","State":"West Virginia","State_Abbrev":"WV"},
"geometry":{ "type": "Point", "coordinates": [-79.814322,39.067254]}},
{ "type": "Feature", "properties": {"Name":"Moorefield town","State":"West Virginia","State_Abbrev":"WV"},
"geometry":{ "type": "Point", "coordinates": [-78.962411,39.067419]}},
{ "type": "Feature", "properties": {"Name":"Morgantown city","State":"West Virginia","State_Abbrev":"WV"},
"geometry":{ "type": "Point", "coordinates": [-79.946856,39.637487]}},
{ "type": "Feature", "properties": {"Name":"Moundsville city","State":"West Virginia","State_Abbrev":"WV"},
"geometry":{ "type": "Point", "coordinates": [-80.742115,39.922132]}},
{ "type": "Feature", "properties": {"Name":"Mount Carbon CDP","State":"West Virginia","State_Abbrev":"WV"},
"geometry":{ "type": "Point", "coordinates": [-81.288943,38.143707]}},
{ "type": "Feature", "properties": {"Name":"Mount Gay-Shamrock CDP","State":"West Virginia","State_Abbrev":"WV"},
"geometry":{ "type": "Point", "coordinates": [-82.02302,37.850933]}},
{ "type": "Feature", "properties": {"Name":"Mount Hope city","State":"West Virginia","State_Abbrev":"WV"},
"geometry":{ "type": "Point", "coordinates": [-81.173584,37.89789]}},
{ "type": "Feature", "properties": {"Name":"Mullens city","State":"West Virginia","State_Abbrev":"WV"},
"geometry":{ "type": "Point", "coordinates": [-81.386178,37.582507]}},
{ "type": "Feature", "properties": {"Name":"Neibert CDP","State":"West Virginia","State_Abbrev":"WV"},
"geometry":{ "type": "Point", "coordinates": [-81.930842,37.783332]}},
{ "type": "Feature", "properties": {"Name":"Nettie CDP","State":"West Virginia","State_Abbrev":"WV"},
"geometry":{ "type": "Point", "coordinates": [-80.699277,38.217495]}},
{ "type": "Feature", "properties": {"Name":"Newark CDP","State":"West Virginia","State_Abbrev":"WV"},
"geometry":{ "type": "Point", "coordinates": [-81.387428,39.120146]}},
{ "type": "Feature", "properties": {"Name":"Newburg town","State":"West Virginia","State_Abbrev":"WV"},
"geometry":{ "type": "Point", "coordinates": [-79.853601,39.388852]}},
{ "type": "Feature", "properties": {"Name":"New Cumberland city","State":"West Virginia","State_Abbrev":"WV"},
"geometry":{ "type": "Point", "coordinates": [-80.616868,40.526958]}},
{ "type": "Feature", "properties": {"Name":"Newell CDP","State":"West Virginia","State_Abbrev":"WV"},
"geometry":{ "type": "Point", "coordinates": [-80.597794,40.615887]}},
{ "type": "Feature", "properties": {"Name":"New Haven town","State":"West Virginia","State_Abbrev":"WV"},
"geometry":{ "type": "Point", "coordinates": [-81.967318,38.988208]}},
{ "type": "Feature", "properties": {"Name":"New Martinsville city","State":"West Virginia","State_Abbrev":"WV"},
"geometry":{ "type": "Point", "coordinates": [-80.86267,39.645553]}},
{ "type": "Feature", "properties": {"Name":"New Richmond CDP","State":"West Virginia","State_Abbrev":"WV"},
"geometry":{ "type": "Point", "coordinates": [-81.486389,37.574389]}},
{ "type": "Feature", "properties": {"Name":"Nitro city","State":"West Virginia","State_Abbrev":"WV"},
"geometry":{ "type": "Point", "coordinates": [-81.807811,38.411614]}},
{ "type": "Feature", "properties": {"Name":"Northfork town","State":"West Virginia","State_Abbrev":"WV"},
"geometry":{ "type": "Point", "coordinates": [-81.427422,37.419576]}},
{ "type": "Feature", "properties": {"Name":"North Hills town","State":"West Virginia","State_Abbrev":"WV"},
"geometry":{ "type": "Point", "coordinates": [-81.508831,39.315121]}},
{ "type": "Feature", "properties": {"Name":"Norton CDP","State":"West Virginia","State_Abbrev":"WV"},
"geometry":{ "type": "Point", "coordinates": [-79.969108,38.931595]}},
{ "type": "Feature", "properties": {"Name":"Nutter Fort town","State":"West Virginia","State_Abbrev":"WV"},
"geometry":{ "type": "Point", "coordinates": [-80.326522,39.260356]}},
{ "type": "Feature", "properties": {"Name":"Oak Hill city","State":"West Virginia","State_Abbrev":"WV"},
"geometry":{ "type": "Point", "coordinates": [-81.157923,37.971949]}},
{ "type": "Feature", "properties": {"Name":"Oakvale town","State":"West Virginia","State_Abbrev":"WV"},
"geometry":{ "type": "Point", "coordinates": [-80.972913,37.332144]}},
{ "type": "Feature", "properties": {"Name":"Oceana town","State":"West Virginia","State_Abbrev":"WV"},
"geometry":{ "type": "Point", "coordinates": [-81.629862,37.693434]}},
{ "type": "Feature", "properties": {"Name":"Omar CDP","State":"West Virginia","State_Abbrev":"WV"},
"geometry":{ "type": "Point", "coordinates": [-81.997961,37.757579]}},
{ "type": "Feature", "properties": {"Name":"Osage CDP","State":"West Virginia","State_Abbrev":"WV"},
"geometry":{ "type": "Point", "coordinates": [-80.00692,39.65934]}},
{ "type": "Feature", "properties": {"Name":"Paden City city","State":"West Virginia","State_Abbrev":"WV"},
"geometry":{ "type": "Point", "coordinates": [-80.935351,39.60303]}},
{ "type": "Feature", "properties": {"Name":"Page CDP","State":"West Virginia","State_Abbrev":"WV"},
"geometry":{ "type": "Point", "coordinates": [-81.273043,38.052384]}},
{ "type": "Feature", "properties": {"Name":"Pageton CDP","State":"West Virginia","State_Abbrev":"WV"},
"geometry":{ "type": "Point", "coordinates": [-81.463128,37.362729]}},
{ "type": "Feature", "properties": {"Name":"Parcoal CDP","State":"West Virginia","State_Abbrev":"WV"},
"geometry":{ "type": "Point", "coordinates": [-80.373231,38.460516]}},
{ "type": "Feature", "properties": {"Name":"Parkersburg city","State":"West Virginia","State_Abbrev":"WV"},
"geometry":{ "type": "Point", "coordinates": [-81.54335,39.261278]}},
{ "type": "Feature", "properties": {"Name":"Parsons city","State":"West Virginia","State_Abbrev":"WV"},
"geometry":{ "type": "Point", "coordinates": [-79.678486,39.094489]}},
{ "type": "Feature", "properties": {"Name":"Paw Paw town","State":"West Virginia","State_Abbrev":"WV"},
"geometry":{ "type": "Point", "coordinates": [-78.455275,39.531351]}},
{ "type": "Feature", "properties": {"Name":"Pax town","State":"West Virginia","State_Abbrev":"WV"},
"geometry":{ "type": "Point", "coordinates": [-81.264821,37.909872]}},
{ "type": "Feature", "properties": {"Name":"Peach Creek CDP","State":"West Virginia","State_Abbrev":"WV"},
"geometry":{ "type": "Point", "coordinates": [-81.978302,37.87755]}},
{ "type": "Feature", "properties": {"Name":"Pea Ridge CDP","State":"West Virginia","State_Abbrev":"WV"},
"geometry":{ "type": "Point", "coordinates": [-82.321114,38.41891]}},
{ "type": "Feature", "properties": {"Name":"Pennsboro city","State":"West Virginia","State_Abbrev":"WV"},
"geometry":{ "type": "Point", "coordinates": [-80.966088,39.284101]}},
{ "type": "Feature", "properties": {"Name":"Pentress CDP","State":"West Virginia","State_Abbrev":"WV"},
"geometry":{ "type": "Point", "coordinates": [-80.170951,39.711623]}},
{ "type": "Feature", "properties": {"Name":"Petersburg city","State":"West Virginia","State_Abbrev":"WV"},
"geometry":{ "type": "Point", "coordinates": [-79.127692,38.995684]}},
{ "type": "Feature", "properties": {"Name":"Peterstown town","State":"West Virginia","State_Abbrev":"WV"},
"geometry":{ "type": "Point", "coordinates": [-80.795017,37.398976]}},
{ "type": "Feature", "properties": {"Name":"Philippi city","State":"West Virginia","State_Abbrev":"WV"},
"geometry":{ "type": "Point", "coordinates": [-80.050381,39.147291]}},
{ "type": "Feature", "properties": {"Name":"Pickens CDP","State":"West Virginia","State_Abbrev":"WV"},
"geometry":{ "type": "Point", "coordinates": [-80.216013,38.655874]}},
{ "type": "Feature", "properties": {"Name":"Piedmont town","State":"West Virginia","State_Abbrev":"WV"},
"geometry":{ "type": "Point", "coordinates": [-79.046543,39.477811]}},
{ "type": "Feature", "properties": {"Name":"Pinch CDP","State":"West Virginia","State_Abbrev":"WV"},
"geometry":{ "type": "Point", "coordinates": [-81.4772,38.406404]}},
{ "type": "Feature", "properties": {"Name":"Pine Grove town","State":"West Virginia","State_Abbrev":"WV"},
"geometry":{ "type": "Point", "coordinates": [-80.684763,39.56352]}},
{ "type": "Feature", "properties": {"Name":"Pineville town","State":"West Virginia","State_Abbrev":"WV"},
"geometry":{ "type": "Point", "coordinates": [-81.536384,37.584535]}},
{ "type": "Feature", "properties": {"Name":"Piney View CDP","State":"West Virginia","State_Abbrev":"WV"},
"geometry":{ "type": "Point", "coordinates": [-81.127683,37.840851]}},
{ "type": "Feature", "properties": {"Name":"Pleasant Valley city","State":"West Virginia","State_Abbrev":"WV"},
"geometry":{ "type": "Point", "coordinates": [-80.155369,39.453046]}},
{ "type": "Feature", "properties": {"Name":"Poca town","State":"West Virginia","State_Abbrev":"WV"},
"geometry":{ "type": "Point", "coordinates": [-81.811927,38.474411]}},
{ "type": "Feature", "properties": {"Name":"Point Pleasant city","State":"West Virginia","State_Abbrev":"WV"},
"geometry":{ "type": "Point", "coordinates": [-82.131978,38.850227]}},
{ "type": "Feature", "properties": {"Name":"Powellton CDP","State":"West Virginia","State_Abbrev":"WV"},
"geometry":{ "type": "Point", "coordinates": [-81.322006,38.094116]}},
{ "type": "Feature", "properties": {"Name":"Pratt town","State":"West Virginia","State_Abbrev":"WV"},
"geometry":{ "type": "Point", "coordinates": [-81.387342,38.207558]}},
{ "type": "Feature", "properties": {"Name":"Prichard CDP","State":"West Virginia","State_Abbrev":"WV"},
"geometry":{ "type": "Point", "coordinates": [-82.60387,38.236833]}},
{ "type": "Feature", "properties": {"Name":"Prince CDP","State":"West Virginia","State_Abbrev":"WV"},
"geometry":{ "type": "Point", "coordinates": [-81.086217,37.856018]}},
{ "type": "Feature", "properties": {"Name":"Princeton city","State":"West Virginia","State_Abbrev":"WV"},
"geometry":{ "type": "Point", "coordinates": [-81.096206,37.368782]}},
{ "type": "Feature", "properties": {"Name":"Prosperity CDP","State":"West Virginia","State_Abbrev":"WV"},
"geometry":{ "type": "Point", "coordinates": [-81.196801,37.8382]}},
{ "type": "Feature", "properties": {"Name":"Pullman town","State":"West Virginia","State_Abbrev":"WV"},
"geometry":{ "type": "Point", "coordinates": [-80.948995,39.188015]}},
{ "type": "Feature", "properties": {"Name":"Quinwood town","State":"West Virginia","State_Abbrev":"WV"},
"geometry":{ "type": "Point", "coordinates": [-80.705935,38.058489]}},
{ "type": "Feature", "properties": {"Name":"Rachel CDP","State":"West Virginia","State_Abbrev":"WV"},
"geometry":{ "type": "Point", "coordinates": [-80.298958,39.518954]}},
{ "type": "Feature", "properties": {"Name":"Racine CDP","State":"West Virginia","State_Abbrev":"WV"},
"geometry":{ "type": "Point", "coordinates": [-81.653523,38.13969]}},
{ "type": "Feature", "properties": {"Name":"Rainelle town","State":"West Virginia","State_Abbrev":"WV"},
"geometry":{ "type": "Point", "coordinates": [-80.770816,37.967962]}},
{ "type": "Feature", "properties": {"Name":"Raleigh CDP","State":"West Virginia","State_Abbrev":"WV"},
"geometry":{ "type": "Point", "coordinates": [-81.16939,37.757362]}},
{ "type": "Feature", "properties": {"Name":"Rand CDP","State":"West Virginia","State_Abbrev":"WV"},
"geometry":{ "type": "Point", "coordinates": [-81.565351,38.281628]}},
{ "type": "Feature", "properties": {"Name":"Ranson corporation","State":"West Virginia","State_Abbrev":"WV"},
"geometry":{ "type": "Point", "coordinates": [-77.88305,39.310061]}},
{ "type": "Feature", "properties": {"Name":"Ravenswood city","State":"West Virginia","State_Abbrev":"WV"},
"geometry":{ "type": "Point", "coordinates": [-81.761981,38.956291]}},
{ "type": "Feature", "properties": {"Name":"Raymond City CDP","State":"West Virginia","State_Abbrev":"WV"},
"geometry":{ "type": "Point", "coordinates": [-81.819272,38.486168]}},
{ "type": "Feature", "properties": {"Name":"Raysal CDP","State":"West Virginia","State_Abbrev":"WV"},
"geometry":{ "type": "Point", "coordinates": [-81.77267,37.342191]}},
{ "type": "Feature", "properties": {"Name":"Reader CDP","State":"West Virginia","State_Abbrev":"WV"},
"geometry":{ "type": "Point", "coordinates": [-80.729538,39.566975]}},
{ "type": "Feature", "properties": {"Name":"Red Jacket CDP","State":"West Virginia","State_Abbrev":"WV"},
"geometry":{ "type": "Point", "coordinates": [-82.131575,37.648768]}},
{ "type": "Feature", "properties": {"Name":"Reedsville town","State":"West Virginia","State_Abbrev":"WV"},
"geometry":{ "type": "Point", "coordinates": [-79.800559,39.510288]}},
{ "type": "Feature", "properties": {"Name":"Reedy town","State":"West Virginia","State_Abbrev":"WV"},
"geometry":{ "type": "Point", "coordinates": [-81.426347,38.899692]}},
{ "type": "Feature", "properties": {"Name":"Reynoldsville CDP","State":"West Virginia","State_Abbrev":"WV"},
"geometry":{ "type": "Point", "coordinates": [-80.441255,39.291558]}},
{ "type": "Feature", "properties": {"Name":"Rhodell town","State":"West Virginia","State_Abbrev":"WV"},
"geometry":{ "type": "Point", "coordinates": [-81.30505,37.609517]}},
{ "type": "Feature", "properties": {"Name":"Richwood city","State":"West Virginia","State_Abbrev":"WV"},
"geometry":{ "type": "Point", "coordinates": [-80.537959,38.222444]}},
{ "type": "Feature", "properties": {"Name":"Ridgeley town","State":"West Virginia","State_Abbrev":"WV"},
"geometry":{ "type": "Point", "coordinates": [-78.772933,39.641266]}},
{ "type": "Feature", "properties": {"Name":"Ripley city","State":"West Virginia","State_Abbrev":"WV"},
"geometry":{ "type": "Point", "coordinates": [-81.709312,38.821616]}},
{ "type": "Feature", "properties": {"Name":"Rivesville town","State":"West Virginia","State_Abbrev":"WV"},
"geometry":{ "type": "Point", "coordinates": [-80.120618,39.532165]}},
{ "type": "Feature", "properties": {"Name":"Robinette CDP","State":"West Virginia","State_Abbrev":"WV"},
"geometry":{ "type": "Point", "coordinates": [-81.784145,37.784917]}},
{ "type": "Feature", "properties": {"Name":"Rock Cave CDP","State":"West Virginia","State_Abbrev":"WV"},
"geometry":{ "type": "Point", "coordinates": [-80.337525,38.840365]}},
{ "type": "Feature", "properties": {"Name":"Roderfield CDP","State":"West Virginia","State_Abbrev":"WV"},
"geometry":{ "type": "Point", "coordinates": [-81.700137,37.450959]}},
{ "type": "Feature", "properties": {"Name":"Romney city","State":"West Virginia","State_Abbrev":"WV"},
"geometry":{ "type": "Point", "coordinates": [-78.755804,39.344549]}},
{ "type": "Feature", "properties": {"Name":"Ronceverte city","State":"West Virginia","State_Abbrev":"WV"},
"geometry":{ "type": "Point", "coordinates": [-80.469757,37.751134]}},
{ "type": "Feature", "properties": {"Name":"Rossmore CDP","State":"West Virginia","State_Abbrev":"WV"},
"geometry":{ "type": "Point", "coordinates": [-81.993016,37.804558]}},
{ "type": "Feature", "properties": {"Name":"Rowlesburg town","State":"West Virginia","State_Abbrev":"WV"},
"geometry":{ "type": "Point", "coordinates": [-79.676656,39.34881]}},
{ "type": "Feature", "properties": {"Name":"Rupert town","State":"West Virginia","State_Abbrev":"WV"},
"geometry":{ "type": "Point", "coordinates": [-80.686786,37.964805]}},
{ "type": "Feature", "properties": {"Name":"St. Albans city","State":"West Virginia","State_Abbrev":"WV"},
"geometry":{ "type": "Point", "coordinates": [-81.819251,38.377616]}},
{ "type": "Feature", "properties": {"Name":"St. George CDP","State":"West Virginia","State_Abbrev":"WV"},
"geometry":{ "type": "Point", "coordinates": [-79.696771,39.166579]}},
{ "type": "Feature", "properties": {"Name":"St. Marys city","State":"West Virginia","State_Abbrev":"WV"},
"geometry":{ "type": "Point", "coordinates": [-81.203673,39.394428]}},
{ "type": "Feature", "properties": {"Name":"Salem city","State":"West Virginia","State_Abbrev":"WV"},
"geometry":{ "type": "Point", "coordinates": [-80.564476,39.28494]}},
{ "type": "Feature", "properties": {"Name":"Salt Rock CDP","State":"West Virginia","State_Abbrev":"WV"},
"geometry":{ "type": "Point", "coordinates": [-82.212744,38.330057]}},
{ "type": "Feature", "properties": {"Name":"Sand Fork town","State":"West Virginia","State_Abbrev":"WV"},
"geometry":{ "type": "Point", "coordinates": [-80.746467,38.915481]}},
{ "type": "Feature", "properties": {"Name":"Sarah Ann CDP","State":"West Virginia","State_Abbrev":"WV"},
"geometry":{ "type": "Point", "coordinates": [-81.988079,37.708525]}},
{ "type": "Feature", "properties": {"Name":"Scarbro CDP","State":"West Virginia","State_Abbrev":"WV"},
"geometry":{ "type": "Point", "coordinates": [-81.170611,37.951078]}},
{ "type": "Feature", "properties": {"Name":"Shady Spring CDP","State":"West Virginia","State_Abbrev":"WV"},
"geometry":{ "type": "Point", "coordinates": [-81.092014,37.701617]}},
{ "type": "Feature", "properties": {"Name":"Shannondale CDP","State":"West Virginia","State_Abbrev":"WV"},
"geometry":{ "type": "Point", "coordinates": [-77.810685,39.212602]}},
{ "type": "Feature", "properties": {"Name":"Shenandoah Junction CDP","State":"West Virginia","State_Abbrev":"WV"},
"geometry":{ "type": "Point", "coordinates": [-77.836813,39.348875]}},
{ "type": "Feature", "properties": {"Name":"Shepherdstown town","State":"West Virginia","State_Abbrev":"WV"},
"geometry":{ "type": "Point", "coordinates": [-77.804651,39.431905]}},
{ "type": "Feature", "properties": {"Name":"Shinnston city","State":"West Virginia","State_Abbrev":"WV"},
"geometry":{ "type": "Point", "coordinates": [-80.298997,39.392253]}},
{ "type": "Feature", "properties": {"Name":"Shrewsbury CDP","State":"West Virginia","State_Abbrev":"WV"},
"geometry":{ "type": "Point", "coordinates": [-81.467357,38.207534]}},
{ "type": "Feature", "properties": {"Name":"Sissonville CDP","State":"West Virginia","State_Abbrev":"WV"},
"geometry":{ "type": "Point", "coordinates": [-81.635929,38.501983]}},
{ "type": "Feature", "properties": {"Name":"Sistersville city","State":"West Virginia","State_Abbrev":"WV"},
"geometry":{ "type": "Point", "coordinates": [-80.998702,39.55982]}},
{ "type": "Feature", "properties": {"Name":"Smithers city","State":"West Virginia","State_Abbrev":"WV"},
"geometry":{ "type": "Point", "coordinates": [-81.297484,38.165811]}},
{ "type": "Feature", "properties": {"Name":"Smithfield town","State":"West Virginia","State_Abbrev":"WV"},
"geometry":{ "type": "Point", "coordinates": [-80.559986,39.494863]}},
{ "type": "Feature", "properties": {"Name":"Sophia town","State":"West Virginia","State_Abbrev":"WV"},
"geometry":{ "type": "Point", "coordinates": [-81.25359,37.707311]}},
{ "type": "Feature", "properties": {"Name":"South Charleston city","State":"West Virginia","State_Abbrev":"WV"},
"geometry":{ "type": "Point", "coordinates": [-81.710849,38.340769]}},
{ "type": "Feature", "properties": {"Name":"Spelter CDP","State":"West Virginia","State_Abbrev":"WV"},
"geometry":{ "type": "Point", "coordinates": [-80.316362,39.343177]}},
{ "type": "Feature", "properties": {"Name":"Spencer city","State":"West Virginia","State_Abbrev":"WV"},
"geometry":{ "type": "Point", "coordinates": [-81.353401,38.800044]}},
{ "type": "Feature", "properties": {"Name":"Sprague CDP","State":"West Virginia","State_Abbrev":"WV"},
"geometry":{ "type": "Point", "coordinates": [-81.182178,37.793794]}},
{ "type": "Feature", "properties": {"Name":"Springfield CDP","State":"West Virginia","State_Abbrev":"WV"},
"geometry":{ "type": "Point", "coordinates": [-78.697559,39.443627]}},
{ "type": "Feature", "properties": {"Name":"Stanaford CDP","State":"West Virginia","State_Abbrev":"WV"},
"geometry":{ "type": "Point", "coordinates": [-81.14489,37.812004]}},
{ "type": "Feature", "properties": {"Name":"Star City town","State":"West Virginia","State_Abbrev":"WV"},
"geometry":{ "type": "Point", "coordinates": [-79.986625,39.659156]}},
{ "type": "Feature", "properties": {"Name":"Stollings CDP","State":"West Virginia","State_Abbrev":"WV"},
"geometry":{ "type": "Point", "coordinates": [-81.958434,37.840299]}},
{ "type": "Feature", "properties": {"Name":"Stonewood city","State":"West Virginia","State_Abbrev":"WV"},
"geometry":{ "type": "Point", "coordinates": [-80.305443,39.250122]}},
{ "type": "Feature", "properties": {"Name":"Summersville city","State":"West Virginia","State_Abbrev":"WV"},
"geometry":{ "type": "Point", "coordinates": [-80.841491,38.287027]}},
{ "type": "Feature", "properties": {"Name":"Sutton town","State":"West Virginia","State_Abbrev":"WV"},
"geometry":{ "type": "Point", "coordinates": [-80.713461,38.667772]}},
{ "type": "Feature", "properties": {"Name":"Switzer CDP","State":"West Virginia","State_Abbrev":"WV"},
"geometry":{ "type": "Point", "coordinates": [-81.984432,37.78681]}},
{ "type": "Feature", "properties": {"Name":"Sylvester town","State":"West Virginia","State_Abbrev":"WV"},
"geometry":{ "type": "Point", "coordinates": [-81.561676,38.008031]}},
{ "type": "Feature", "properties": {"Name":"Teays Valley CDP","State":"West Virginia","State_Abbrev":"WV"},
"geometry":{ "type": "Point", "coordinates": [-81.92442,38.447336]}},
{ "type": "Feature", "properties": {"Name":"Terra Alta town","State":"West Virginia","State_Abbrev":"WV"},
"geometry":{ "type": "Point", "coordinates": [-79.543641,39.444278]}},
{ "type": "Feature", "properties": {"Name":"Thomas city","State":"West Virginia","State_Abbrev":"WV"},
"geometry":{ "type": "Point", "coordinates": [-79.495419,39.14488]}},
{ "type": "Feature", "properties": {"Name":"Thurmond town","State":"West Virginia","State_Abbrev":"WV"},
"geometry":{ "type": "Point", "coordinates": [-81.080877,37.963308]}},
{ "type": "Feature", "properties": {"Name":"Tioga CDP","State":"West Virginia","State_Abbrev":"WV"},
"geometry":{ "type": "Point", "coordinates": [-80.654915,38.422018]}},
{ "type": "Feature", "properties": {"Name":"Tornado CDP","State":"West Virginia","State_Abbrev":"WV"},
"geometry":{ "type": "Point", "coordinates": [-81.857447,38.326954]}},
{ "type": "Feature", "properties": {"Name":"Triadelphia town","State":"West Virginia","State_Abbrev":"WV"},
"geometry":{ "type": "Point", "coordinates": [-80.618284,40.043174]}},
{ "type": "Feature", "properties": {"Name":"Tunnelton town","State":"West Virginia","State_Abbrev":"WV"},
"geometry":{ "type": "Point", "coordinates": [-79.746578,39.392886]}},
{ "type": "Feature", "properties": {"Name":"Twilight CDP","State":"West Virginia","State_Abbrev":"WV"},
"geometry":{ "type": "Point", "coordinates": [-81.61456,37.925321]}},
{ "type": "Feature", "properties": {"Name":"Union town","State":"West Virginia","State_Abbrev":"WV"},
"geometry":{ "type": "Point", "coordinates": [-80.540015,37.590736]}},
{ "type": "Feature", "properties": {"Name":"Valley Bend CDP","State":"West Virginia","State_Abbrev":"WV"},
"geometry":{ "type": "Point", "coordinates": [-79.927943,38.769396]}},
{ "type": "Feature", "properties": {"Name":"Valley Grove village","State":"West Virginia","State_Abbrev":"WV"},
"geometry":{ "type": "Point", "coordinates": [-80.577049,40.086261]}},
{ "type": "Feature", "properties": {"Name":"Valley Head CDP","State":"West Virginia","State_Abbrev":"WV"},
"geometry":{ "type": "Point", "coordinates": [-80.031884,38.547143]}},
{ "type": "Feature", "properties": {"Name":"Van CDP","State":"West Virginia","State_Abbrev":"WV"},
"geometry":{ "type": "Point", "coordinates": [-81.71774,37.970223]}},
{ "type": "Feature", "properties": {"Name":"Verdunville CDP","State":"West Virginia","State_Abbrev":"WV"},
"geometry":{ "type": "Point", "coordinates": [-82.058131,37.856067]}},
{ "type": "Feature", "properties": {"Name":"Vienna city","State":"West Virginia","State_Abbrev":"WV"},
"geometry":{ "type": "Point", "coordinates": [-81.529805,39.322849]}},
{ "type": "Feature", "properties": {"Name":"Vivian CDP","State":"West Virginia","State_Abbrev":"WV"},
"geometry":{ "type": "Point", "coordinates": [-81.492163,37.417194]}},
{ "type": "Feature", "properties": {"Name":"Wallace CDP","State":"West Virginia","State_Abbrev":"WV"},
"geometry":{ "type": "Point", "coordinates": [-80.491101,39.407242]}},
{ "type": "Feature", "properties": {"Name":"War city","State":"West Virginia","State_Abbrev":"WV"},
"geometry":{ "type": "Point", "coordinates": [-81.676251,37.309985]}},
{ "type": "Feature", "properties": {"Name":"Wardensville town","State":"West Virginia","State_Abbrev":"WV"},
"geometry":{ "type": "Point", "coordinates": [-78.590305,39.078767]}},
{ "type": "Feature", "properties": {"Name":"Washington CDP","State":"West Virginia","State_Abbrev":"WV"},
"geometry":{ "type": "Point", "coordinates": [-81.658796,39.245165]}},
{ "type": "Feature", "properties": {"Name":"Waverly CDP","State":"West Virginia","State_Abbrev":"WV"},
"geometry":{ "type": "Point", "coordinates": [-81.381288,39.332733]}},
{ "type": "Feature", "properties": {"Name":"Wayne town","State":"West Virginia","State_Abbrev":"WV"},
"geometry":{ "type": "Point", "coordinates": [-82.441555,38.229805]}},
{ "type": "Feature", "properties": {"Name":"Weirton city","State":"West Virginia","State_Abbrev":"WV"},
"geometry":{ "type": "Point", "coordinates": [-80.56558,40.406331]}},
{ "type": "Feature", "properties": {"Name":"Welch city","State":"West Virginia","State_Abbrev":"WV"},
"geometry":{ "type": "Point", "coordinates": [-81.591454,37.428132]}},
{ "type": "Feature", "properties": {"Name":"Wellsburg city","State":"West Virginia","State_Abbrev":"WV"},
"geometry":{ "type": "Point", "coordinates": [-80.610647,40.280882]}},
{ "type": "Feature", "properties": {"Name":"West Dunbar CDP","State":"West Virginia","State_Abbrev":"WV"},
"geometry":{ "type": "Point", "coordinates": [-81.755829,38.372143]}},
{ "type": "Feature", "properties": {"Name":"West Hamlin town","State":"West Virginia","State_Abbrev":"WV"},
"geometry":{ "type": "Point", "coordinates": [-82.197814,38.284874]}},
{ "type": "Feature", "properties": {"Name":"West Liberty town","State":"West Virginia","State_Abbrev":"WV"},
"geometry":{ "type": "Point", "coordinates": [-80.597091,40.164439]}},
{ "type": "Feature", "properties": {"Name":"West Logan town","State":"West Virginia","State_Abbrev":"WV"},
"geometry":{ "type": "Point", "coordinates": [-81.990648,37.867879]}},
{ "type": "Feature", "properties": {"Name":"West Milford town","State":"West Virginia","State_Abbrev":"WV"},
"geometry":{ "type": "Point", "coordinates": [-80.40338,39.204444]}},
{ "type": "Feature", "properties": {"Name":"Weston city","State":"West Virginia","State_Abbrev":"WV"},
"geometry":{ "type": "Point", "coordinates": [-80.462208,39.038762]}},
{ "type": "Feature", "properties": {"Name":"Westover city","State":"West Virginia","State_Abbrev":"WV"},
"geometry":{ "type": "Point", "coordinates": [-79.989963,39.63377]}},
{ "type": "Feature", "properties": {"Name":"West Union town","State":"West Virginia","State_Abbrev":"WV"},
"geometry":{ "type": "Point", "coordinates": [-80.77602,39.296785]}},
{ "type": "Feature", "properties": {"Name":"Wheeling city","State":"West Virginia","State_Abbrev":"WV"},
"geometry":{ "type": "Point", "coordinates": [-80.696027,40.073753]}},
{ "type": "Feature", "properties": {"Name":"White Hall town","State":"West Virginia","State_Abbrev":"WV"},
"geometry":{ "type": "Point", "coordinates": [-80.185711,39.421753]}},
{ "type": "Feature", "properties": {"Name":"White Sulphur Springs city","State":"West Virginia","State_Abbrev":"WV"},
"geometry":{ "type": "Point", "coordinates": [-80.3009,37.799327]}},
{ "type": "Feature", "properties": {"Name":"Whitesville town","State":"West Virginia","State_Abbrev":"WV"},
"geometry":{ "type": "Point", "coordinates": [-81.534642,37.979575]}},
{ "type": "Feature", "properties": {"Name":"Whitmer CDP","State":"West Virginia","State_Abbrev":"WV"},
"geometry":{ "type": "Point", "coordinates": [-79.545076,38.814893]}},
{ "type": "Feature", "properties": {"Name":"Wiley Ford CDP","State":"West Virginia","State_Abbrev":"WV"},
"geometry":{ "type": "Point", "coordinates": [-78.761355,39.615175]}},
{ "type": "Feature", "properties": {"Name":"Williamson city","State":"West Virginia","State_Abbrev":"WV"},
"geometry":{ "type": "Point", "coordinates": [-82.271077,37.674102]}},
{ "type": "Feature", "properties": {"Name":"Williamstown city","State":"West Virginia","State_Abbrev":"WV"},
"geometry":{ "type": "Point", "coordinates": [-81.454551,39.398311]}},
{ "type": "Feature", "properties": {"Name":"Windsor Heights village","State":"West Virginia","State_Abbrev":"WV"},
"geometry":{ "type": "Point", "coordinates": [-80.664736,40.191326]}},
{ "type": "Feature", "properties": {"Name":"Winfield town","State":"West Virginia","State_Abbrev":"WV"},
"geometry":{ "type": "Point", "coordinates": [-81.885482,38.526653]}},
{ "type": "Feature", "properties": {"Name":"Wolf Summit CDP","State":"West Virginia","State_Abbrev":"WV"},
"geometry":{ "type": "Point", "coordinates": [-80.462107,39.282134]}},
{ "type": "Feature", "properties": {"Name":"Womelsdorf (Coalton) town","State":"West Virginia","State_Abbrev":"WV"},
"geometry":{ "type": "Point", "coordinates": [-79.963734,38.89802]}},
{ "type": "Feature", "properties": {"Name":"Worthington town","State":"West Virginia","State_Abbrev":"WV"},
"geometry":{ "type": "Point", "coordinates": [-80.26399,39.457677]}}]}
