{"type":"FeatureCollection","features":[
{ "type": "Feature", "properties": {"Name":"Abbotsford city","State":"Wisconsin","State_Abbrev":"WI"},
"geometry":{ "type": "Point", "coordinates": [-90.317322,44.943493]}},
{ "type": "Feature", "properties": {"Name":"Abrams CDP","State":"Wisconsin","State_Abbrev":"WI"},
"geometry":{ "type": "Point", "coordinates": [-88.060383,44.779625]}},
{ "type": "Feature", "properties": {"Name":"Adams city","State":"Wisconsin","State_Abbrev":"WI"},
"geometry":{ "type": "Point", "coordinates": [-89.816548,43.95524]}},
{ "type": "Feature", "properties": {"Name":"Adell village","State":"Wisconsin","State_Abbrev":"WI"},
"geometry":{ "type": "Point", "coordinates": [-87.945886,43.620354]}},
{ "type": "Feature", "properties": {"Name":"Albany village","State":"Wisconsin","State_Abbrev":"WI"},
"geometry":{ "type": "Point", "coordinates": [-89.436918,42.707073]}},
{ "type": "Feature", "properties": {"Name":"Algoma city","State":"Wisconsin","State_Abbrev":"WI"},
"geometry":{ "type": "Point", "coordinates": [-87.448008,44.605677]}},
{ "type": "Feature", "properties": {"Name":"Allens Grove CDP","State":"Wisconsin","State_Abbrev":"WI"},
"geometry":{ "type": "Point", "coordinates": [-88.76679,42.578287]}},
{ "type": "Feature", "properties": {"Name":"Allenton CDP","State":"Wisconsin","State_Abbrev":"WI"},
"geometry":{ "type": "Point", "coordinates": [-88.344829,43.421854]}},
{ "type": "Feature", "properties": {"Name":"Allouez village","State":"Wisconsin","State_Abbrev":"WI"},
"geometry":{ "type": "Point", "coordinates": [-88.026237,44.472257]}},
{ "type": "Feature", "properties": {"Name":"Alma city","State":"Wisconsin","State_Abbrev":"WI"},
"geometry":{ "type": "Point", "coordinates": [-91.918498,44.33981]}},
{ "type": "Feature", "properties": {"Name":"Alma Center village","State":"Wisconsin","State_Abbrev":"WI"},
"geometry":{ "type": "Point", "coordinates": [-90.912848,44.437026]}},
{ "type": "Feature", "properties": {"Name":"Almena village","State":"Wisconsin","State_Abbrev":"WI"},
"geometry":{ "type": "Point", "coordinates": [-92.03832,45.414923]}},
{ "type": "Feature", "properties": {"Name":"Almond village","State":"Wisconsin","State_Abbrev":"WI"},
"geometry":{ "type": "Point", "coordinates": [-89.408638,44.261011]}},
{ "type": "Feature", "properties": {"Name":"Alto CDP","State":"Wisconsin","State_Abbrev":"WI"},
"geometry":{ "type": "Point", "coordinates": [-88.792355,43.667638]}},
{ "type": "Feature", "properties": {"Name":"Altoona city","State":"Wisconsin","State_Abbrev":"WI"},
"geometry":{ "type": "Point", "coordinates": [-91.439585,44.799963]}},
{ "type": "Feature", "properties": {"Name":"Amberg CDP","State":"Wisconsin","State_Abbrev":"WI"},
"geometry":{ "type": "Point", "coordinates": [-87.987589,45.506075]}},
{ "type": "Feature", "properties": {"Name":"Amery city","State":"Wisconsin","State_Abbrev":"WI"},
"geometry":{ "type": "Point", "coordinates": [-92.363356,45.30459]}},
{ "type": "Feature", "properties": {"Name":"Amherst village","State":"Wisconsin","State_Abbrev":"WI"},
"geometry":{ "type": "Point", "coordinates": [-89.281683,44.448329]}},
{ "type": "Feature", "properties": {"Name":"Amherst Junction village","State":"Wisconsin","State_Abbrev":"WI"},
"geometry":{ "type": "Point", "coordinates": [-89.31722,44.468509]}},
{ "type": "Feature", "properties": {"Name":"Angelica CDP","State":"Wisconsin","State_Abbrev":"WI"},
"geometry":{ "type": "Point", "coordinates": [-88.321566,44.675029]}},
{ "type": "Feature", "properties": {"Name":"Aniwa village","State":"Wisconsin","State_Abbrev":"WI"},
"geometry":{ "type": "Point", "coordinates": [-89.207946,45.009987]}},
{ "type": "Feature", "properties": {"Name":"Antigo city","State":"Wisconsin","State_Abbrev":"WI"},
"geometry":{ "type": "Point", "coordinates": [-89.155225,45.141269]}},
{ "type": "Feature", "properties": {"Name":"Appleton city","State":"Wisconsin","State_Abbrev":"WI"},
"geometry":{ "type": "Point", "coordinates": [-88.388284,44.278873]}},
{ "type": "Feature", "properties": {"Name":"Arcadia city","State":"Wisconsin","State_Abbrev":"WI"},
"geometry":{ "type": "Point", "coordinates": [-91.491575,44.248572]}},
{ "type": "Feature", "properties": {"Name":"Arena village","State":"Wisconsin","State_Abbrev":"WI"},
"geometry":{ "type": "Point", "coordinates": [-89.907397,43.163628]}},
{ "type": "Feature", "properties": {"Name":"Argonne CDP","State":"Wisconsin","State_Abbrev":"WI"},
"geometry":{ "type": "Point", "coordinates": [-88.877747,45.658219]}},
{ "type": "Feature", "properties": {"Name":"Argyle village","State":"Wisconsin","State_Abbrev":"WI"},
"geometry":{ "type": "Point", "coordinates": [-89.865697,42.70142]}},
{ "type": "Feature", "properties": {"Name":"Arkansaw CDP","State":"Wisconsin","State_Abbrev":"WI"},
"geometry":{ "type": "Point", "coordinates": [-92.021072,44.63431]}},
{ "type": "Feature", "properties": {"Name":"Arkdale CDP","State":"Wisconsin","State_Abbrev":"WI"},
"geometry":{ "type": "Point", "coordinates": [-89.88609,44.026185]}},
{ "type": "Feature", "properties": {"Name":"Arlington village","State":"Wisconsin","State_Abbrev":"WI"},
"geometry":{ "type": "Point", "coordinates": [-89.372573,43.335052]}},
{ "type": "Feature", "properties": {"Name":"Arpin village","State":"Wisconsin","State_Abbrev":"WI"},
"geometry":{ "type": "Point", "coordinates": [-90.031512,44.539381]}},
{ "type": "Feature", "properties": {"Name":"Ashippun CDP","State":"Wisconsin","State_Abbrev":"WI"},
"geometry":{ "type": "Point", "coordinates": [-88.515942,43.218213]}},
{ "type": "Feature", "properties": {"Name":"Ashland city","State":"Wisconsin","State_Abbrev":"WI"},
"geometry":{ "type": "Point", "coordinates": [-90.871898,46.58176]}},
{ "type": "Feature", "properties": {"Name":"Ashwaubenon village","State":"Wisconsin","State_Abbrev":"WI"},
"geometry":{ "type": "Point", "coordinates": [-88.08748,44.479409]}},
{ "type": "Feature", "properties": {"Name":"Athens village","State":"Wisconsin","State_Abbrev":"WI"},
"geometry":{ "type": "Point", "coordinates": [-90.07921,45.034871]}},
{ "type": "Feature", "properties": {"Name":"Auburndale village","State":"Wisconsin","State_Abbrev":"WI"},
"geometry":{ "type": "Point", "coordinates": [-90.014405,44.626596]}},
{ "type": "Feature", "properties": {"Name":"Augusta city","State":"Wisconsin","State_Abbrev":"WI"},
"geometry":{ "type": "Point", "coordinates": [-91.120296,44.678422]}},
{ "type": "Feature", "properties": {"Name":"Avoca village","State":"Wisconsin","State_Abbrev":"WI"},
"geometry":{ "type": "Point", "coordinates": [-90.326345,43.187676]}},
{ "type": "Feature", "properties": {"Name":"Babcock CDP","State":"Wisconsin","State_Abbrev":"WI"},
"geometry":{ "type": "Point", "coordinates": [-90.107649,44.304401]}},
{ "type": "Feature", "properties": {"Name":"Bagley village","State":"Wisconsin","State_Abbrev":"WI"},
"geometry":{ "type": "Point", "coordinates": [-91.095435,42.901349]}},
{ "type": "Feature", "properties": {"Name":"Baileys Harbor CDP","State":"Wisconsin","State_Abbrev":"WI"},
"geometry":{ "type": "Point", "coordinates": [-87.135538,45.067089]}},
{ "type": "Feature", "properties": {"Name":"Baldwin village","State":"Wisconsin","State_Abbrev":"WI"},
"geometry":{ "type": "Point", "coordinates": [-92.37152,44.954448]}},
{ "type": "Feature", "properties": {"Name":"Balsam Lake village","State":"Wisconsin","State_Abbrev":"WI"},
"geometry":{ "type": "Point", "coordinates": [-92.447066,45.462041]}},
{ "type": "Feature", "properties": {"Name":"Bancroft CDP","State":"Wisconsin","State_Abbrev":"WI"},
"geometry":{ "type": "Point", "coordinates": [-89.506181,44.308554]}},
{ "type": "Feature", "properties": {"Name":"Bangor village","State":"Wisconsin","State_Abbrev":"WI"},
"geometry":{ "type": "Point", "coordinates": [-90.993405,43.893722]}},
{ "type": "Feature", "properties": {"Name":"Baraboo city","State":"Wisconsin","State_Abbrev":"WI"},
"geometry":{ "type": "Point", "coordinates": [-89.737289,43.469408]}},
{ "type": "Feature", "properties": {"Name":"Barneveld village","State":"Wisconsin","State_Abbrev":"WI"},
"geometry":{ "type": "Point", "coordinates": [-89.896823,43.011704]}},
{ "type": "Feature", "properties": {"Name":"Barron city","State":"Wisconsin","State_Abbrev":"WI"},
"geometry":{ "type": "Point", "coordinates": [-91.84435,45.402192]}},
{ "type": "Feature", "properties": {"Name":"Barronett CDP","State":"Wisconsin","State_Abbrev":"WI"},
"geometry":{ "type": "Point", "coordinates": [-91.993745,45.636229]}},
{ "type": "Feature", "properties": {"Name":"Batavia CDP","State":"Wisconsin","State_Abbrev":"WI"},
"geometry":{ "type": "Point", "coordinates": [-88.048365,43.592342]}},
{ "type": "Feature", "properties": {"Name":"Bay City village","State":"Wisconsin","State_Abbrev":"WI"},
"geometry":{ "type": "Point", "coordinates": [-92.453455,44.589297]}},
{ "type": "Feature", "properties": {"Name":"Bayfield city","State":"Wisconsin","State_Abbrev":"WI"},
"geometry":{ "type": "Point", "coordinates": [-90.824838,46.816135]}},
{ "type": "Feature", "properties": {"Name":"Bayfront CDP","State":"Wisconsin","State_Abbrev":"WI"},
"geometry":{ "type": "Point", "coordinates": [-90.78962,46.623539]}},
{ "type": "Feature", "properties": {"Name":"Bayside village","State":"Wisconsin","State_Abbrev":"WI"},
"geometry":{ "type": "Point", "coordinates": [-87.901705,43.182584]}},
{ "type": "Feature", "properties": {"Name":"Bear Creek village","State":"Wisconsin","State_Abbrev":"WI"},
"geometry":{ "type": "Point", "coordinates": [-88.727536,44.531318]}},
{ "type": "Feature", "properties": {"Name":"Beaver Dam city","State":"Wisconsin","State_Abbrev":"WI"},
"geometry":{ "type": "Point", "coordinates": [-88.8309,43.468105]}},
{ "type": "Feature", "properties": {"Name":"Belgium village","State":"Wisconsin","State_Abbrev":"WI"},
"geometry":{ "type": "Point", "coordinates": [-87.847551,43.501807]}},
{ "type": "Feature", "properties": {"Name":"Bell Center village","State":"Wisconsin","State_Abbrev":"WI"},
"geometry":{ "type": "Point", "coordinates": [-90.825505,43.291866]}},
{ "type": "Feature", "properties": {"Name":"Belleville village","State":"Wisconsin","State_Abbrev":"WI"},
"geometry":{ "type": "Point", "coordinates": [-89.539616,42.864018]}},
{ "type": "Feature", "properties": {"Name":"Bellevue village","State":"Wisconsin","State_Abbrev":"WI"},
"geometry":{ "type": "Point", "coordinates": [-87.955933,44.460769]}},
{ "type": "Feature", "properties": {"Name":"Belmont village","State":"Wisconsin","State_Abbrev":"WI"},
"geometry":{ "type": "Point", "coordinates": [-90.334356,42.737673]}},
{ "type": "Feature", "properties": {"Name":"Beloit city","State":"Wisconsin","State_Abbrev":"WI"},
"geometry":{ "type": "Point", "coordinates": [-89.01766,42.523506]}},
{ "type": "Feature", "properties": {"Name":"Benton village","State":"Wisconsin","State_Abbrev":"WI"},
"geometry":{ "type": "Point", "coordinates": [-90.38345,42.570006]}},
{ "type": "Feature", "properties": {"Name":"Berlin city","State":"Wisconsin","State_Abbrev":"WI"},
"geometry":{ "type": "Point", "coordinates": [-88.950033,43.969729]}},
{ "type": "Feature", "properties": {"Name":"Big Bend village","State":"Wisconsin","State_Abbrev":"WI"},
"geometry":{ "type": "Point", "coordinates": [-88.203596,42.883895]}},
{ "type": "Feature", "properties": {"Name":"Big Falls village","State":"Wisconsin","State_Abbrev":"WI"},
"geometry":{ "type": "Point", "coordinates": [-89.020239,44.615607]}},
{ "type": "Feature", "properties": {"Name":"Big Foot Prairie CDP","State":"Wisconsin","State_Abbrev":"WI"},
"geometry":{ "type": "Point", "coordinates": [-88.601691,42.495538]}},
{ "type": "Feature", "properties": {"Name":"Birch Hill CDP","State":"Wisconsin","State_Abbrev":"WI"},
"geometry":{ "type": "Point", "coordinates": [-90.555457,46.520821]}},
{ "type": "Feature", "properties": {"Name":"Birchwood village","State":"Wisconsin","State_Abbrev":"WI"},
"geometry":{ "type": "Point", "coordinates": [-91.550616,45.657679]}},
{ "type": "Feature", "properties": {"Name":"Birnamwood village","State":"Wisconsin","State_Abbrev":"WI"},
"geometry":{ "type": "Point", "coordinates": [-89.209503,44.931882]}},
{ "type": "Feature", "properties": {"Name":"Biron village","State":"Wisconsin","State_Abbrev":"WI"},
"geometry":{ "type": "Point", "coordinates": [-89.765765,44.428356]}},
{ "type": "Feature", "properties": {"Name":"Black Creek village","State":"Wisconsin","State_Abbrev":"WI"},
"geometry":{ "type": "Point", "coordinates": [-88.450191,44.474519]}},
{ "type": "Feature", "properties": {"Name":"Black Earth village","State":"Wisconsin","State_Abbrev":"WI"},
"geometry":{ "type": "Point", "coordinates": [-89.747354,43.134619]}},
{ "type": "Feature", "properties": {"Name":"Black River Falls city","State":"Wisconsin","State_Abbrev":"WI"},
"geometry":{ "type": "Point", "coordinates": [-90.842787,44.298452]}},
{ "type": "Feature", "properties": {"Name":"Blair city","State":"Wisconsin","State_Abbrev":"WI"},
"geometry":{ "type": "Point", "coordinates": [-91.299402,44.327131]}},
{ "type": "Feature", "properties": {"Name":"Blanchardville village","State":"Wisconsin","State_Abbrev":"WI"},
"geometry":{ "type": "Point", "coordinates": [-89.86058,42.80944]}},
{ "type": "Feature", "properties": {"Name":"Bloomer city","State":"Wisconsin","State_Abbrev":"WI"},
"geometry":{ "type": "Point", "coordinates": [-91.49154,45.102828]}},
{ "type": "Feature", "properties": {"Name":"Bloomfield village","State":"Wisconsin","State_Abbrev":"WI"},
"geometry":{ "type": "Point", "coordinates": [-88.351773,42.549037]}},
{ "type": "Feature", "properties": {"Name":"Bloomington village","State":"Wisconsin","State_Abbrev":"WI"},
"geometry":{ "type": "Point", "coordinates": [-90.926501,42.893141]}},
{ "type": "Feature", "properties": {"Name":"Blue Mounds village","State":"Wisconsin","State_Abbrev":"WI"},
"geometry":{ "type": "Point", "coordinates": [-89.826859,43.017777]}},
{ "type": "Feature", "properties": {"Name":"Blue River village","State":"Wisconsin","State_Abbrev":"WI"},
"geometry":{ "type": "Point", "coordinates": [-90.571829,43.184416]}},
{ "type": "Feature", "properties": {"Name":"Bluffview CDP","State":"Wisconsin","State_Abbrev":"WI"},
"geometry":{ "type": "Point", "coordinates": [-89.773743,43.362463]}},
{ "type": "Feature", "properties": {"Name":"Boaz village","State":"Wisconsin","State_Abbrev":"WI"},
"geometry":{ "type": "Point", "coordinates": [-90.527653,43.329925]}},
{ "type": "Feature", "properties": {"Name":"Bohners Lake CDP","State":"Wisconsin","State_Abbrev":"WI"},
"geometry":{ "type": "Point", "coordinates": [-88.28426,42.622027]}},
{ "type": "Feature", "properties": {"Name":"Bonduel village","State":"Wisconsin","State_Abbrev":"WI"},
"geometry":{ "type": "Point", "coordinates": [-88.45135,44.737994]}},
{ "type": "Feature", "properties": {"Name":"Boscobel city","State":"Wisconsin","State_Abbrev":"WI"},
"geometry":{ "type": "Point", "coordinates": [-90.705141,43.147132]}},
{ "type": "Feature", "properties": {"Name":"Boulder Junction CDP","State":"Wisconsin","State_Abbrev":"WI"},
"geometry":{ "type": "Point", "coordinates": [-89.654438,46.1148]}},
{ "type": "Feature", "properties": {"Name":"Bowler village","State":"Wisconsin","State_Abbrev":"WI"},
"geometry":{ "type": "Point", "coordinates": [-88.981379,44.862729]}},
{ "type": "Feature", "properties": {"Name":"Boyceville village","State":"Wisconsin","State_Abbrev":"WI"},
"geometry":{ "type": "Point", "coordinates": [-92.038473,45.042815]}},
{ "type": "Feature", "properties": {"Name":"Boyd village","State":"Wisconsin","State_Abbrev":"WI"},
"geometry":{ "type": "Point", "coordinates": [-91.039766,44.953281]}},
{ "type": "Feature", "properties": {"Name":"Brandon village","State":"Wisconsin","State_Abbrev":"WI"},
"geometry":{ "type": "Point", "coordinates": [-88.782116,43.73542]}},
{ "type": "Feature", "properties": {"Name":"Brice Prairie CDP","State":"Wisconsin","State_Abbrev":"WI"},
"geometry":{ "type": "Point", "coordinates": [-91.307364,43.937526]}},
{ "type": "Feature", "properties": {"Name":"Briggsville CDP","State":"Wisconsin","State_Abbrev":"WI"},
"geometry":{ "type": "Point", "coordinates": [-89.592846,43.660293]}},
{ "type": "Feature", "properties": {"Name":"Brillion city","State":"Wisconsin","State_Abbrev":"WI"},
"geometry":{ "type": "Point", "coordinates": [-88.067823,44.17351]}},
{ "type": "Feature", "properties": {"Name":"Bristol village","State":"Wisconsin","State_Abbrev":"WI"},
"geometry":{ "type": "Point", "coordinates": [-88.009098,42.532323]}},
{ "type": "Feature", "properties": {"Name":"Brodhead city","State":"Wisconsin","State_Abbrev":"WI"},
"geometry":{ "type": "Point", "coordinates": [-89.375604,42.616836]}},
{ "type": "Feature", "properties": {"Name":"Brookfield city","State":"Wisconsin","State_Abbrev":"WI"},
"geometry":{ "type": "Point", "coordinates": [-88.117794,43.06432]}},
{ "type": "Feature", "properties": {"Name":"Brooklyn village","State":"Wisconsin","State_Abbrev":"WI"},
"geometry":{ "type": "Point", "coordinates": [-89.37639,42.849596]}},
{ "type": "Feature", "properties": {"Name":"Brothertown CDP","State":"Wisconsin","State_Abbrev":"WI"},
"geometry":{ "type": "Point", "coordinates": [-88.317467,43.974964]}},
{ "type": "Feature", "properties": {"Name":"Brown Deer village","State":"Wisconsin","State_Abbrev":"WI"},
"geometry":{ "type": "Point", "coordinates": [-87.974959,43.174327]}},
{ "type": "Feature", "properties": {"Name":"Browns Lake CDP","State":"Wisconsin","State_Abbrev":"WI"},
"geometry":{ "type": "Point", "coordinates": [-88.237726,42.689527]}},
{ "type": "Feature", "properties": {"Name":"Brownsville village","State":"Wisconsin","State_Abbrev":"WI"},
"geometry":{ "type": "Point", "coordinates": [-88.495215,43.614608]}},
{ "type": "Feature", "properties": {"Name":"Browntown village","State":"Wisconsin","State_Abbrev":"WI"},
"geometry":{ "type": "Point", "coordinates": [-89.789406,42.578789]}},
{ "type": "Feature", "properties": {"Name":"Bruce village","State":"Wisconsin","State_Abbrev":"WI"},
"geometry":{ "type": "Point", "coordinates": [-91.279266,45.463455]}},
{ "type": "Feature", "properties": {"Name":"Brule CDP","State":"Wisconsin","State_Abbrev":"WI"},
"geometry":{ "type": "Point", "coordinates": [-91.570892,46.55843]}},
{ "type": "Feature", "properties": {"Name":"Buffalo City city","State":"Wisconsin","State_Abbrev":"WI"},
"geometry":{ "type": "Point", "coordinates": [-91.865888,44.223161]}},
{ "type": "Feature", "properties": {"Name":"Burlington city","State":"Wisconsin","State_Abbrev":"WI"},
"geometry":{ "type": "Point", "coordinates": [-88.271871,42.675249]}},
{ "type": "Feature", "properties": {"Name":"Burnett CDP","State":"Wisconsin","State_Abbrev":"WI"},
"geometry":{ "type": "Point", "coordinates": [-88.708441,43.506496]}},
{ "type": "Feature", "properties": {"Name":"Butler village","State":"Wisconsin","State_Abbrev":"WI"},
"geometry":{ "type": "Point", "coordinates": [-88.072232,43.108448]}},
{ "type": "Feature", "properties": {"Name":"Butte des Morts CDP","State":"Wisconsin","State_Abbrev":"WI"},
"geometry":{ "type": "Point", "coordinates": [-88.657269,44.10626]}},
{ "type": "Feature", "properties": {"Name":"Butternut village","State":"Wisconsin","State_Abbrev":"WI"},
"geometry":{ "type": "Point", "coordinates": [-90.497426,46.013304]}},
{ "type": "Feature", "properties": {"Name":"Cable CDP","State":"Wisconsin","State_Abbrev":"WI"},
"geometry":{ "type": "Point", "coordinates": [-91.293667,46.201093]}},
{ "type": "Feature", "properties": {"Name":"Cadott village","State":"Wisconsin","State_Abbrev":"WI"},
"geometry":{ "type": "Point", "coordinates": [-91.15376,44.949802]}},
{ "type": "Feature", "properties": {"Name":"Caledonia village","State":"Wisconsin","State_Abbrev":"WI"},
"geometry":{ "type": "Point", "coordinates": [-87.877405,42.797411]}},
{ "type": "Feature", "properties": {"Name":"Cambria village","State":"Wisconsin","State_Abbrev":"WI"},
"geometry":{ "type": "Point", "coordinates": [-89.111482,43.541358]}},
{ "type": "Feature", "properties": {"Name":"Cambridge village","State":"Wisconsin","State_Abbrev":"WI"},
"geometry":{ "type": "Point", "coordinates": [-89.021412,43.006555]}},
{ "type": "Feature", "properties": {"Name":"Cameron village","State":"Wisconsin","State_Abbrev":"WI"},
"geometry":{ "type": "Point", "coordinates": [-91.73975,45.403592]}},
{ "type": "Feature", "properties": {"Name":"Campbellsport village","State":"Wisconsin","State_Abbrev":"WI"},
"geometry":{ "type": "Point", "coordinates": [-88.280598,43.597512]}},
{ "type": "Feature", "properties": {"Name":"Camp Douglas village","State":"Wisconsin","State_Abbrev":"WI"},
"geometry":{ "type": "Point", "coordinates": [-90.269703,43.919721]}},
{ "type": "Feature", "properties": {"Name":"Caroline CDP","State":"Wisconsin","State_Abbrev":"WI"},
"geometry":{ "type": "Point", "coordinates": [-88.89857,44.723175]}},
{ "type": "Feature", "properties": {"Name":"Cascade village","State":"Wisconsin","State_Abbrev":"WI"},
"geometry":{ "type": "Point", "coordinates": [-88.008806,43.661474]}},
{ "type": "Feature", "properties": {"Name":"Casco village","State":"Wisconsin","State_Abbrev":"WI"},
"geometry":{ "type": "Point", "coordinates": [-87.620283,44.555185]}},
{ "type": "Feature", "properties": {"Name":"Cashton village","State":"Wisconsin","State_Abbrev":"WI"},
"geometry":{ "type": "Point", "coordinates": [-90.786628,43.741217]}},
{ "type": "Feature", "properties": {"Name":"Cassville village","State":"Wisconsin","State_Abbrev":"WI"},
"geometry":{ "type": "Point", "coordinates": [-90.989137,42.715172]}},
{ "type": "Feature", "properties": {"Name":"Cataract CDP","State":"Wisconsin","State_Abbrev":"WI"},
"geometry":{ "type": "Point", "coordinates": [-90.838414,44.086735]}},
{ "type": "Feature", "properties": {"Name":"Catawba village","State":"Wisconsin","State_Abbrev":"WI"},
"geometry":{ "type": "Point", "coordinates": [-90.533516,45.537104]}},
{ "type": "Feature", "properties": {"Name":"Cazenovia village","State":"Wisconsin","State_Abbrev":"WI"},
"geometry":{ "type": "Point", "coordinates": [-90.20404,43.525252]}},
{ "type": "Feature", "properties": {"Name":"Cecil village","State":"Wisconsin","State_Abbrev":"WI"},
"geometry":{ "type": "Point", "coordinates": [-88.449276,44.81137]}},
{ "type": "Feature", "properties": {"Name":"Cedarburg city","State":"Wisconsin","State_Abbrev":"WI"},
"geometry":{ "type": "Point", "coordinates": [-87.989107,43.298547]}},
{ "type": "Feature", "properties": {"Name":"Cedar Grove village","State":"Wisconsin","State_Abbrev":"WI"},
"geometry":{ "type": "Point", "coordinates": [-87.822969,43.568247]}},
{ "type": "Feature", "properties": {"Name":"Ceex Haci CDP","State":"Wisconsin","State_Abbrev":"WI"},
"geometry":{ "type": "Point", "coordinates": [-89.965021,44.281796]}},
{ "type": "Feature", "properties": {"Name":"Centuria village","State":"Wisconsin","State_Abbrev":"WI"},
"geometry":{ "type": "Point", "coordinates": [-92.557894,45.448691]}},
{ "type": "Feature", "properties": {"Name":"Chain O' Lakes CDP","State":"Wisconsin","State_Abbrev":"WI"},
"geometry":{ "type": "Point", "coordinates": [-89.162767,44.33203]}},
{ "type": "Feature", "properties": {"Name":"Chaseburg village","State":"Wisconsin","State_Abbrev":"WI"},
"geometry":{ "type": "Point", "coordinates": [-91.095895,43.661131]}},
{ "type": "Feature", "properties": {"Name":"Chelsea CDP","State":"Wisconsin","State_Abbrev":"WI"},
"geometry":{ "type": "Point", "coordinates": [-90.305354,45.292855]}},
{ "type": "Feature", "properties": {"Name":"Chenequa village","State":"Wisconsin","State_Abbrev":"WI"},
"geometry":{ "type": "Point", "coordinates": [-88.381387,43.123134]}},
{ "type": "Feature", "properties": {"Name":"Chetek city","State":"Wisconsin","State_Abbrev":"WI"},
"geometry":{ "type": "Point", "coordinates": [-91.653232,45.316064]}},
{ "type": "Feature", "properties": {"Name":"Chief Lake CDP","State":"Wisconsin","State_Abbrev":"WI"},
"geometry":{ "type": "Point", "coordinates": [-91.335895,45.938728]}},
{ "type": "Feature", "properties": {"Name":"Chili CDP","State":"Wisconsin","State_Abbrev":"WI"},
"geometry":{ "type": "Point", "coordinates": [-90.36191,44.633455]}},
{ "type": "Feature", "properties": {"Name":"Chilton city","State":"Wisconsin","State_Abbrev":"WI"},
"geometry":{ "type": "Point", "coordinates": [-88.161667,44.030188]}},
{ "type": "Feature", "properties": {"Name":"Chippewa Falls city","State":"Wisconsin","State_Abbrev":"WI"},
"geometry":{ "type": "Point", "coordinates": [-91.389165,44.934653]}},
{ "type": "Feature", "properties": {"Name":"Clam Lake CDP","State":"Wisconsin","State_Abbrev":"WI"},
"geometry":{ "type": "Point", "coordinates": [-90.905809,46.154438]}},
{ "type": "Feature", "properties": {"Name":"Clarks Mills CDP","State":"Wisconsin","State_Abbrev":"WI"},
"geometry":{ "type": "Point", "coordinates": [-87.862627,44.091142]}},
{ "type": "Feature", "properties": {"Name":"Clayton village","State":"Wisconsin","State_Abbrev":"WI"},
"geometry":{ "type": "Point", "coordinates": [-92.164524,45.327452]}},
{ "type": "Feature", "properties": {"Name":"Clear Lake village","State":"Wisconsin","State_Abbrev":"WI"},
"geometry":{ "type": "Point", "coordinates": [-92.267805,45.24798]}},
{ "type": "Feature", "properties": {"Name":"Cleveland village","State":"Wisconsin","State_Abbrev":"WI"},
"geometry":{ "type": "Point", "coordinates": [-87.749809,43.918064]}},
{ "type": "Feature", "properties": {"Name":"Clinton village","State":"Wisconsin","State_Abbrev":"WI"},
"geometry":{ "type": "Point", "coordinates": [-88.868055,42.557474]}},
{ "type": "Feature", "properties": {"Name":"Clintonville city","State":"Wisconsin","State_Abbrev":"WI"},
"geometry":{ "type": "Point", "coordinates": [-88.751714,44.62212]}},
{ "type": "Feature", "properties": {"Name":"Clyman village","State":"Wisconsin","State_Abbrev":"WI"},
"geometry":{ "type": "Point", "coordinates": [-88.72307,43.311651]}},
{ "type": "Feature", "properties": {"Name":"Cobb village","State":"Wisconsin","State_Abbrev":"WI"},
"geometry":{ "type": "Point", "coordinates": [-90.328485,42.966665]}},
{ "type": "Feature", "properties": {"Name":"Cochrane village","State":"Wisconsin","State_Abbrev":"WI"},
"geometry":{ "type": "Point", "coordinates": [-91.841075,44.227092]}},
{ "type": "Feature", "properties": {"Name":"Colby city","State":"Wisconsin","State_Abbrev":"WI"},
"geometry":{ "type": "Point", "coordinates": [-90.315729,44.911327]}},
{ "type": "Feature", "properties": {"Name":"Coleman village","State":"Wisconsin","State_Abbrev":"WI"},
"geometry":{ "type": "Point", "coordinates": [-88.035661,45.066998]}},
{ "type": "Feature", "properties": {"Name":"Colfax village","State":"Wisconsin","State_Abbrev":"WI"},
"geometry":{ "type": "Point", "coordinates": [-91.725513,44.996966]}},
{ "type": "Feature", "properties": {"Name":"Collins CDP","State":"Wisconsin","State_Abbrev":"WI"},
"geometry":{ "type": "Point", "coordinates": [-87.981124,44.085671]}},
{ "type": "Feature", "properties": {"Name":"Coloma village","State":"Wisconsin","State_Abbrev":"WI"},
"geometry":{ "type": "Point", "coordinates": [-89.531148,44.038651]}},
{ "type": "Feature", "properties": {"Name":"Columbus city","State":"Wisconsin","State_Abbrev":"WI"},
"geometry":{ "type": "Point", "coordinates": [-89.029988,43.336805]}},
{ "type": "Feature", "properties": {"Name":"Combined Locks village","State":"Wisconsin","State_Abbrev":"WI"},
"geometry":{ "type": "Point", "coordinates": [-88.309534,44.261995]}},
{ "type": "Feature", "properties": {"Name":"Como CDP","State":"Wisconsin","State_Abbrev":"WI"},
"geometry":{ "type": "Point", "coordinates": [-88.486115,42.613055]}},
{ "type": "Feature", "properties": {"Name":"Conrath village","State":"Wisconsin","State_Abbrev":"WI"},
"geometry":{ "type": "Point", "coordinates": [-91.035708,45.384185]}},
{ "type": "Feature", "properties": {"Name":"Coon Valley village","State":"Wisconsin","State_Abbrev":"WI"},
"geometry":{ "type": "Point", "coordinates": [-91.011415,43.701893]}},
{ "type": "Feature", "properties": {"Name":"Cornell city","State":"Wisconsin","State_Abbrev":"WI"},
"geometry":{ "type": "Point", "coordinates": [-91.150436,45.163817]}},
{ "type": "Feature", "properties": {"Name":"Cornucopia CDP","State":"Wisconsin","State_Abbrev":"WI"},
"geometry":{ "type": "Point", "coordinates": [-91.108144,46.856681]}},
{ "type": "Feature", "properties": {"Name":"Cottage Grove village","State":"Wisconsin","State_Abbrev":"WI"},
"geometry":{ "type": "Point", "coordinates": [-89.205337,43.092222]}},
{ "type": "Feature", "properties": {"Name":"Couderay village","State":"Wisconsin","State_Abbrev":"WI"},
"geometry":{ "type": "Point", "coordinates": [-91.296704,45.797438]}},
{ "type": "Feature", "properties": {"Name":"Crandon city","State":"Wisconsin","State_Abbrev":"WI"},
"geometry":{ "type": "Point", "coordinates": [-88.895537,45.5678]}},
{ "type": "Feature", "properties": {"Name":"Crivitz village","State":"Wisconsin","State_Abbrev":"WI"},
"geometry":{ "type": "Point", "coordinates": [-88.00696,45.233959]}},
{ "type": "Feature", "properties": {"Name":"Cross Plains village","State":"Wisconsin","State_Abbrev":"WI"},
"geometry":{ "type": "Point", "coordinates": [-89.647119,43.115026]}},
{ "type": "Feature", "properties": {"Name":"Cuba City city","State":"Wisconsin","State_Abbrev":"WI"},
"geometry":{ "type": "Point", "coordinates": [-90.431798,42.603615]}},
{ "type": "Feature", "properties": {"Name":"Cudahy city","State":"Wisconsin","State_Abbrev":"WI"},
"geometry":{ "type": "Point", "coordinates": [-87.864016,42.946711]}},
{ "type": "Feature", "properties": {"Name":"Cumberland city","State":"Wisconsin","State_Abbrev":"WI"},
"geometry":{ "type": "Point", "coordinates": [-92.024753,45.536073]}},
{ "type": "Feature", "properties": {"Name":"Curtiss village","State":"Wisconsin","State_Abbrev":"WI"},
"geometry":{ "type": "Point", "coordinates": [-90.439585,44.952767]}},
{ "type": "Feature", "properties": {"Name":"Dale CDP","State":"Wisconsin","State_Abbrev":"WI"},
"geometry":{ "type": "Point", "coordinates": [-88.673017,44.27566]}},
{ "type": "Feature", "properties": {"Name":"Dallas village","State":"Wisconsin","State_Abbrev":"WI"},
"geometry":{ "type": "Point", "coordinates": [-91.814619,45.258178]}},
{ "type": "Feature", "properties": {"Name":"Dalton CDP","State":"Wisconsin","State_Abbrev":"WI"},
"geometry":{ "type": "Point", "coordinates": [-89.207633,43.6564]}},
{ "type": "Feature", "properties": {"Name":"Danbury CDP","State":"Wisconsin","State_Abbrev":"WI"},
"geometry":{ "type": "Point", "coordinates": [-92.376323,46.009548]}},
{ "type": "Feature", "properties": {"Name":"Dane village","State":"Wisconsin","State_Abbrev":"WI"},
"geometry":{ "type": "Point", "coordinates": [-89.499577,43.2461]}},
{ "type": "Feature", "properties": {"Name":"Darien village","State":"Wisconsin","State_Abbrev":"WI"},
"geometry":{ "type": "Point", "coordinates": [-88.712757,42.600733]}},
{ "type": "Feature", "properties": {"Name":"Darlington city","State":"Wisconsin","State_Abbrev":"WI"},
"geometry":{ "type": "Point", "coordinates": [-90.120056,42.676562]}},
{ "type": "Feature", "properties": {"Name":"Deerfield village","State":"Wisconsin","State_Abbrev":"WI"},
"geometry":{ "type": "Point", "coordinates": [-89.076153,43.049181]}},
{ "type": "Feature", "properties": {"Name":"Deer Park village","State":"Wisconsin","State_Abbrev":"WI"},
"geometry":{ "type": "Point", "coordinates": [-92.388687,45.18854]}},
{ "type": "Feature", "properties": {"Name":"DeForest village","State":"Wisconsin","State_Abbrev":"WI"},
"geometry":{ "type": "Point", "coordinates": [-89.357467,43.246722]}},
{ "type": "Feature", "properties": {"Name":"Dekorra CDP","State":"Wisconsin","State_Abbrev":"WI"},
"geometry":{ "type": "Point", "coordinates": [-89.460309,43.453876]}},
{ "type": "Feature", "properties": {"Name":"Delafield city","State":"Wisconsin","State_Abbrev":"WI"},
"geometry":{ "type": "Point", "coordinates": [-88.388833,43.067421]}},
{ "type": "Feature", "properties": {"Name":"Delavan city","State":"Wisconsin","State_Abbrev":"WI"},
"geometry":{ "type": "Point", "coordinates": [-88.629781,42.630455]}},
{ "type": "Feature", "properties": {"Name":"Delavan Lake CDP","State":"Wisconsin","State_Abbrev":"WI"},
"geometry":{ "type": "Point", "coordinates": [-88.624497,42.598884]}},
{ "type": "Feature", "properties": {"Name":"Dellwood CDP","State":"Wisconsin","State_Abbrev":"WI"},
"geometry":{ "type": "Point", "coordinates": [-89.928003,43.945106]}},
{ "type": "Feature", "properties": {"Name":"Denmark village","State":"Wisconsin","State_Abbrev":"WI"},
"geometry":{ "type": "Point", "coordinates": [-87.831198,44.349336]}},
{ "type": "Feature", "properties": {"Name":"De Pere city","State":"Wisconsin","State_Abbrev":"WI"},
"geometry":{ "type": "Point", "coordinates": [-88.079936,44.43099]}},
{ "type": "Feature", "properties": {"Name":"De Soto village","State":"Wisconsin","State_Abbrev":"WI"},
"geometry":{ "type": "Point", "coordinates": [-91.200551,43.432115]}},
{ "type": "Feature", "properties": {"Name":"Diamond Bluff CDP","State":"Wisconsin","State_Abbrev":"WI"},
"geometry":{ "type": "Point", "coordinates": [-92.618884,44.648888]}},
{ "type": "Feature", "properties": {"Name":"Diaperville CDP","State":"Wisconsin","State_Abbrev":"WI"},
"geometry":{ "type": "Point", "coordinates": [-90.713502,46.604782]}},
{ "type": "Feature", "properties": {"Name":"Dickeyville village","State":"Wisconsin","State_Abbrev":"WI"},
"geometry":{ "type": "Point", "coordinates": [-90.591336,42.624653]}},
{ "type": "Feature", "properties": {"Name":"Dodge CDP","State":"Wisconsin","State_Abbrev":"WI"},
"geometry":{ "type": "Point", "coordinates": [-91.549335,44.134381]}},
{ "type": "Feature", "properties": {"Name":"Dodgeville city","State":"Wisconsin","State_Abbrev":"WI"},
"geometry":{ "type": "Point", "coordinates": [-90.129704,42.966006]}},
{ "type": "Feature", "properties": {"Name":"Dorchester village","State":"Wisconsin","State_Abbrev":"WI"},
"geometry":{ "type": "Point", "coordinates": [-90.331157,45.001426]}},
{ "type": "Feature", "properties": {"Name":"Dousman village","State":"Wisconsin","State_Abbrev":"WI"},
"geometry":{ "type": "Point", "coordinates": [-88.47557,43.009381]}},
{ "type": "Feature", "properties": {"Name":"Downing village","State":"Wisconsin","State_Abbrev":"WI"},
"geometry":{ "type": "Point", "coordinates": [-92.124322,45.04982]}},
{ "type": "Feature", "properties": {"Name":"Downsville CDP","State":"Wisconsin","State_Abbrev":"WI"},
"geometry":{ "type": "Point", "coordinates": [-91.928659,44.775055]}},
{ "type": "Feature", "properties": {"Name":"Doylestown village","State":"Wisconsin","State_Abbrev":"WI"},
"geometry":{ "type": "Point", "coordinates": [-89.146858,43.428274]}},
{ "type": "Feature", "properties": {"Name":"Dresser village","State":"Wisconsin","State_Abbrev":"WI"},
"geometry":{ "type": "Point", "coordinates": [-92.634675,45.363176]}},
{ "type": "Feature", "properties": {"Name":"Drummond CDP","State":"Wisconsin","State_Abbrev":"WI"},
"geometry":{ "type": "Point", "coordinates": [-91.249894,46.343697]}},
{ "type": "Feature", "properties": {"Name":"Dunbar CDP","State":"Wisconsin","State_Abbrev":"WI"},
"geometry":{ "type": "Point", "coordinates": [-88.179716,45.646709]}},
{ "type": "Feature", "properties": {"Name":"Durand city","State":"Wisconsin","State_Abbrev":"WI"},
"geometry":{ "type": "Point", "coordinates": [-91.960308,44.622405]}},
{ "type": "Feature", "properties": {"Name":"Dyckesville CDP","State":"Wisconsin","State_Abbrev":"WI"},
"geometry":{ "type": "Point", "coordinates": [-87.764824,44.640309]}},
{ "type": "Feature", "properties": {"Name":"Eagle village","State":"Wisconsin","State_Abbrev":"WI"},
"geometry":{ "type": "Point", "coordinates": [-88.463377,42.882243]}},
{ "type": "Feature", "properties": {"Name":"Eagle Lake CDP","State":"Wisconsin","State_Abbrev":"WI"},
"geometry":{ "type": "Point", "coordinates": [-88.128844,42.695587]}},
{ "type": "Feature", "properties": {"Name":"Eagle River city","State":"Wisconsin","State_Abbrev":"WI"},
"geometry":{ "type": "Point", "coordinates": [-89.257779,45.924695]}},
{ "type": "Feature", "properties": {"Name":"Eastman village","State":"Wisconsin","State_Abbrev":"WI"},
"geometry":{ "type": "Point", "coordinates": [-91.032768,43.165171]}},
{ "type": "Feature", "properties": {"Name":"Easton CDP","State":"Wisconsin","State_Abbrev":"WI"},
"geometry":{ "type": "Point", "coordinates": [-89.799125,43.836023]}},
{ "type": "Feature", "properties": {"Name":"East Troy village","State":"Wisconsin","State_Abbrev":"WI"},
"geometry":{ "type": "Point", "coordinates": [-88.395573,42.785184]}},
{ "type": "Feature", "properties": {"Name":"Eau Claire city","State":"Wisconsin","State_Abbrev":"WI"},
"geometry":{ "type": "Point", "coordinates": [-91.494877,44.81966]}},
{ "type": "Feature", "properties": {"Name":"Eden village","State":"Wisconsin","State_Abbrev":"WI"},
"geometry":{ "type": "Point", "coordinates": [-88.366064,43.694065]}},
{ "type": "Feature", "properties": {"Name":"Edgar village","State":"Wisconsin","State_Abbrev":"WI"},
"geometry":{ "type": "Point", "coordinates": [-89.962611,44.922851]}},
{ "type": "Feature", "properties": {"Name":"Edgerton city","State":"Wisconsin","State_Abbrev":"WI"},
"geometry":{ "type": "Point", "coordinates": [-89.069571,42.838947]}},
{ "type": "Feature", "properties": {"Name":"Edmund CDP","State":"Wisconsin","State_Abbrev":"WI"},
"geometry":{ "type": "Point", "coordinates": [-90.264438,42.966221]}},
{ "type": "Feature", "properties": {"Name":"Egg Harbor village","State":"Wisconsin","State_Abbrev":"WI"},
"geometry":{ "type": "Point", "coordinates": [-87.304882,45.051314]}},
{ "type": "Feature", "properties": {"Name":"Eland village","State":"Wisconsin","State_Abbrev":"WI"},
"geometry":{ "type": "Point", "coordinates": [-89.208962,44.866947]}},
{ "type": "Feature", "properties": {"Name":"Elcho CDP","State":"Wisconsin","State_Abbrev":"WI"},
"geometry":{ "type": "Point", "coordinates": [-89.188825,45.436765]}},
{ "type": "Feature", "properties": {"Name":"Elderon village","State":"Wisconsin","State_Abbrev":"WI"},
"geometry":{ "type": "Point", "coordinates": [-89.252117,44.787402]}},
{ "type": "Feature", "properties": {"Name":"Eleva village","State":"Wisconsin","State_Abbrev":"WI"},
"geometry":{ "type": "Point", "coordinates": [-91.470254,44.576566]}},
{ "type": "Feature", "properties": {"Name":"Elkhart Lake village","State":"Wisconsin","State_Abbrev":"WI"},
"geometry":{ "type": "Point", "coordinates": [-88.013801,43.83143]}},
{ "type": "Feature", "properties": {"Name":"Elkhorn city","State":"Wisconsin","State_Abbrev":"WI"},
"geometry":{ "type": "Point", "coordinates": [-88.536256,42.671601]}},
{ "type": "Feature", "properties": {"Name":"Elk Mound village","State":"Wisconsin","State_Abbrev":"WI"},
"geometry":{ "type": "Point", "coordinates": [-91.686238,44.874421]}},
{ "type": "Feature", "properties": {"Name":"Ellison Bay CDP","State":"Wisconsin","State_Abbrev":"WI"},
"geometry":{ "type": "Point", "coordinates": [-87.072914,45.255326]}},
{ "type": "Feature", "properties": {"Name":"Ellsworth village","State":"Wisconsin","State_Abbrev":"WI"},
"geometry":{ "type": "Point", "coordinates": [-92.480249,44.736178]}},
{ "type": "Feature", "properties": {"Name":"Elm Grove village","State":"Wisconsin","State_Abbrev":"WI"},
"geometry":{ "type": "Point", "coordinates": [-88.087029,43.04752]}},
{ "type": "Feature", "properties": {"Name":"Elmwood village","State":"Wisconsin","State_Abbrev":"WI"},
"geometry":{ "type": "Point", "coordinates": [-92.14897,44.780073]}},
{ "type": "Feature", "properties": {"Name":"Elmwood Park village","State":"Wisconsin","State_Abbrev":"WI"},
"geometry":{ "type": "Point", "coordinates": [-87.822051,42.691254]}},
{ "type": "Feature", "properties": {"Name":"Elroy city","State":"Wisconsin","State_Abbrev":"WI"},
"geometry":{ "type": "Point", "coordinates": [-90.270172,43.741562]}},
{ "type": "Feature", "properties": {"Name":"Embarrass village","State":"Wisconsin","State_Abbrev":"WI"},
"geometry":{ "type": "Point", "coordinates": [-88.703189,44.670484]}},
{ "type": "Feature", "properties": {"Name":"Emerald CDP","State":"Wisconsin","State_Abbrev":"WI"},
"geometry":{ "type": "Point", "coordinates": [-92.249478,45.086675]}},
{ "type": "Feature", "properties": {"Name":"Endeavor village","State":"Wisconsin","State_Abbrev":"WI"},
"geometry":{ "type": "Point", "coordinates": [-89.469166,43.714386]}},
{ "type": "Feature", "properties": {"Name":"Ephraim village","State":"Wisconsin","State_Abbrev":"WI"},
"geometry":{ "type": "Point", "coordinates": [-87.172619,45.167749]}},
{ "type": "Feature", "properties": {"Name":"Ettrick village","State":"Wisconsin","State_Abbrev":"WI"},
"geometry":{ "type": "Point", "coordinates": [-91.265042,44.169553]}},
{ "type": "Feature", "properties": {"Name":"Eureka CDP","State":"Wisconsin","State_Abbrev":"WI"},
"geometry":{ "type": "Point", "coordinates": [-88.841388,44.011625]}},
{ "type": "Feature", "properties": {"Name":"Evansville city","State":"Wisconsin","State_Abbrev":"WI"},
"geometry":{ "type": "Point", "coordinates": [-89.29598,42.778067]}},
{ "type": "Feature", "properties": {"Name":"Exeland village","State":"Wisconsin","State_Abbrev":"WI"},
"geometry":{ "type": "Point", "coordinates": [-91.241478,45.667431]}},
{ "type": "Feature", "properties": {"Name":"Fairchild village","State":"Wisconsin","State_Abbrev":"WI"},
"geometry":{ "type": "Point", "coordinates": [-90.956722,44.605234]}},
{ "type": "Feature", "properties": {"Name":"Fairwater village","State":"Wisconsin","State_Abbrev":"WI"},
"geometry":{ "type": "Point", "coordinates": [-88.866939,43.742542]}},
{ "type": "Feature", "properties": {"Name":"Fall Creek village","State":"Wisconsin","State_Abbrev":"WI"},
"geometry":{ "type": "Point", "coordinates": [-91.277797,44.763962]}},
{ "type": "Feature", "properties": {"Name":"Fall River village","State":"Wisconsin","State_Abbrev":"WI"},
"geometry":{ "type": "Point", "coordinates": [-89.045468,43.385851]}},
{ "type": "Feature", "properties": {"Name":"Fennimore city","State":"Wisconsin","State_Abbrev":"WI"},
"geometry":{ "type": "Point", "coordinates": [-90.64917,42.979388]}},
{ "type": "Feature", "properties": {"Name":"Fenwood village","State":"Wisconsin","State_Abbrev":"WI"},
"geometry":{ "type": "Point", "coordinates": [-90.014578,44.86578]}},
{ "type": "Feature", "properties": {"Name":"Ferryville village","State":"Wisconsin","State_Abbrev":"WI"},
"geometry":{ "type": "Point", "coordinates": [-91.095659,43.353312]}},
{ "type": "Feature", "properties": {"Name":"Fitchburg city","State":"Wisconsin","State_Abbrev":"WI"},
"geometry":{ "type": "Point", "coordinates": [-89.425334,42.985782]}},
{ "type": "Feature", "properties": {"Name":"Florence CDP","State":"Wisconsin","State_Abbrev":"WI"},
"geometry":{ "type": "Point", "coordinates": [-88.235237,45.92786]}},
{ "type": "Feature", "properties": {"Name":"Fond du Lac city","State":"Wisconsin","State_Abbrev":"WI"},
"geometry":{ "type": "Point", "coordinates": [-88.440264,43.772182]}},
{ "type": "Feature", "properties": {"Name":"Fontana-on-Geneva Lake village","State":"Wisconsin","State_Abbrev":"WI"},
"geometry":{ "type": "Point", "coordinates": [-88.56604,42.545215]}},
{ "type": "Feature", "properties": {"Name":"Footville village","State":"Wisconsin","State_Abbrev":"WI"},
"geometry":{ "type": "Point", "coordinates": [-89.208385,42.671494]}},
{ "type": "Feature", "properties": {"Name":"Forest Junction CDP","State":"Wisconsin","State_Abbrev":"WI"},
"geometry":{ "type": "Point", "coordinates": [-88.149581,44.214763]}},
{ "type": "Feature", "properties": {"Name":"Forestville village","State":"Wisconsin","State_Abbrev":"WI"},
"geometry":{ "type": "Point", "coordinates": [-87.478355,44.690892]}},
{ "type": "Feature", "properties": {"Name":"Fort Atkinson city","State":"Wisconsin","State_Abbrev":"WI"},
"geometry":{ "type": "Point", "coordinates": [-88.845488,42.923982]}},
{ "type": "Feature", "properties": {"Name":"Fountain City city","State":"Wisconsin","State_Abbrev":"WI"},
"geometry":{ "type": "Point", "coordinates": [-91.689804,44.11876]}},
{ "type": "Feature", "properties": {"Name":"Fox Crossing village","State":"Wisconsin","State_Abbrev":"WI"},
"geometry":{ "type": "Point", "coordinates": [-88.479075,44.223603]}},
{ "type": "Feature", "properties": {"Name":"Fox Lake city","State":"Wisconsin","State_Abbrev":"WI"},
"geometry":{ "type": "Point", "coordinates": [-88.913596,43.560908]}},
{ "type": "Feature", "properties": {"Name":"Fox Point village","State":"Wisconsin","State_Abbrev":"WI"},
"geometry":{ "type": "Point", "coordinates": [-87.901392,43.158126]}},
{ "type": "Feature", "properties": {"Name":"Francis Creek village","State":"Wisconsin","State_Abbrev":"WI"},
"geometry":{ "type": "Point", "coordinates": [-87.720911,44.200532]}},
{ "type": "Feature", "properties": {"Name":"Franklin city","State":"Wisconsin","State_Abbrev":"WI"},
"geometry":{ "type": "Point", "coordinates": [-88.011548,42.883879]}},
{ "type": "Feature", "properties": {"Name":"Franks Field CDP","State":"Wisconsin","State_Abbrev":"WI"},
"geometry":{ "type": "Point", "coordinates": [-90.598917,46.552163]}},
{ "type": "Feature", "properties": {"Name":"Frederic village","State":"Wisconsin","State_Abbrev":"WI"},
"geometry":{ "type": "Point", "coordinates": [-92.462591,45.652709]}},
{ "type": "Feature", "properties": {"Name":"Fredonia village","State":"Wisconsin","State_Abbrev":"WI"},
"geometry":{ "type": "Point", "coordinates": [-87.947135,43.471703]}},
{ "type": "Feature", "properties": {"Name":"Fremont village","State":"Wisconsin","State_Abbrev":"WI"},
"geometry":{ "type": "Point", "coordinates": [-88.870137,44.259933]}},
{ "type": "Feature", "properties": {"Name":"French Island CDP","State":"Wisconsin","State_Abbrev":"WI"},
"geometry":{ "type": "Point", "coordinates": [-91.260837,43.858653]}},
{ "type": "Feature", "properties": {"Name":"Friendship village","State":"Wisconsin","State_Abbrev":"WI"},
"geometry":{ "type": "Point", "coordinates": [-89.820016,43.971746]}},
{ "type": "Feature", "properties": {"Name":"Friesland village","State":"Wisconsin","State_Abbrev":"WI"},
"geometry":{ "type": "Point", "coordinates": [-89.06555,43.587632]}},
{ "type": "Feature", "properties": {"Name":"Fulton CDP","State":"Wisconsin","State_Abbrev":"WI"},
"geometry":{ "type": "Point", "coordinates": [-89.125859,42.805338]}},
{ "type": "Feature", "properties": {"Name":"Galesville city","State":"Wisconsin","State_Abbrev":"WI"},
"geometry":{ "type": "Point", "coordinates": [-91.357518,44.084289]}},
{ "type": "Feature", "properties": {"Name":"Gays Mills village","State":"Wisconsin","State_Abbrev":"WI"},
"geometry":{ "type": "Point", "coordinates": [-90.846233,43.330114]}},
{ "type": "Feature", "properties": {"Name":"Genoa village","State":"Wisconsin","State_Abbrev":"WI"},
"geometry":{ "type": "Point", "coordinates": [-91.226053,43.573338]}},
{ "type": "Feature", "properties": {"Name":"Genoa City village","State":"Wisconsin","State_Abbrev":"WI"},
"geometry":{ "type": "Point", "coordinates": [-88.319271,42.5065]}},
{ "type": "Feature", "properties": {"Name":"Germantown village","State":"Wisconsin","State_Abbrev":"WI"},
"geometry":{ "type": "Point", "coordinates": [-88.124999,43.234527]}},
{ "type": "Feature", "properties": {"Name":"Gibbsville CDP","State":"Wisconsin","State_Abbrev":"WI"},
"geometry":{ "type": "Point", "coordinates": [-87.834943,43.649117]}},
{ "type": "Feature", "properties": {"Name":"Gillett city","State":"Wisconsin","State_Abbrev":"WI"},
"geometry":{ "type": "Point", "coordinates": [-88.306176,44.88992]}},
{ "type": "Feature", "properties": {"Name":"Gilman village","State":"Wisconsin","State_Abbrev":"WI"},
"geometry":{ "type": "Point", "coordinates": [-90.807217,45.166194]}},
{ "type": "Feature", "properties": {"Name":"Gilmanton CDP","State":"Wisconsin","State_Abbrev":"WI"},
"geometry":{ "type": "Point", "coordinates": [-91.672104,44.480867]}},
{ "type": "Feature", "properties": {"Name":"Glenbeulah village","State":"Wisconsin","State_Abbrev":"WI"},
"geometry":{ "type": "Point", "coordinates": [-88.046792,43.798394]}},
{ "type": "Feature", "properties": {"Name":"Glendale city","State":"Wisconsin","State_Abbrev":"WI"},
"geometry":{ "type": "Point", "coordinates": [-87.927195,43.126142]}},
{ "type": "Feature", "properties": {"Name":"Glen Flora village","State":"Wisconsin","State_Abbrev":"WI"},
"geometry":{ "type": "Point", "coordinates": [-90.893479,45.496957]}},
{ "type": "Feature", "properties": {"Name":"Glen Haven CDP","State":"Wisconsin","State_Abbrev":"WI"},
"geometry":{ "type": "Point", "coordinates": [-91.060752,42.83574]}},
{ "type": "Feature", "properties": {"Name":"Glenwood City city","State":"Wisconsin","State_Abbrev":"WI"},
"geometry":{ "type": "Point", "coordinates": [-92.165802,45.052075]}},
{ "type": "Feature", "properties": {"Name":"Glidden CDP","State":"Wisconsin","State_Abbrev":"WI"},
"geometry":{ "type": "Point", "coordinates": [-90.572127,46.134673]}},
{ "type": "Feature", "properties": {"Name":"Goodman CDP","State":"Wisconsin","State_Abbrev":"WI"},
"geometry":{ "type": "Point", "coordinates": [-88.351413,45.619363]}},
{ "type": "Feature", "properties": {"Name":"Gordon CDP","State":"Wisconsin","State_Abbrev":"WI"},
"geometry":{ "type": "Point", "coordinates": [-91.799517,46.240032]}},
{ "type": "Feature", "properties": {"Name":"Gotham CDP","State":"Wisconsin","State_Abbrev":"WI"},
"geometry":{ "type": "Point", "coordinates": [-90.296957,43.222488]}},
{ "type": "Feature", "properties": {"Name":"Grafton village","State":"Wisconsin","State_Abbrev":"WI"},
"geometry":{ "type": "Point", "coordinates": [-87.947627,43.32067]}},
{ "type": "Feature", "properties": {"Name":"Grand Marsh CDP","State":"Wisconsin","State_Abbrev":"WI"},
"geometry":{ "type": "Point", "coordinates": [-89.707156,43.885247]}},
{ "type": "Feature", "properties": {"Name":"Grand View CDP","State":"Wisconsin","State_Abbrev":"WI"},
"geometry":{ "type": "Point", "coordinates": [-91.103438,46.368042]}},
{ "type": "Feature", "properties": {"Name":"Granton village","State":"Wisconsin","State_Abbrev":"WI"},
"geometry":{ "type": "Point", "coordinates": [-90.460426,44.588311]}},
{ "type": "Feature", "properties": {"Name":"Grantsburg village","State":"Wisconsin","State_Abbrev":"WI"},
"geometry":{ "type": "Point", "coordinates": [-92.677329,45.78379]}},
{ "type": "Feature", "properties": {"Name":"Gratiot village","State":"Wisconsin","State_Abbrev":"WI"},
"geometry":{ "type": "Point", "coordinates": [-90.023796,42.579777]}},
{ "type": "Feature", "properties": {"Name":"Green Bay city","State":"Wisconsin","State_Abbrev":"WI"},
"geometry":{ "type": "Point", "coordinates": [-87.986568,44.521542]}},
{ "type": "Feature", "properties": {"Name":"Greenbush CDP","State":"Wisconsin","State_Abbrev":"WI"},
"geometry":{ "type": "Point", "coordinates": [-88.094123,43.778076]}},
{ "type": "Feature", "properties": {"Name":"Greendale village","State":"Wisconsin","State_Abbrev":"WI"},
"geometry":{ "type": "Point", "coordinates": [-88.000857,42.939993]}},
{ "type": "Feature", "properties": {"Name":"Greenfield city","State":"Wisconsin","State_Abbrev":"WI"},
"geometry":{ "type": "Point", "coordinates": [-88.00567,42.960604]}},
{ "type": "Feature", "properties": {"Name":"Green Lake city","State":"Wisconsin","State_Abbrev":"WI"},
"geometry":{ "type": "Point", "coordinates": [-88.95579,43.842785]}},
{ "type": "Feature", "properties": {"Name":"Greenleaf CDP","State":"Wisconsin","State_Abbrev":"WI"},
"geometry":{ "type": "Point", "coordinates": [-88.097169,44.316937]}},
{ "type": "Feature", "properties": {"Name":"Green Valley CDP","State":"Wisconsin","State_Abbrev":"WI"},
"geometry":{ "type": "Point", "coordinates": [-88.268174,44.796922]}},
{ "type": "Feature", "properties": {"Name":"Greenville village","State":"Wisconsin","State_Abbrev":"WI"},
"geometry":{ "type": "Point", "coordinates": [-88.529563,44.295562]}},
{ "type": "Feature", "properties": {"Name":"Greenwood city","State":"Wisconsin","State_Abbrev":"WI"},
"geometry":{ "type": "Point", "coordinates": [-90.598951,44.765376]}},
{ "type": "Feature", "properties": {"Name":"Gresham village","State":"Wisconsin","State_Abbrev":"WI"},
"geometry":{ "type": "Point", "coordinates": [-88.786076,44.84861]}},
{ "type": "Feature", "properties": {"Name":"Hager City CDP","State":"Wisconsin","State_Abbrev":"WI"},
"geometry":{ "type": "Point", "coordinates": [-92.533469,44.602063]}},
{ "type": "Feature", "properties": {"Name":"Hales Corners village","State":"Wisconsin","State_Abbrev":"WI"},
"geometry":{ "type": "Point", "coordinates": [-88.0495,42.941231]}},
{ "type": "Feature", "properties": {"Name":"Hammond village","State":"Wisconsin","State_Abbrev":"WI"},
"geometry":{ "type": "Point", "coordinates": [-92.438072,44.969023]}},
{ "type": "Feature", "properties": {"Name":"Hancock village","State":"Wisconsin","State_Abbrev":"WI"},
"geometry":{ "type": "Point", "coordinates": [-89.520954,44.133308]}},
{ "type": "Feature", "properties": {"Name":"Hanover CDP","State":"Wisconsin","State_Abbrev":"WI"},
"geometry":{ "type": "Point", "coordinates": [-89.171034,42.638884]}},
{ "type": "Feature", "properties": {"Name":"Harrison village","State":"Wisconsin","State_Abbrev":"WI"},
"geometry":{ "type": "Point", "coordinates": [-88.294059,44.192246]}},
{ "type": "Feature", "properties": {"Name":"Harrisville CDP","State":"Wisconsin","State_Abbrev":"WI"},
"geometry":{ "type": "Point", "coordinates": [-89.409885,43.88429]}},
{ "type": "Feature", "properties": {"Name":"Hartford city","State":"Wisconsin","State_Abbrev":"WI"},
"geometry":{ "type": "Point", "coordinates": [-88.377737,43.322467]}},
{ "type": "Feature", "properties": {"Name":"Hartland village","State":"Wisconsin","State_Abbrev":"WI"},
"geometry":{ "type": "Point", "coordinates": [-88.335595,43.102352]}},
{ "type": "Feature", "properties": {"Name":"Hatfield CDP","State":"Wisconsin","State_Abbrev":"WI"},
"geometry":{ "type": "Point", "coordinates": [-90.751111,44.416937]}},
{ "type": "Feature", "properties": {"Name":"Hatley village","State":"Wisconsin","State_Abbrev":"WI"},
"geometry":{ "type": "Point", "coordinates": [-89.337101,44.886494]}},
{ "type": "Feature", "properties": {"Name":"Haugen village","State":"Wisconsin","State_Abbrev":"WI"},
"geometry":{ "type": "Point", "coordinates": [-91.778588,45.607593]}},
{ "type": "Feature", "properties": {"Name":"Hawkins village","State":"Wisconsin","State_Abbrev":"WI"},
"geometry":{ "type": "Point", "coordinates": [-90.717153,45.511853]}},
{ "type": "Feature", "properties": {"Name":"Hayward city","State":"Wisconsin","State_Abbrev":"WI"},
"geometry":{ "type": "Point", "coordinates": [-91.489684,46.006588]}},
{ "type": "Feature", "properties": {"Name":"Hazel Green village","State":"Wisconsin","State_Abbrev":"WI"},
"geometry":{ "type": "Point", "coordinates": [-90.436081,42.534165]}},
{ "type": "Feature", "properties": {"Name":"Hebron CDP","State":"Wisconsin","State_Abbrev":"WI"},
"geometry":{ "type": "Point", "coordinates": [-88.689478,42.918787]}},
{ "type": "Feature", "properties": {"Name":"Helenville CDP","State":"Wisconsin","State_Abbrev":"WI"},
"geometry":{ "type": "Point", "coordinates": [-88.699897,43.016537]}},
{ "type": "Feature", "properties": {"Name":"Herbster CDP","State":"Wisconsin","State_Abbrev":"WI"},
"geometry":{ "type": "Point", "coordinates": [-91.2419,46.842197]}},
{ "type": "Feature", "properties": {"Name":"Hewitt village","State":"Wisconsin","State_Abbrev":"WI"},
"geometry":{ "type": "Point", "coordinates": [-90.104834,44.642486]}},
{ "type": "Feature", "properties": {"Name":"Highland village","State":"Wisconsin","State_Abbrev":"WI"},
"geometry":{ "type": "Point", "coordinates": [-90.380085,43.047477]}},
{ "type": "Feature", "properties": {"Name":"Hilbert village","State":"Wisconsin","State_Abbrev":"WI"},
"geometry":{ "type": "Point", "coordinates": [-88.161084,44.141492]}},
{ "type": "Feature", "properties": {"Name":"Hillsboro city","State":"Wisconsin","State_Abbrev":"WI"},
"geometry":{ "type": "Point", "coordinates": [-90.334389,43.656497]}},
{ "type": "Feature", "properties": {"Name":"Hingham CDP","State":"Wisconsin","State_Abbrev":"WI"},
"geometry":{ "type": "Point", "coordinates": [-87.910623,43.654278]}},
{ "type": "Feature", "properties": {"Name":"Hixton village","State":"Wisconsin","State_Abbrev":"WI"},
"geometry":{ "type": "Point", "coordinates": [-91.0148,44.383081]}},
{ "type": "Feature", "properties": {"Name":"Hobart village","State":"Wisconsin","State_Abbrev":"WI"},
"geometry":{ "type": "Point", "coordinates": [-88.155601,44.495441]}},
{ "type": "Feature", "properties": {"Name":"Holcombe CDP","State":"Wisconsin","State_Abbrev":"WI"},
"geometry":{ "type": "Point", "coordinates": [-91.120552,45.222301]}},
{ "type": "Feature", "properties": {"Name":"Hollandale village","State":"Wisconsin","State_Abbrev":"WI"},
"geometry":{ "type": "Point", "coordinates": [-89.9335,42.874972]}},
{ "type": "Feature", "properties": {"Name":"Holmen village","State":"Wisconsin","State_Abbrev":"WI"},
"geometry":{ "type": "Point", "coordinates": [-91.265673,43.970622]}},
{ "type": "Feature", "properties": {"Name":"Horicon city","State":"Wisconsin","State_Abbrev":"WI"},
"geometry":{ "type": "Point", "coordinates": [-88.640328,43.445001]}},
{ "type": "Feature", "properties": {"Name":"Hortonville village","State":"Wisconsin","State_Abbrev":"WI"},
"geometry":{ "type": "Point", "coordinates": [-88.636599,44.335766]}},
{ "type": "Feature", "properties": {"Name":"Houlton CDP","State":"Wisconsin","State_Abbrev":"WI"},
"geometry":{ "type": "Point", "coordinates": [-92.788487,45.065942]}},
{ "type": "Feature", "properties": {"Name":"Howard village","State":"Wisconsin","State_Abbrev":"WI"},
"geometry":{ "type": "Point", "coordinates": [-88.071724,44.568621]}},
{ "type": "Feature", "properties": {"Name":"Howards Grove village","State":"Wisconsin","State_Abbrev":"WI"},
"geometry":{ "type": "Point", "coordinates": [-87.820326,43.82974]}},
{ "type": "Feature", "properties": {"Name":"Hudson city","State":"Wisconsin","State_Abbrev":"WI"},
"geometry":{ "type": "Point", "coordinates": [-92.730253,44.963882]}},
{ "type": "Feature", "properties": {"Name":"Humbird CDP","State":"Wisconsin","State_Abbrev":"WI"},
"geometry":{ "type": "Point", "coordinates": [-90.879166,44.531283]}},
{ "type": "Feature", "properties": {"Name":"Hurley city","State":"Wisconsin","State_Abbrev":"WI"},
"geometry":{ "type": "Point", "coordinates": [-90.211266,46.444285]}},
{ "type": "Feature", "properties": {"Name":"Hustisford village","State":"Wisconsin","State_Abbrev":"WI"},
"geometry":{ "type": "Point", "coordinates": [-88.603471,43.342696]}},
{ "type": "Feature", "properties": {"Name":"Hustler village","State":"Wisconsin","State_Abbrev":"WI"},
"geometry":{ "type": "Point", "coordinates": [-90.265801,43.877286]}},
{ "type": "Feature", "properties": {"Name":"Independence city","State":"Wisconsin","State_Abbrev":"WI"},
"geometry":{ "type": "Point", "coordinates": [-91.42071,44.309824]}},
{ "type": "Feature", "properties": {"Name":"Ingram village","State":"Wisconsin","State_Abbrev":"WI"},
"geometry":{ "type": "Point", "coordinates": [-90.813687,45.505624]}},
{ "type": "Feature", "properties": {"Name":"Iola village","State":"Wisconsin","State_Abbrev":"WI"},
"geometry":{ "type": "Point", "coordinates": [-89.117218,44.509708]}},
{ "type": "Feature", "properties": {"Name":"Iron Belt CDP","State":"Wisconsin","State_Abbrev":"WI"},
"geometry":{ "type": "Point", "coordinates": [-90.319218,46.403009]}},
{ "type": "Feature", "properties": {"Name":"Iron Ridge village","State":"Wisconsin","State_Abbrev":"WI"},
"geometry":{ "type": "Point", "coordinates": [-88.531928,43.398061]}},
{ "type": "Feature", "properties": {"Name":"Iron River CDP","State":"Wisconsin","State_Abbrev":"WI"},
"geometry":{ "type": "Point", "coordinates": [-91.39985,46.579326]}},
{ "type": "Feature", "properties": {"Name":"Ironton village","State":"Wisconsin","State_Abbrev":"WI"},
"geometry":{ "type": "Point", "coordinates": [-90.145467,43.544188]}},
{ "type": "Feature", "properties": {"Name":"Ixonia CDP","State":"Wisconsin","State_Abbrev":"WI"},
"geometry":{ "type": "Point", "coordinates": [-88.596316,43.137193]}},
{ "type": "Feature", "properties": {"Name":"Jackson village","State":"Wisconsin","State_Abbrev":"WI"},
"geometry":{ "type": "Point", "coordinates": [-88.164117,43.319883]}},
{ "type": "Feature", "properties": {"Name":"Janesville city","State":"Wisconsin","State_Abbrev":"WI"},
"geometry":{ "type": "Point", "coordinates": [-89.01317,42.684698]}},
{ "type": "Feature", "properties": {"Name":"Jefferson city","State":"Wisconsin","State_Abbrev":"WI"},
"geometry":{ "type": "Point", "coordinates": [-88.808473,43.003955]}},
{ "type": "Feature", "properties": {"Name":"Jim Falls CDP","State":"Wisconsin","State_Abbrev":"WI"},
"geometry":{ "type": "Point", "coordinates": [-91.271888,45.047823]}},
{ "type": "Feature", "properties": {"Name":"Johnson Creek village","State":"Wisconsin","State_Abbrev":"WI"},
"geometry":{ "type": "Point", "coordinates": [-88.771069,43.079053]}},
{ "type": "Feature", "properties": {"Name":"Jolmaville CDP","State":"Wisconsin","State_Abbrev":"WI"},
"geometry":{ "type": "Point", "coordinates": [-90.749832,46.433051]}},
{ "type": "Feature", "properties": {"Name":"Juda CDP","State":"Wisconsin","State_Abbrev":"WI"},
"geometry":{ "type": "Point", "coordinates": [-89.50922,42.589961]}},
{ "type": "Feature", "properties": {"Name":"Jump River CDP","State":"Wisconsin","State_Abbrev":"WI"},
"geometry":{ "type": "Point", "coordinates": [-90.796445,45.355532]}},
{ "type": "Feature", "properties": {"Name":"Junction City village","State":"Wisconsin","State_Abbrev":"WI"},
"geometry":{ "type": "Point", "coordinates": [-89.769656,44.594933]}},
{ "type": "Feature", "properties": {"Name":"Juneau city","State":"Wisconsin","State_Abbrev":"WI"},
"geometry":{ "type": "Point", "coordinates": [-88.703256,43.402904]}},
{ "type": "Feature", "properties": {"Name":"Kaukauna city","State":"Wisconsin","State_Abbrev":"WI"},
"geometry":{ "type": "Point", "coordinates": [-88.263857,44.276791]}},
{ "type": "Feature", "properties": {"Name":"Kekoskee village","State":"Wisconsin","State_Abbrev":"WI"},
"geometry":{ "type": "Point", "coordinates": [-88.584595,43.500597]}},
{ "type": "Feature", "properties": {"Name":"Kellnersville village","State":"Wisconsin","State_Abbrev":"WI"},
"geometry":{ "type": "Point", "coordinates": [-87.803115,44.225167]}},
{ "type": "Feature", "properties": {"Name":"Kendall village","State":"Wisconsin","State_Abbrev":"WI"},
"geometry":{ "type": "Point", "coordinates": [-90.367649,43.792669]}},
{ "type": "Feature", "properties": {"Name":"Kennan village","State":"Wisconsin","State_Abbrev":"WI"},
"geometry":{ "type": "Point", "coordinates": [-90.586831,45.530074]}},
{ "type": "Feature", "properties": {"Name":"Kenosha city","State":"Wisconsin","State_Abbrev":"WI"},
"geometry":{ "type": "Point", "coordinates": [-87.879996,42.587526]}},
{ "type": "Feature", "properties": {"Name":"Keshena CDP","State":"Wisconsin","State_Abbrev":"WI"},
"geometry":{ "type": "Point", "coordinates": [-88.585289,44.866782]}},
{ "type": "Feature", "properties": {"Name":"Kewaskum village","State":"Wisconsin","State_Abbrev":"WI"},
"geometry":{ "type": "Point", "coordinates": [-88.230607,43.517649]}},
{ "type": "Feature", "properties": {"Name":"Kewaunee city","State":"Wisconsin","State_Abbrev":"WI"},
"geometry":{ "type": "Point", "coordinates": [-87.521699,44.463574]}},
{ "type": "Feature", "properties": {"Name":"Kiel city","State":"Wisconsin","State_Abbrev":"WI"},
"geometry":{ "type": "Point", "coordinates": [-88.026497,43.91602]}},
{ "type": "Feature", "properties": {"Name":"Kieler CDP","State":"Wisconsin","State_Abbrev":"WI"},
"geometry":{ "type": "Point", "coordinates": [-90.605183,42.582306]}},
{ "type": "Feature", "properties": {"Name":"Kimberly village","State":"Wisconsin","State_Abbrev":"WI"},
"geometry":{ "type": "Point", "coordinates": [-88.338004,44.26676]}},
{ "type": "Feature", "properties": {"Name":"King CDP","State":"Wisconsin","State_Abbrev":"WI"},
"geometry":{ "type": "Point", "coordinates": [-89.12485,44.342086]}},
{ "type": "Feature", "properties": {"Name":"Kingston village","State":"Wisconsin","State_Abbrev":"WI"},
"geometry":{ "type": "Point", "coordinates": [-89.131469,43.693268]}},
{ "type": "Feature", "properties": {"Name":"Knapp village","State":"Wisconsin","State_Abbrev":"WI"},
"geometry":{ "type": "Point", "coordinates": [-92.080767,44.948898]}},
{ "type": "Feature", "properties": {"Name":"Knowlton CDP","State":"Wisconsin","State_Abbrev":"WI"},
"geometry":{ "type": "Point", "coordinates": [-89.680363,44.718188]}},
{ "type": "Feature", "properties": {"Name":"Kohler village","State":"Wisconsin","State_Abbrev":"WI"},
"geometry":{ "type": "Point", "coordinates": [-87.776838,43.739983]}},
{ "type": "Feature", "properties": {"Name":"Krakow CDP","State":"Wisconsin","State_Abbrev":"WI"},
"geometry":{ "type": "Point", "coordinates": [-88.261086,44.758507]}},
{ "type": "Feature", "properties": {"Name":"Kronenwetter village","State":"Wisconsin","State_Abbrev":"WI"},
"geometry":{ "type": "Point", "coordinates": [-89.588673,44.819893]}},
{ "type": "Feature", "properties": {"Name":"Lac du Flambeau CDP","State":"Wisconsin","State_Abbrev":"WI"},
"geometry":{ "type": "Point", "coordinates": [-89.896865,45.962279]}},
{ "type": "Feature", "properties": {"Name":"Lac La Belle village","State":"Wisconsin","State_Abbrev":"WI"},
"geometry":{ "type": "Point", "coordinates": [-88.517334,43.145515]}},
{ "type": "Feature", "properties": {"Name":"La Crosse city","State":"Wisconsin","State_Abbrev":"WI"},
"geometry":{ "type": "Point", "coordinates": [-91.224616,43.824685]}},
{ "type": "Feature", "properties": {"Name":"Ladysmith city","State":"Wisconsin","State_Abbrev":"WI"},
"geometry":{ "type": "Point", "coordinates": [-91.097573,45.460974]}},
{ "type": "Feature", "properties": {"Name":"La Farge village","State":"Wisconsin","State_Abbrev":"WI"},
"geometry":{ "type": "Point", "coordinates": [-90.638265,43.578243]}},
{ "type": "Feature", "properties": {"Name":"Lake Arrowhead CDP","State":"Wisconsin","State_Abbrev":"WI"},
"geometry":{ "type": "Point", "coordinates": [-89.844627,44.203602]}},
{ "type": "Feature", "properties": {"Name":"Lake Camelot CDP","State":"Wisconsin","State_Abbrev":"WI"},
"geometry":{ "type": "Point", "coordinates": [-89.763025,44.212774]}},
{ "type": "Feature", "properties": {"Name":"Lake Delton village","State":"Wisconsin","State_Abbrev":"WI"},
"geometry":{ "type": "Point", "coordinates": [-89.784467,43.591353]}},
{ "type": "Feature", "properties": {"Name":"Lake Geneva city","State":"Wisconsin","State_Abbrev":"WI"},
"geometry":{ "type": "Point", "coordinates": [-88.428454,42.583346]}},
{ "type": "Feature", "properties": {"Name":"Lake Hallie village","State":"Wisconsin","State_Abbrev":"WI"},
"geometry":{ "type": "Point", "coordinates": [-91.420333,44.891691]}},
{ "type": "Feature", "properties": {"Name":"Lake Ivanhoe CDP","State":"Wisconsin","State_Abbrev":"WI"},
"geometry":{ "type": "Point", "coordinates": [-88.335973,42.57924]}},
{ "type": "Feature", "properties": {"Name":"Lake Koshkonong CDP","State":"Wisconsin","State_Abbrev":"WI"},
"geometry":{ "type": "Point", "coordinates": [-88.940129,42.860502]}},
{ "type": "Feature", "properties": {"Name":"Lake Lorraine CDP","State":"Wisconsin","State_Abbrev":"WI"},
"geometry":{ "type": "Point", "coordinates": [-88.740323,42.73038]}},
{ "type": "Feature", "properties": {"Name":"Lake Mills city","State":"Wisconsin","State_Abbrev":"WI"},
"geometry":{ "type": "Point", "coordinates": [-88.906411,43.077639]}},
{ "type": "Feature", "properties": {"Name":"Lake Nebagamon village","State":"Wisconsin","State_Abbrev":"WI"},
"geometry":{ "type": "Point", "coordinates": [-91.704353,46.497748]}},
{ "type": "Feature", "properties": {"Name":"Lake Ripley CDP","State":"Wisconsin","State_Abbrev":"WI"},
"geometry":{ "type": "Point", "coordinates": [-88.990254,43.008632]}},
{ "type": "Feature", "properties": {"Name":"Lake Sherwood CDP","State":"Wisconsin","State_Abbrev":"WI"},
"geometry":{ "type": "Point", "coordinates": [-89.788058,44.206264]}},
{ "type": "Feature", "properties": {"Name":"Lake Tomahawk CDP","State":"Wisconsin","State_Abbrev":"WI"},
"geometry":{ "type": "Point", "coordinates": [-89.577404,45.809175]}},
{ "type": "Feature", "properties": {"Name":"Lake Wazeecha CDP","State":"Wisconsin","State_Abbrev":"WI"},
"geometry":{ "type": "Point", "coordinates": [-89.749231,44.37087]}},
{ "type": "Feature", "properties": {"Name":"Lake Wisconsin CDP","State":"Wisconsin","State_Abbrev":"WI"},
"geometry":{ "type": "Point", "coordinates": [-89.59601,43.36474]}},
{ "type": "Feature", "properties": {"Name":"Lake Wissota CDP","State":"Wisconsin","State_Abbrev":"WI"},
"geometry":{ "type": "Point", "coordinates": [-91.289635,44.925954]}},
{ "type": "Feature", "properties": {"Name":"Lakewood CDP","State":"Wisconsin","State_Abbrev":"WI"},
"geometry":{ "type": "Point", "coordinates": [-88.514541,45.300592]}},
{ "type": "Feature", "properties": {"Name":"Lancaster city","State":"Wisconsin","State_Abbrev":"WI"},
"geometry":{ "type": "Point", "coordinates": [-90.706484,42.847348]}},
{ "type": "Feature", "properties": {"Name":"Lannon village","State":"Wisconsin","State_Abbrev":"WI"},
"geometry":{ "type": "Point", "coordinates": [-88.158198,43.15724]}},
{ "type": "Feature", "properties": {"Name":"Laona CDP","State":"Wisconsin","State_Abbrev":"WI"},
"geometry":{ "type": "Point", "coordinates": [-88.669656,45.55968]}},
{ "type": "Feature", "properties": {"Name":"Lauderdale Lakes CDP","State":"Wisconsin","State_Abbrev":"WI"},
"geometry":{ "type": "Point", "coordinates": [-88.580552,42.772349]}},
{ "type": "Feature", "properties": {"Name":"La Valle village","State":"Wisconsin","State_Abbrev":"WI"},
"geometry":{ "type": "Point", "coordinates": [-90.130171,43.582669]}},
{ "type": "Feature", "properties": {"Name":"Lebanon CDP","State":"Wisconsin","State_Abbrev":"WI"},
"geometry":{ "type": "Point", "coordinates": [-88.632197,43.257449]}},
{ "type": "Feature", "properties": {"Name":"Legend Lake CDP","State":"Wisconsin","State_Abbrev":"WI"},
"geometry":{ "type": "Point", "coordinates": [-88.543082,44.895116]}},
{ "type": "Feature", "properties": {"Name":"Lena village","State":"Wisconsin","State_Abbrev":"WI"},
"geometry":{ "type": "Point", "coordinates": [-88.047325,44.953037]}},
{ "type": "Feature", "properties": {"Name":"Leopolis CDP","State":"Wisconsin","State_Abbrev":"WI"},
"geometry":{ "type": "Point", "coordinates": [-88.844716,44.765481]}},
{ "type": "Feature", "properties": {"Name":"Lewis CDP","State":"Wisconsin","State_Abbrev":"WI"},
"geometry":{ "type": "Point", "coordinates": [-92.392215,45.721887]}},
{ "type": "Feature", "properties": {"Name":"Lily Lake CDP","State":"Wisconsin","State_Abbrev":"WI"},
"geometry":{ "type": "Point", "coordinates": [-88.209981,42.565703]}},
{ "type": "Feature", "properties": {"Name":"Lime Ridge village","State":"Wisconsin","State_Abbrev":"WI"},
"geometry":{ "type": "Point", "coordinates": [-90.157692,43.467579]}},
{ "type": "Feature", "properties": {"Name":"Linden village","State":"Wisconsin","State_Abbrev":"WI"},
"geometry":{ "type": "Point", "coordinates": [-90.274181,42.918614]}},
{ "type": "Feature", "properties": {"Name":"Little Chute village","State":"Wisconsin","State_Abbrev":"WI"},
"geometry":{ "type": "Point", "coordinates": [-88.320399,44.291128]}},
{ "type": "Feature", "properties": {"Name":"Little Round Lake CDP","State":"Wisconsin","State_Abbrev":"WI"},
"geometry":{ "type": "Point", "coordinates": [-91.368866,45.969426]}},
{ "type": "Feature", "properties": {"Name":"Little Sturgeon CDP","State":"Wisconsin","State_Abbrev":"WI"},
"geometry":{ "type": "Point", "coordinates": [-87.57449,44.842029]}},
{ "type": "Feature", "properties": {"Name":"Livingston village","State":"Wisconsin","State_Abbrev":"WI"},
"geometry":{ "type": "Point", "coordinates": [-90.43368,42.900095]}},
{ "type": "Feature", "properties": {"Name":"Lodi city","State":"Wisconsin","State_Abbrev":"WI"},
"geometry":{ "type": "Point", "coordinates": [-89.539889,43.315531]}},
{ "type": "Feature", "properties": {"Name":"Loganville village","State":"Wisconsin","State_Abbrev":"WI"},
"geometry":{ "type": "Point", "coordinates": [-90.037365,43.43702]}},
{ "type": "Feature", "properties": {"Name":"Lohrville village","State":"Wisconsin","State_Abbrev":"WI"},
"geometry":{ "type": "Point", "coordinates": [-89.121158,44.038153]}},
{ "type": "Feature", "properties": {"Name":"Lomira village","State":"Wisconsin","State_Abbrev":"WI"},
"geometry":{ "type": "Point", "coordinates": [-88.443216,43.594248]}},
{ "type": "Feature", "properties": {"Name":"Lone Rock village","State":"Wisconsin","State_Abbrev":"WI"},
"geometry":{ "type": "Point", "coordinates": [-90.201286,43.18567]}},
{ "type": "Feature", "properties": {"Name":"Long Lake CDP","State":"Wisconsin","State_Abbrev":"WI"},
"geometry":{ "type": "Point", "coordinates": [-88.667306,45.843027]}},
{ "type": "Feature", "properties": {"Name":"Lowell village","State":"Wisconsin","State_Abbrev":"WI"},
"geometry":{ "type": "Point", "coordinates": [-88.813704,43.333564]}},
{ "type": "Feature", "properties": {"Name":"Loyal city","State":"Wisconsin","State_Abbrev":"WI"},
"geometry":{ "type": "Point", "coordinates": [-90.495618,44.736526]}},
{ "type": "Feature", "properties": {"Name":"Lublin village","State":"Wisconsin","State_Abbrev":"WI"},
"geometry":{ "type": "Point", "coordinates": [-90.723808,45.074915]}},
{ "type": "Feature", "properties": {"Name":"Luck village","State":"Wisconsin","State_Abbrev":"WI"},
"geometry":{ "type": "Point", "coordinates": [-92.462503,45.576753]}},
{ "type": "Feature", "properties": {"Name":"Luxemburg village","State":"Wisconsin","State_Abbrev":"WI"},
"geometry":{ "type": "Point", "coordinates": [-87.707098,44.543868]}},
{ "type": "Feature", "properties": {"Name":"Lyndon Station village","State":"Wisconsin","State_Abbrev":"WI"},
"geometry":{ "type": "Point", "coordinates": [-89.893654,43.708788]}},
{ "type": "Feature", "properties": {"Name":"Lynxville village","State":"Wisconsin","State_Abbrev":"WI"},
"geometry":{ "type": "Point", "coordinates": [-91.049379,43.252721]}},
{ "type": "Feature", "properties": {"Name":"Lyons CDP","State":"Wisconsin","State_Abbrev":"WI"},
"geometry":{ "type": "Point", "coordinates": [-88.360114,42.648231]}},
{ "type": "Feature", "properties": {"Name":"McFarland village","State":"Wisconsin","State_Abbrev":"WI"},
"geometry":{ "type": "Point", "coordinates": [-89.28342,43.019225]}},
{ "type": "Feature", "properties": {"Name":"Madison city","State":"Wisconsin","State_Abbrev":"WI"},
"geometry":{ "type": "Point", "coordinates": [-89.429856,43.087815]}},
{ "type": "Feature", "properties": {"Name":"Maiden Rock village","State":"Wisconsin","State_Abbrev":"WI"},
"geometry":{ "type": "Point", "coordinates": [-92.309307,44.567897]}},
{ "type": "Feature", "properties": {"Name":"Maine village","State":"Wisconsin","State_Abbrev":"WI"},
"geometry":{ "type": "Point", "coordinates": [-89.681321,45.05803]}},
{ "type": "Feature", "properties": {"Name":"Manawa city","State":"Wisconsin","State_Abbrev":"WI"},
"geometry":{ "type": "Point", "coordinates": [-88.920464,44.461517]}},
{ "type": "Feature", "properties": {"Name":"Manitowoc city","State":"Wisconsin","State_Abbrev":"WI"},
"geometry":{ "type": "Point", "coordinates": [-87.678945,44.097981]}},
{ "type": "Feature", "properties": {"Name":"Maple Bluff village","State":"Wisconsin","State_Abbrev":"WI"},
"geometry":{ "type": "Point", "coordinates": [-89.37105,43.117399]}},
{ "type": "Feature", "properties": {"Name":"Marathon City village","State":"Wisconsin","State_Abbrev":"WI"},
"geometry":{ "type": "Point", "coordinates": [-89.850095,44.938991]}},
{ "type": "Feature", "properties": {"Name":"Marengo CDP","State":"Wisconsin","State_Abbrev":"WI"},
"geometry":{ "type": "Point", "coordinates": [-90.808097,46.421926]}},
{ "type": "Feature", "properties": {"Name":"Maribel village","State":"Wisconsin","State_Abbrev":"WI"},
"geometry":{ "type": "Point", "coordinates": [-87.802126,44.278597]}},
{ "type": "Feature", "properties": {"Name":"Marinette city","State":"Wisconsin","State_Abbrev":"WI"},
"geometry":{ "type": "Point", "coordinates": [-87.632443,45.086794]}},
{ "type": "Feature", "properties": {"Name":"Marion city","State":"Wisconsin","State_Abbrev":"WI"},
"geometry":{ "type": "Point", "coordinates": [-88.902362,44.677313]}},
{ "type": "Feature", "properties": {"Name":"Markesan city","State":"Wisconsin","State_Abbrev":"WI"},
"geometry":{ "type": "Point", "coordinates": [-88.991214,43.710826]}},
{ "type": "Feature", "properties": {"Name":"Marquette village","State":"Wisconsin","State_Abbrev":"WI"},
"geometry":{ "type": "Point", "coordinates": [-89.138354,43.746408]}},
{ "type": "Feature", "properties": {"Name":"Marshall village","State":"Wisconsin","State_Abbrev":"WI"},
"geometry":{ "type": "Point", "coordinates": [-89.062647,43.170486]}},
{ "type": "Feature", "properties": {"Name":"Marshfield city","State":"Wisconsin","State_Abbrev":"WI"},
"geometry":{ "type": "Point", "coordinates": [-90.171736,44.663291]}},
{ "type": "Feature", "properties": {"Name":"Mason village","State":"Wisconsin","State_Abbrev":"WI"},
"geometry":{ "type": "Point", "coordinates": [-91.059943,46.435453]}},
{ "type": "Feature", "properties": {"Name":"Mattoon village","State":"Wisconsin","State_Abbrev":"WI"},
"geometry":{ "type": "Point", "coordinates": [-89.041093,45.004617]}},
{ "type": "Feature", "properties": {"Name":"Mauston city","State":"Wisconsin","State_Abbrev":"WI"},
"geometry":{ "type": "Point", "coordinates": [-90.079554,43.799976]}},
{ "type": "Feature", "properties": {"Name":"Mayville city","State":"Wisconsin","State_Abbrev":"WI"},
"geometry":{ "type": "Point", "coordinates": [-88.547639,43.498154]}},
{ "type": "Feature", "properties": {"Name":"Mazomanie village","State":"Wisconsin","State_Abbrev":"WI"},
"geometry":{ "type": "Point", "coordinates": [-89.795308,43.17245]}},
{ "type": "Feature", "properties": {"Name":"Medford city","State":"Wisconsin","State_Abbrev":"WI"},
"geometry":{ "type": "Point", "coordinates": [-90.342467,45.135634]}},
{ "type": "Feature", "properties": {"Name":"Mellen city","State":"Wisconsin","State_Abbrev":"WI"},
"geometry":{ "type": "Point", "coordinates": [-90.660454,46.323977]}},
{ "type": "Feature", "properties": {"Name":"Melrose village","State":"Wisconsin","State_Abbrev":"WI"},
"geometry":{ "type": "Point", "coordinates": [-90.996919,44.131154]}},
{ "type": "Feature", "properties": {"Name":"Melvina village","State":"Wisconsin","State_Abbrev":"WI"},
"geometry":{ "type": "Point", "coordinates": [-90.781459,43.802449]}},
{ "type": "Feature", "properties": {"Name":"Menasha city","State":"Wisconsin","State_Abbrev":"WI"},
"geometry":{ "type": "Point", "coordinates": [-88.427357,44.212338]}},
{ "type": "Feature", "properties": {"Name":"Menomonee Falls village","State":"Wisconsin","State_Abbrev":"WI"},
"geometry":{ "type": "Point", "coordinates": [-88.121548,43.159411]}},
{ "type": "Feature", "properties": {"Name":"Menomonie city","State":"Wisconsin","State_Abbrev":"WI"},
"geometry":{ "type": "Point", "coordinates": [-91.90957,44.8892]}},
{ "type": "Feature", "properties": {"Name":"Mequon city","State":"Wisconsin","State_Abbrev":"WI"},
"geometry":{ "type": "Point", "coordinates": [-88.014237,43.211357]}},
{ "type": "Feature", "properties": {"Name":"Mercer CDP","State":"Wisconsin","State_Abbrev":"WI"},
"geometry":{ "type": "Point", "coordinates": [-90.041842,46.161334]}},
{ "type": "Feature", "properties": {"Name":"Merrill city","State":"Wisconsin","State_Abbrev":"WI"},
"geometry":{ "type": "Point", "coordinates": [-89.700339,45.180635]}},
{ "type": "Feature", "properties": {"Name":"Merrillan village","State":"Wisconsin","State_Abbrev":"WI"},
"geometry":{ "type": "Point", "coordinates": [-90.834467,44.450575]}},
{ "type": "Feature", "properties": {"Name":"Merrimac village","State":"Wisconsin","State_Abbrev":"WI"},
"geometry":{ "type": "Point", "coordinates": [-89.626862,43.375581]}},
{ "type": "Feature", "properties": {"Name":"Merton village","State":"Wisconsin","State_Abbrev":"WI"},
"geometry":{ "type": "Point", "coordinates": [-88.312344,43.143682]}},
{ "type": "Feature", "properties": {"Name":"Middleton city","State":"Wisconsin","State_Abbrev":"WI"},
"geometry":{ "type": "Point", "coordinates": [-89.504477,43.105222]}},
{ "type": "Feature", "properties": {"Name":"Middle Village CDP","State":"Wisconsin","State_Abbrev":"WI"},
"geometry":{ "type": "Point", "coordinates": [-88.717814,44.926491]}},
{ "type": "Feature", "properties": {"Name":"Milladore village","State":"Wisconsin","State_Abbrev":"WI"},
"geometry":{ "type": "Point", "coordinates": [-89.855161,44.605625]}},
{ "type": "Feature", "properties": {"Name":"Millston CDP","State":"Wisconsin","State_Abbrev":"WI"},
"geometry":{ "type": "Point", "coordinates": [-90.645691,44.189264]}},
{ "type": "Feature", "properties": {"Name":"Milltown village","State":"Wisconsin","State_Abbrev":"WI"},
"geometry":{ "type": "Point", "coordinates": [-92.498503,45.521082]}},
{ "type": "Feature", "properties": {"Name":"Milton city","State":"Wisconsin","State_Abbrev":"WI"},
"geometry":{ "type": "Point", "coordinates": [-88.941553,42.775239]}},
{ "type": "Feature", "properties": {"Name":"Milwaukee city","State":"Wisconsin","State_Abbrev":"WI"},
"geometry":{ "type": "Point", "coordinates": [-87.966695,43.063348]}},
{ "type": "Feature", "properties": {"Name":"Mindoro CDP","State":"Wisconsin","State_Abbrev":"WI"},
"geometry":{ "type": "Point", "coordinates": [-91.101926,44.020139]}},
{ "type": "Feature", "properties": {"Name":"Mineral Point city","State":"Wisconsin","State_Abbrev":"WI"},
"geometry":{ "type": "Point", "coordinates": [-90.181378,42.863154]}},
{ "type": "Feature", "properties": {"Name":"Minocqua CDP","State":"Wisconsin","State_Abbrev":"WI"},
"geometry":{ "type": "Point", "coordinates": [-89.703617,45.879211]}},
{ "type": "Feature", "properties": {"Name":"Minong village","State":"Wisconsin","State_Abbrev":"WI"},
"geometry":{ "type": "Point", "coordinates": [-91.825949,46.098978]}},
{ "type": "Feature", "properties": {"Name":"Mishicot village","State":"Wisconsin","State_Abbrev":"WI"},
"geometry":{ "type": "Point", "coordinates": [-87.639805,44.228533]}},
{ "type": "Feature", "properties": {"Name":"Mission CDP","State":"Wisconsin","State_Abbrev":"WI"},
"geometry":{ "type": "Point", "coordinates": [-90.763086,44.345353]}},
{ "type": "Feature", "properties": {"Name":"Mole Lake CDP","State":"Wisconsin","State_Abbrev":"WI"},
"geometry":{ "type": "Point", "coordinates": [-88.975622,45.486128]}},
{ "type": "Feature", "properties": {"Name":"Mondovi city","State":"Wisconsin","State_Abbrev":"WI"},
"geometry":{ "type": "Point", "coordinates": [-91.666851,44.570255]}},
{ "type": "Feature", "properties": {"Name":"Monona city","State":"Wisconsin","State_Abbrev":"WI"},
"geometry":{ "type": "Point", "coordinates": [-89.333513,43.053873]}},
{ "type": "Feature", "properties": {"Name":"Monroe city","State":"Wisconsin","State_Abbrev":"WI"},
"geometry":{ "type": "Point", "coordinates": [-89.638043,42.602937]}},
{ "type": "Feature", "properties": {"Name":"Montello city","State":"Wisconsin","State_Abbrev":"WI"},
"geometry":{ "type": "Point", "coordinates": [-89.333183,43.794357]}},
{ "type": "Feature", "properties": {"Name":"Montfort village","State":"Wisconsin","State_Abbrev":"WI"},
"geometry":{ "type": "Point", "coordinates": [-90.433013,42.969647]}},
{ "type": "Feature", "properties": {"Name":"Monticello village","State":"Wisconsin","State_Abbrev":"WI"},
"geometry":{ "type": "Point", "coordinates": [-89.590257,42.744662]}},
{ "type": "Feature", "properties": {"Name":"Montreal city","State":"Wisconsin","State_Abbrev":"WI"},
"geometry":{ "type": "Point", "coordinates": [-90.241935,46.433177]}},
{ "type": "Feature", "properties": {"Name":"Mosinee city","State":"Wisconsin","State_Abbrev":"WI"},
"geometry":{ "type": "Point", "coordinates": [-89.684328,44.79182]}},
{ "type": "Feature", "properties": {"Name":"Mountain CDP","State":"Wisconsin","State_Abbrev":"WI"},
"geometry":{ "type": "Point", "coordinates": [-88.468086,45.186387]}},
{ "type": "Feature", "properties": {"Name":"Mount Calvary village","State":"Wisconsin","State_Abbrev":"WI"},
"geometry":{ "type": "Point", "coordinates": [-88.241105,43.823838]}},
{ "type": "Feature", "properties": {"Name":"Mount Hope village","State":"Wisconsin","State_Abbrev":"WI"},
"geometry":{ "type": "Point", "coordinates": [-90.859559,42.969635]}},
{ "type": "Feature", "properties": {"Name":"Mount Horeb village","State":"Wisconsin","State_Abbrev":"WI"},
"geometry":{ "type": "Point", "coordinates": [-89.731543,43.006003]}},
{ "type": "Feature", "properties": {"Name":"Mount Pleasant village","State":"Wisconsin","State_Abbrev":"WI"},
"geometry":{ "type": "Point", "coordinates": [-87.884894,42.708832]}},
{ "type": "Feature", "properties": {"Name":"Mount Sterling village","State":"Wisconsin","State_Abbrev":"WI"},
"geometry":{ "type": "Point", "coordinates": [-90.929223,43.31619]}},
{ "type": "Feature", "properties": {"Name":"Mukwonago village","State":"Wisconsin","State_Abbrev":"WI"},
"geometry":{ "type": "Point", "coordinates": [-88.320626,42.852988]}},
{ "type": "Feature", "properties": {"Name":"Muscoda village","State":"Wisconsin","State_Abbrev":"WI"},
"geometry":{ "type": "Point", "coordinates": [-90.4319,43.186419]}},
{ "type": "Feature", "properties": {"Name":"Muskego city","State":"Wisconsin","State_Abbrev":"WI"},
"geometry":{ "type": "Point", "coordinates": [-88.13432,42.871356]}},
{ "type": "Feature", "properties": {"Name":"Nashotah village","State":"Wisconsin","State_Abbrev":"WI"},
"geometry":{ "type": "Point", "coordinates": [-88.407958,43.088811]}},
{ "type": "Feature", "properties": {"Name":"Navarino CDP","State":"Wisconsin","State_Abbrev":"WI"},
"geometry":{ "type": "Point", "coordinates": [-88.493352,44.610914]}},
{ "type": "Feature", "properties": {"Name":"Necedah village","State":"Wisconsin","State_Abbrev":"WI"},
"geometry":{ "type": "Point", "coordinates": [-90.075051,44.022091]}},
{ "type": "Feature", "properties": {"Name":"Neenah city","State":"Wisconsin","State_Abbrev":"WI"},
"geometry":{ "type": "Point", "coordinates": [-88.479628,44.164925]}},
{ "type": "Feature", "properties": {"Name":"Neillsville city","State":"Wisconsin","State_Abbrev":"WI"},
"geometry":{ "type": "Point", "coordinates": [-90.590781,44.560316]}},
{ "type": "Feature", "properties": {"Name":"Nekoosa city","State":"Wisconsin","State_Abbrev":"WI"},
"geometry":{ "type": "Point", "coordinates": [-89.907891,44.313177]}},
{ "type": "Feature", "properties": {"Name":"Nelson village","State":"Wisconsin","State_Abbrev":"WI"},
"geometry":{ "type": "Point", "coordinates": [-91.997308,44.419593]}},
{ "type": "Feature", "properties": {"Name":"Nelsonville village","State":"Wisconsin","State_Abbrev":"WI"},
"geometry":{ "type": "Point", "coordinates": [-89.303542,44.490214]}},
{ "type": "Feature", "properties": {"Name":"Neopit CDP","State":"Wisconsin","State_Abbrev":"WI"},
"geometry":{ "type": "Point", "coordinates": [-88.814575,44.984688]}},
{ "type": "Feature", "properties": {"Name":"Neosho village","State":"Wisconsin","State_Abbrev":"WI"},
"geometry":{ "type": "Point", "coordinates": [-88.521184,43.307141]}},
{ "type": "Feature", "properties": {"Name":"Neshkoro village","State":"Wisconsin","State_Abbrev":"WI"},
"geometry":{ "type": "Point", "coordinates": [-89.215764,43.965128]}},
{ "type": "Feature", "properties": {"Name":"Newald CDP","State":"Wisconsin","State_Abbrev":"WI"},
"geometry":{ "type": "Point", "coordinates": [-88.700487,45.739576]}},
{ "type": "Feature", "properties": {"Name":"New Auburn village","State":"Wisconsin","State_Abbrev":"WI"},
"geometry":{ "type": "Point", "coordinates": [-91.566342,45.198779]}},
{ "type": "Feature", "properties": {"Name":"New Berlin city","State":"Wisconsin","State_Abbrev":"WI"},
"geometry":{ "type": "Point", "coordinates": [-88.129168,42.972]}},
{ "type": "Feature", "properties": {"Name":"Newburg village","State":"Wisconsin","State_Abbrev":"WI"},
"geometry":{ "type": "Point", "coordinates": [-88.047605,43.432]}},
{ "type": "Feature", "properties": {"Name":"New Glarus village","State":"Wisconsin","State_Abbrev":"WI"},
"geometry":{ "type": "Point", "coordinates": [-89.633698,42.813107]}},
{ "type": "Feature", "properties": {"Name":"New Holstein city","State":"Wisconsin","State_Abbrev":"WI"},
"geometry":{ "type": "Point", "coordinates": [-88.094881,43.949222]}},
{ "type": "Feature", "properties": {"Name":"New Lisbon city","State":"Wisconsin","State_Abbrev":"WI"},
"geometry":{ "type": "Point", "coordinates": [-90.162379,43.875292]}},
{ "type": "Feature", "properties": {"Name":"New London city","State":"Wisconsin","State_Abbrev":"WI"},
"geometry":{ "type": "Point", "coordinates": [-88.73861,44.39591]}},
{ "type": "Feature", "properties": {"Name":"New Munster CDP","State":"Wisconsin","State_Abbrev":"WI"},
"geometry":{ "type": "Point", "coordinates": [-88.231108,42.575763]}},
{ "type": "Feature", "properties": {"Name":"New Odanah CDP","State":"Wisconsin","State_Abbrev":"WI"},
"geometry":{ "type": "Point", "coordinates": [-90.650817,46.598621]}},
{ "type": "Feature", "properties": {"Name":"New Post CDP","State":"Wisconsin","State_Abbrev":"WI"},
"geometry":{ "type": "Point", "coordinates": [-91.207142,45.902783]}},
{ "type": "Feature", "properties": {"Name":"New Richmond city","State":"Wisconsin","State_Abbrev":"WI"},
"geometry":{ "type": "Point", "coordinates": [-92.537135,45.125239]}},
{ "type": "Feature", "properties": {"Name":"Niagara city","State":"Wisconsin","State_Abbrev":"WI"},
"geometry":{ "type": "Point", "coordinates": [-88.003197,45.779259]}},
{ "type": "Feature", "properties": {"Name":"Nichols village","State":"Wisconsin","State_Abbrev":"WI"},
"geometry":{ "type": "Point", "coordinates": [-88.467799,44.567202]}},
{ "type": "Feature", "properties": {"Name":"North Bay village","State":"Wisconsin","State_Abbrev":"WI"},
"geometry":{ "type": "Point", "coordinates": [-87.780619,42.764171]}},
{ "type": "Feature", "properties": {"Name":"North Fond du Lac village","State":"Wisconsin","State_Abbrev":"WI"},
"geometry":{ "type": "Point", "coordinates": [-88.48549,43.811004]}},
{ "type": "Feature", "properties": {"Name":"North Freedom village","State":"Wisconsin","State_Abbrev":"WI"},
"geometry":{ "type": "Point", "coordinates": [-89.853833,43.457966]}},
{ "type": "Feature", "properties": {"Name":"North Hudson village","State":"Wisconsin","State_Abbrev":"WI"},
"geometry":{ "type": "Point", "coordinates": [-92.754998,44.995765]}},
{ "type": "Feature", "properties": {"Name":"North Lake CDP","State":"Wisconsin","State_Abbrev":"WI"},
"geometry":{ "type": "Point", "coordinates": [-88.367406,43.155297]}},
{ "type": "Feature", "properties": {"Name":"Northport CDP","State":"Wisconsin","State_Abbrev":"WI"},
"geometry":{ "type": "Point", "coordinates": [-88.811252,44.405015]}},
{ "type": "Feature", "properties": {"Name":"North Prairie village","State":"Wisconsin","State_Abbrev":"WI"},
"geometry":{ "type": "Point", "coordinates": [-88.402108,42.940891]}},
{ "type": "Feature", "properties": {"Name":"Norwalk village","State":"Wisconsin","State_Abbrev":"WI"},
"geometry":{ "type": "Point", "coordinates": [-90.626854,43.834174]}},
{ "type": "Feature", "properties": {"Name":"Oak Creek city","State":"Wisconsin","State_Abbrev":"WI"},
"geometry":{ "type": "Point", "coordinates": [-87.898676,42.878693]}},
{ "type": "Feature", "properties": {"Name":"Oakdale village","State":"Wisconsin","State_Abbrev":"WI"},
"geometry":{ "type": "Point", "coordinates": [-90.379118,43.962167]}},
{ "type": "Feature", "properties": {"Name":"Oakfield village","State":"Wisconsin","State_Abbrev":"WI"},
"geometry":{ "type": "Point", "coordinates": [-88.548571,43.684063]}},
{ "type": "Feature", "properties": {"Name":"Oconomowoc city","State":"Wisconsin","State_Abbrev":"WI"},
"geometry":{ "type": "Point", "coordinates": [-88.492688,43.100435]}},
{ "type": "Feature", "properties": {"Name":"Oconomowoc Lake village","State":"Wisconsin","State_Abbrev":"WI"},
"geometry":{ "type": "Point", "coordinates": [-88.449738,43.103817]}},
{ "type": "Feature", "properties": {"Name":"Oconto city","State":"Wisconsin","State_Abbrev":"WI"},
"geometry":{ "type": "Point", "coordinates": [-87.868509,44.892663]}},
{ "type": "Feature", "properties": {"Name":"Oconto Falls city","State":"Wisconsin","State_Abbrev":"WI"},
"geometry":{ "type": "Point", "coordinates": [-88.145489,44.875324]}},
{ "type": "Feature", "properties": {"Name":"Odanah CDP","State":"Wisconsin","State_Abbrev":"WI"},
"geometry":{ "type": "Point", "coordinates": [-90.677951,46.594079]}},
{ "type": "Feature", "properties": {"Name":"Ogdensburg village","State":"Wisconsin","State_Abbrev":"WI"},
"geometry":{ "type": "Point", "coordinates": [-89.024327,44.457205]}},
{ "type": "Feature", "properties": {"Name":"Ogema CDP","State":"Wisconsin","State_Abbrev":"WI"},
"geometry":{ "type": "Point", "coordinates": [-90.300279,45.456606]}},
{ "type": "Feature", "properties": {"Name":"Okauchee Lake CDP","State":"Wisconsin","State_Abbrev":"WI"},
"geometry":{ "type": "Point", "coordinates": [-88.439173,43.125867]}},
{ "type": "Feature", "properties": {"Name":"Oliver village","State":"Wisconsin","State_Abbrev":"WI"},
"geometry":{ "type": "Point", "coordinates": [-92.184673,46.64577]}},
{ "type": "Feature", "properties": {"Name":"Omro city","State":"Wisconsin","State_Abbrev":"WI"},
"geometry":{ "type": "Point", "coordinates": [-88.736994,44.038973]}},
{ "type": "Feature", "properties": {"Name":"Onalaska city","State":"Wisconsin","State_Abbrev":"WI"},
"geometry":{ "type": "Point", "coordinates": [-91.204356,43.889658]}},
{ "type": "Feature", "properties": {"Name":"Ontario village","State":"Wisconsin","State_Abbrev":"WI"},
"geometry":{ "type": "Point", "coordinates": [-90.593219,43.721919]}},
{ "type": "Feature", "properties": {"Name":"Oostburg village","State":"Wisconsin","State_Abbrev":"WI"},
"geometry":{ "type": "Point", "coordinates": [-87.788369,43.623538]}},
{ "type": "Feature", "properties": {"Name":"Oregon village","State":"Wisconsin","State_Abbrev":"WI"},
"geometry":{ "type": "Point", "coordinates": [-89.389108,42.925209]}},
{ "type": "Feature", "properties": {"Name":"Orfordville village","State":"Wisconsin","State_Abbrev":"WI"},
"geometry":{ "type": "Point", "coordinates": [-89.257284,42.629367]}},
{ "type": "Feature", "properties": {"Name":"Osceola village","State":"Wisconsin","State_Abbrev":"WI"},
"geometry":{ "type": "Point", "coordinates": [-92.695892,45.319283]}},
{ "type": "Feature", "properties": {"Name":"Oshkosh city","State":"Wisconsin","State_Abbrev":"WI"},
"geometry":{ "type": "Point", "coordinates": [-88.56226,44.023168]}},
{ "type": "Feature", "properties": {"Name":"Osseo city","State":"Wisconsin","State_Abbrev":"WI"},
"geometry":{ "type": "Point", "coordinates": [-91.213829,44.579831]}},
{ "type": "Feature", "properties": {"Name":"Owen city","State":"Wisconsin","State_Abbrev":"WI"},
"geometry":{ "type": "Point", "coordinates": [-90.562616,44.948191]}},
{ "type": "Feature", "properties": {"Name":"Oxford village","State":"Wisconsin","State_Abbrev":"WI"},
"geometry":{ "type": "Point", "coordinates": [-89.563582,43.780372]}},
{ "type": "Feature", "properties": {"Name":"Paac Ciinak CDP","State":"Wisconsin","State_Abbrev":"WI"},
"geometry":{ "type": "Point", "coordinates": [-89.155069,44.857952]}},
{ "type": "Feature", "properties": {"Name":"Packwaukee CDP","State":"Wisconsin","State_Abbrev":"WI"},
"geometry":{ "type": "Point", "coordinates": [-89.45979,43.765302]}},
{ "type": "Feature", "properties": {"Name":"Paddock Lake village","State":"Wisconsin","State_Abbrev":"WI"},
"geometry":{ "type": "Point", "coordinates": [-88.106783,42.570528]}},
{ "type": "Feature", "properties": {"Name":"Palmyra village","State":"Wisconsin","State_Abbrev":"WI"},
"geometry":{ "type": "Point", "coordinates": [-88.598107,42.881211]}},
{ "type": "Feature", "properties": {"Name":"Pardeeville village","State":"Wisconsin","State_Abbrev":"WI"},
"geometry":{ "type": "Point", "coordinates": [-89.302647,43.537272]}},
{ "type": "Feature", "properties": {"Name":"Park Falls city","State":"Wisconsin","State_Abbrev":"WI"},
"geometry":{ "type": "Point", "coordinates": [-90.444272,45.936339]}},
{ "type": "Feature", "properties": {"Name":"Park Ridge village","State":"Wisconsin","State_Abbrev":"WI"},
"geometry":{ "type": "Point", "coordinates": [-89.546272,44.519992]}},
{ "type": "Feature", "properties": {"Name":"Patch Grove village","State":"Wisconsin","State_Abbrev":"WI"},
"geometry":{ "type": "Point", "coordinates": [-90.972343,42.940288]}},
{ "type": "Feature", "properties": {"Name":"Pella CDP","State":"Wisconsin","State_Abbrev":"WI"},
"geometry":{ "type": "Point", "coordinates": [-88.822441,44.743504]}},
{ "type": "Feature", "properties": {"Name":"Pembine CDP","State":"Wisconsin","State_Abbrev":"WI"},
"geometry":{ "type": "Point", "coordinates": [-87.991306,45.636676]}},
{ "type": "Feature", "properties": {"Name":"Pence CDP","State":"Wisconsin","State_Abbrev":"WI"},
"geometry":{ "type": "Point", "coordinates": [-90.2695,46.410323]}},
{ "type": "Feature", "properties": {"Name":"Pepin village","State":"Wisconsin","State_Abbrev":"WI"},
"geometry":{ "type": "Point", "coordinates": [-92.147668,44.44278]}},
{ "type": "Feature", "properties": {"Name":"Peshtigo city","State":"Wisconsin","State_Abbrev":"WI"},
"geometry":{ "type": "Point", "coordinates": [-87.744077,45.056922]}},
{ "type": "Feature", "properties": {"Name":"Pewaukee city","State":"Wisconsin","State_Abbrev":"WI"},
"geometry":{ "type": "Point", "coordinates": [-88.244465,43.066141]}},
{ "type": "Feature", "properties": {"Name":"Pewaukee village","State":"Wisconsin","State_Abbrev":"WI"},
"geometry":{ "type": "Point", "coordinates": [-88.256388,43.086874]}},
{ "type": "Feature", "properties": {"Name":"Phillips city","State":"Wisconsin","State_Abbrev":"WI"},
"geometry":{ "type": "Point", "coordinates": [-90.40142,45.694035]}},
{ "type": "Feature", "properties": {"Name":"Pigeon Falls village","State":"Wisconsin","State_Abbrev":"WI"},
"geometry":{ "type": "Point", "coordinates": [-91.208341,44.424587]}},
{ "type": "Feature", "properties": {"Name":"Pine River CDP","State":"Wisconsin","State_Abbrev":"WI"},
"geometry":{ "type": "Point", "coordinates": [-89.075882,44.148598]}},
{ "type": "Feature", "properties": {"Name":"Pittsville city","State":"Wisconsin","State_Abbrev":"WI"},
"geometry":{ "type": "Point", "coordinates": [-90.136571,44.441673]}},
{ "type": "Feature", "properties": {"Name":"Plain village","State":"Wisconsin","State_Abbrev":"WI"},
"geometry":{ "type": "Point", "coordinates": [-90.042668,43.277195]}},
{ "type": "Feature", "properties": {"Name":"Plainfield village","State":"Wisconsin","State_Abbrev":"WI"},
"geometry":{ "type": "Point", "coordinates": [-89.496926,44.217499]}},
{ "type": "Feature", "properties": {"Name":"Platteville city","State":"Wisconsin","State_Abbrev":"WI"},
"geometry":{ "type": "Point", "coordinates": [-90.468102,42.727931]}},
{ "type": "Feature", "properties": {"Name":"Pleasant Prairie village","State":"Wisconsin","State_Abbrev":"WI"},
"geometry":{ "type": "Point", "coordinates": [-87.888302,42.526679]}},
{ "type": "Feature", "properties": {"Name":"Plover village","State":"Wisconsin","State_Abbrev":"WI"},
"geometry":{ "type": "Point", "coordinates": [-89.537971,44.46202]}},
{ "type": "Feature", "properties": {"Name":"Plum City village","State":"Wisconsin","State_Abbrev":"WI"},
"geometry":{ "type": "Point", "coordinates": [-92.191705,44.635583]}},
{ "type": "Feature", "properties": {"Name":"Plymouth city","State":"Wisconsin","State_Abbrev":"WI"},
"geometry":{ "type": "Point", "coordinates": [-87.965322,43.745274]}},
{ "type": "Feature", "properties": {"Name":"Polonia CDP","State":"Wisconsin","State_Abbrev":"WI"},
"geometry":{ "type": "Point", "coordinates": [-89.410626,44.580548]}},
{ "type": "Feature", "properties": {"Name":"Poplar village","State":"Wisconsin","State_Abbrev":"WI"},
"geometry":{ "type": "Point", "coordinates": [-91.782321,46.581849]}},
{ "type": "Feature", "properties": {"Name":"Portage city","State":"Wisconsin","State_Abbrev":"WI"},
"geometry":{ "type": "Point", "coordinates": [-89.465866,43.548951]}},
{ "type": "Feature", "properties": {"Name":"Port Edwards village","State":"Wisconsin","State_Abbrev":"WI"},
"geometry":{ "type": "Point", "coordinates": [-89.854402,44.343156]}},
{ "type": "Feature", "properties": {"Name":"Port Washington city","State":"Wisconsin","State_Abbrev":"WI"},
"geometry":{ "type": "Point", "coordinates": [-87.884134,43.384921]}},
{ "type": "Feature", "properties": {"Name":"Port Wing CDP","State":"Wisconsin","State_Abbrev":"WI"},
"geometry":{ "type": "Point", "coordinates": [-91.380612,46.775588]}},
{ "type": "Feature", "properties": {"Name":"Post Lake CDP","State":"Wisconsin","State_Abbrev":"WI"},
"geometry":{ "type": "Point", "coordinates": [-89.090342,45.430458]}},
{ "type": "Feature", "properties": {"Name":"Potosi village","State":"Wisconsin","State_Abbrev":"WI"},
"geometry":{ "type": "Point", "coordinates": [-90.707743,42.685515]}},
{ "type": "Feature", "properties": {"Name":"Potter village","State":"Wisconsin","State_Abbrev":"WI"},
"geometry":{ "type": "Point", "coordinates": [-88.101704,44.118481]}},
{ "type": "Feature", "properties": {"Name":"Potter Lake CDP","State":"Wisconsin","State_Abbrev":"WI"},
"geometry":{ "type": "Point", "coordinates": [-88.343133,42.820148]}},
{ "type": "Feature", "properties": {"Name":"Pound village","State":"Wisconsin","State_Abbrev":"WI"},
"geometry":{ "type": "Point", "coordinates": [-88.032449,45.098946]}},
{ "type": "Feature", "properties": {"Name":"Powers Lake CDP","State":"Wisconsin","State_Abbrev":"WI"},
"geometry":{ "type": "Point", "coordinates": [-88.295976,42.541483]}},
{ "type": "Feature", "properties": {"Name":"Poynette village","State":"Wisconsin","State_Abbrev":"WI"},
"geometry":{ "type": "Point", "coordinates": [-89.404787,43.392165]}},
{ "type": "Feature", "properties": {"Name":"Poy Sippi CDP","State":"Wisconsin","State_Abbrev":"WI"},
"geometry":{ "type": "Point", "coordinates": [-88.998117,44.136658]}},
{ "type": "Feature", "properties": {"Name":"Prairie du Chien city","State":"Wisconsin","State_Abbrev":"WI"},
"geometry":{ "type": "Point", "coordinates": [-91.137332,43.043341]}},
{ "type": "Feature", "properties": {"Name":"Prairie du Sac village","State":"Wisconsin","State_Abbrev":"WI"},
"geometry":{ "type": "Point", "coordinates": [-89.735231,43.293928]}},
{ "type": "Feature", "properties": {"Name":"Prairie Farm village","State":"Wisconsin","State_Abbrev":"WI"},
"geometry":{ "type": "Point", "coordinates": [-91.98003,45.236352]}},
{ "type": "Feature", "properties": {"Name":"Prentice village","State":"Wisconsin","State_Abbrev":"WI"},
"geometry":{ "type": "Point", "coordinates": [-90.292805,45.541224]}},
{ "type": "Feature", "properties": {"Name":"Prescott city","State":"Wisconsin","State_Abbrev":"WI"},
"geometry":{ "type": "Point", "coordinates": [-92.788975,44.753374]}},
{ "type": "Feature", "properties": {"Name":"Princeton city","State":"Wisconsin","State_Abbrev":"WI"},
"geometry":{ "type": "Point", "coordinates": [-89.124859,43.855852]}},
{ "type": "Feature", "properties": {"Name":"Pulaski village","State":"Wisconsin","State_Abbrev":"WI"},
"geometry":{ "type": "Point", "coordinates": [-88.234279,44.668206]}},
{ "type": "Feature", "properties": {"Name":"Pulcifer CDP","State":"Wisconsin","State_Abbrev":"WI"},
"geometry":{ "type": "Point", "coordinates": [-88.362989,44.849906]}},
{ "type": "Feature", "properties": {"Name":"Racine city","State":"Wisconsin","State_Abbrev":"WI"},
"geometry":{ "type": "Point", "coordinates": [-87.814224,42.725569]}},
{ "type": "Feature", "properties": {"Name":"Radisson village","State":"Wisconsin","State_Abbrev":"WI"},
"geometry":{ "type": "Point", "coordinates": [-91.217417,45.767476]}},
{ "type": "Feature", "properties": {"Name":"Randolph village","State":"Wisconsin","State_Abbrev":"WI"},
"geometry":{ "type": "Point", "coordinates": [-89.002811,43.539472]}},
{ "type": "Feature", "properties": {"Name":"Random Lake village","State":"Wisconsin","State_Abbrev":"WI"},
"geometry":{ "type": "Point", "coordinates": [-87.957765,43.554748]}},
{ "type": "Feature", "properties": {"Name":"Raymond village","State":"Wisconsin","State_Abbrev":"WI"},
"geometry":{ "type": "Point", "coordinates": [-88.010847,42.799157]}},
{ "type": "Feature", "properties": {"Name":"Readstown village","State":"Wisconsin","State_Abbrev":"WI"},
"geometry":{ "type": "Point", "coordinates": [-90.759082,43.448745]}},
{ "type": "Feature", "properties": {"Name":"Redgranite village","State":"Wisconsin","State_Abbrev":"WI"},
"geometry":{ "type": "Point", "coordinates": [-89.115869,44.053283]}},
{ "type": "Feature", "properties": {"Name":"Reedsburg city","State":"Wisconsin","State_Abbrev":"WI"},
"geometry":{ "type": "Point", "coordinates": [-89.995509,43.535051]}},
{ "type": "Feature", "properties": {"Name":"Reedsville village","State":"Wisconsin","State_Abbrev":"WI"},
"geometry":{ "type": "Point", "coordinates": [-87.951806,44.15253]}},
{ "type": "Feature", "properties": {"Name":"Reeseville village","State":"Wisconsin","State_Abbrev":"WI"},
"geometry":{ "type": "Point", "coordinates": [-88.84455,43.306173]}},
{ "type": "Feature", "properties": {"Name":"Reserve CDP","State":"Wisconsin","State_Abbrev":"WI"},
"geometry":{ "type": "Point", "coordinates": [-91.365221,45.823074]}},
{ "type": "Feature", "properties": {"Name":"Rewey village","State":"Wisconsin","State_Abbrev":"WI"},
"geometry":{ "type": "Point", "coordinates": [-90.396108,42.841865]}},
{ "type": "Feature", "properties": {"Name":"Rhinelander city","State":"Wisconsin","State_Abbrev":"WI"},
"geometry":{ "type": "Point", "coordinates": [-89.425517,45.636129]}},
{ "type": "Feature", "properties": {"Name":"Rib Lake village","State":"Wisconsin","State_Abbrev":"WI"},
"geometry":{ "type": "Point", "coordinates": [-90.20224,45.319514]}},
{ "type": "Feature", "properties": {"Name":"Rib Mountain CDP","State":"Wisconsin","State_Abbrev":"WI"},
"geometry":{ "type": "Point", "coordinates": [-89.692285,44.917565]}},
{ "type": "Feature", "properties": {"Name":"Rice Lake city","State":"Wisconsin","State_Abbrev":"WI"},
"geometry":{ "type": "Point", "coordinates": [-91.745762,45.481992]}},
{ "type": "Feature", "properties": {"Name":"Richfield village","State":"Wisconsin","State_Abbrev":"WI"},
"geometry":{ "type": "Point", "coordinates": [-88.234017,43.23939]}},
{ "type": "Feature", "properties": {"Name":"Richland Center city","State":"Wisconsin","State_Abbrev":"WI"},
"geometry":{ "type": "Point", "coordinates": [-90.38342,43.340476]}},
{ "type": "Feature", "properties": {"Name":"Ridgeland village","State":"Wisconsin","State_Abbrev":"WI"},
"geometry":{ "type": "Point", "coordinates": [-91.897959,45.198063]}},
{ "type": "Feature", "properties": {"Name":"Ridgeway village","State":"Wisconsin","State_Abbrev":"WI"},
"geometry":{ "type": "Point", "coordinates": [-89.992575,42.998424]}},
{ "type": "Feature", "properties": {"Name":"Rio village","State":"Wisconsin","State_Abbrev":"WI"},
"geometry":{ "type": "Point", "coordinates": [-89.241591,43.452161]}},
{ "type": "Feature", "properties": {"Name":"Ripon city","State":"Wisconsin","State_Abbrev":"WI"},
"geometry":{ "type": "Point", "coordinates": [-88.837936,43.84356]}},
{ "type": "Feature", "properties": {"Name":"River Falls city","State":"Wisconsin","State_Abbrev":"WI"},
"geometry":{ "type": "Point", "coordinates": [-92.623895,44.860971]}},
{ "type": "Feature", "properties": {"Name":"River Hills village","State":"Wisconsin","State_Abbrev":"WI"},
"geometry":{ "type": "Point", "coordinates": [-87.933849,43.17348]}},
{ "type": "Feature", "properties": {"Name":"Roberts village","State":"Wisconsin","State_Abbrev":"WI"},
"geometry":{ "type": "Point", "coordinates": [-92.547663,44.961869]}},
{ "type": "Feature", "properties": {"Name":"Rochester village","State":"Wisconsin","State_Abbrev":"WI"},
"geometry":{ "type": "Point", "coordinates": [-88.250323,42.732913]}},
{ "type": "Feature", "properties": {"Name":"Rockdale village","State":"Wisconsin","State_Abbrev":"WI"},
"geometry":{ "type": "Point", "coordinates": [-89.03055,42.969984]}},
{ "type": "Feature", "properties": {"Name":"Rock Falls CDP","State":"Wisconsin","State_Abbrev":"WI"},
"geometry":{ "type": "Point", "coordinates": [-91.699258,44.715651]}},
{ "type": "Feature", "properties": {"Name":"Rockland village","State":"Wisconsin","State_Abbrev":"WI"},
"geometry":{ "type": "Point", "coordinates": [-90.916581,43.907594]}},
{ "type": "Feature", "properties": {"Name":"Rock Springs village","State":"Wisconsin","State_Abbrev":"WI"},
"geometry":{ "type": "Point", "coordinates": [-89.926906,43.478726]}},
{ "type": "Feature", "properties": {"Name":"Rome CDP","State":"Wisconsin","State_Abbrev":"WI"},
"geometry":{ "type": "Point", "coordinates": [-88.649857,42.985323]}},
{ "type": "Feature", "properties": {"Name":"Rosendale village","State":"Wisconsin","State_Abbrev":"WI"},
"geometry":{ "type": "Point", "coordinates": [-88.671236,43.808905]}},
{ "type": "Feature", "properties": {"Name":"Rosholt village","State":"Wisconsin","State_Abbrev":"WI"},
"geometry":{ "type": "Point", "coordinates": [-89.305189,44.630177]}},
{ "type": "Feature", "properties": {"Name":"Rothschild village","State":"Wisconsin","State_Abbrev":"WI"},
"geometry":{ "type": "Point", "coordinates": [-89.61975,44.873714]}},
{ "type": "Feature", "properties": {"Name":"Rubicon CDP","State":"Wisconsin","State_Abbrev":"WI"},
"geometry":{ "type": "Point", "coordinates": [-88.452554,43.337226]}},
{ "type": "Feature", "properties": {"Name":"Rudolph village","State":"Wisconsin","State_Abbrev":"WI"},
"geometry":{ "type": "Point", "coordinates": [-89.801808,44.497198]}},
{ "type": "Feature", "properties": {"Name":"St. Cloud village","State":"Wisconsin","State_Abbrev":"WI"},
"geometry":{ "type": "Point", "coordinates": [-88.171707,43.822438]}},
{ "type": "Feature", "properties": {"Name":"St. Croix Falls city","State":"Wisconsin","State_Abbrev":"WI"},
"geometry":{ "type": "Point", "coordinates": [-92.624694,45.41137]}},
{ "type": "Feature", "properties": {"Name":"St. Francis city","State":"Wisconsin","State_Abbrev":"WI"},
"geometry":{ "type": "Point", "coordinates": [-87.871702,42.970968]}},
{ "type": "Feature", "properties": {"Name":"St. Joseph CDP","State":"Wisconsin","State_Abbrev":"WI"},
"geometry":{ "type": "Point", "coordinates": [-91.043627,43.785465]}},
{ "type": "Feature", "properties": {"Name":"St. Nazianz village","State":"Wisconsin","State_Abbrev":"WI"},
"geometry":{ "type": "Point", "coordinates": [-87.924787,44.007345]}},
{ "type": "Feature", "properties": {"Name":"St. Peter CDP","State":"Wisconsin","State_Abbrev":"WI"},
"geometry":{ "type": "Point", "coordinates": [-88.343335,43.838283]}},
{ "type": "Feature", "properties": {"Name":"Salem Lakes village","State":"Wisconsin","State_Abbrev":"WI"},
"geometry":{ "type": "Point", "coordinates": [-88.133169,42.536496]}},
{ "type": "Feature", "properties": {"Name":"Sand Pillow CDP","State":"Wisconsin","State_Abbrev":"WI"},
"geometry":{ "type": "Point", "coordinates": [-90.763742,44.331306]}},
{ "type": "Feature", "properties": {"Name":"Sandy Hook CDP","State":"Wisconsin","State_Abbrev":"WI"},
"geometry":{ "type": "Point", "coordinates": [-90.616775,42.546614]}},
{ "type": "Feature", "properties": {"Name":"Sauk City village","State":"Wisconsin","State_Abbrev":"WI"},
"geometry":{ "type": "Point", "coordinates": [-89.732456,43.273272]}},
{ "type": "Feature", "properties": {"Name":"Saukville village","State":"Wisconsin","State_Abbrev":"WI"},
"geometry":{ "type": "Point", "coordinates": [-87.943896,43.388946]}},
{ "type": "Feature", "properties": {"Name":"Saxon CDP","State":"Wisconsin","State_Abbrev":"WI"},
"geometry":{ "type": "Point", "coordinates": [-90.409955,46.494084]}},
{ "type": "Feature", "properties": {"Name":"Sayner CDP","State":"Wisconsin","State_Abbrev":"WI"},
"geometry":{ "type": "Point", "coordinates": [-89.541914,45.987754]}},
{ "type": "Feature", "properties": {"Name":"Scandinavia village","State":"Wisconsin","State_Abbrev":"WI"},
"geometry":{ "type": "Point", "coordinates": [-89.146542,44.460733]}},
{ "type": "Feature", "properties": {"Name":"Schofield city","State":"Wisconsin","State_Abbrev":"WI"},
"geometry":{ "type": "Point", "coordinates": [-89.621478,44.913348]}},
{ "type": "Feature", "properties": {"Name":"Seneca CDP","State":"Wisconsin","State_Abbrev":"WI"},
"geometry":{ "type": "Point", "coordinates": [-90.956582,43.265826]}},
{ "type": "Feature", "properties": {"Name":"Sextonville CDP","State":"Wisconsin","State_Abbrev":"WI"},
"geometry":{ "type": "Point", "coordinates": [-90.292373,43.279474]}},
{ "type": "Feature", "properties": {"Name":"Seymour CDP","State":"Wisconsin","State_Abbrev":"WI"},
"geometry":{ "type": "Point", "coordinates": [-91.436434,44.819561]}},
{ "type": "Feature", "properties": {"Name":"Seymour city","State":"Wisconsin","State_Abbrev":"WI"},
"geometry":{ "type": "Point", "coordinates": [-88.32734,44.514416]}},
{ "type": "Feature", "properties": {"Name":"Sharon village","State":"Wisconsin","State_Abbrev":"WI"},
"geometry":{ "type": "Point", "coordinates": [-88.730451,42.498713]}},
{ "type": "Feature", "properties": {"Name":"Shawano city","State":"Wisconsin","State_Abbrev":"WI"},
"geometry":{ "type": "Point", "coordinates": [-88.586019,44.777894]}},
{ "type": "Feature", "properties": {"Name":"Sheboygan city","State":"Wisconsin","State_Abbrev":"WI"},
"geometry":{ "type": "Point", "coordinates": [-87.731516,43.741232]}},
{ "type": "Feature", "properties": {"Name":"Sheboygan Falls city","State":"Wisconsin","State_Abbrev":"WI"},
"geometry":{ "type": "Point", "coordinates": [-87.826235,43.729279]}},
{ "type": "Feature", "properties": {"Name":"Sheldon village","State":"Wisconsin","State_Abbrev":"WI"},
"geometry":{ "type": "Point", "coordinates": [-90.956665,45.311904]}},
{ "type": "Feature", "properties": {"Name":"Shell Lake city","State":"Wisconsin","State_Abbrev":"WI"},
"geometry":{ "type": "Point", "coordinates": [-91.910025,45.72637]}},
{ "type": "Feature", "properties": {"Name":"Sherwood village","State":"Wisconsin","State_Abbrev":"WI"},
"geometry":{ "type": "Point", "coordinates": [-88.275019,44.176933]}},
{ "type": "Feature", "properties": {"Name":"Shiocton village","State":"Wisconsin","State_Abbrev":"WI"},
"geometry":{ "type": "Point", "coordinates": [-88.57645,44.445041]}},
{ "type": "Feature", "properties": {"Name":"Shopiere CDP","State":"Wisconsin","State_Abbrev":"WI"},
"geometry":{ "type": "Point", "coordinates": [-88.936206,42.572183]}},
{ "type": "Feature", "properties": {"Name":"Shorewood village","State":"Wisconsin","State_Abbrev":"WI"},
"geometry":{ "type": "Point", "coordinates": [-87.886654,43.091338]}},
{ "type": "Feature", "properties": {"Name":"Shorewood Hills village","State":"Wisconsin","State_Abbrev":"WI"},
"geometry":{ "type": "Point", "coordinates": [-89.446864,43.07885]}},
{ "type": "Feature", "properties": {"Name":"Shullsburg city","State":"Wisconsin","State_Abbrev":"WI"},
"geometry":{ "type": "Point", "coordinates": [-90.234773,42.573322]}},
{ "type": "Feature", "properties": {"Name":"Siren village","State":"Wisconsin","State_Abbrev":"WI"},
"geometry":{ "type": "Point", "coordinates": [-92.383151,45.777829]}},
{ "type": "Feature", "properties": {"Name":"Sister Bay village","State":"Wisconsin","State_Abbrev":"WI"},
"geometry":{ "type": "Point", "coordinates": [-87.129354,45.187097]}},
{ "type": "Feature", "properties": {"Name":"Slinger village","State":"Wisconsin","State_Abbrev":"WI"},
"geometry":{ "type": "Point", "coordinates": [-88.276454,43.335395]}},
{ "type": "Feature", "properties": {"Name":"Sobieski CDP","State":"Wisconsin","State_Abbrev":"WI"},
"geometry":{ "type": "Point", "coordinates": [-88.065881,44.722749]}},
{ "type": "Feature", "properties": {"Name":"Soldiers Grove village","State":"Wisconsin","State_Abbrev":"WI"},
"geometry":{ "type": "Point", "coordinates": [-90.773432,43.392305]}},
{ "type": "Feature", "properties": {"Name":"Solon Springs village","State":"Wisconsin","State_Abbrev":"WI"},
"geometry":{ "type": "Point", "coordinates": [-91.829388,46.347825]}},
{ "type": "Feature", "properties": {"Name":"Somers village","State":"Wisconsin","State_Abbrev":"WI"},
"geometry":{ "type": "Point", "coordinates": [-87.892166,42.643242]}},
{ "type": "Feature", "properties": {"Name":"Somerset village","State":"Wisconsin","State_Abbrev":"WI"},
"geometry":{ "type": "Point", "coordinates": [-92.672961,45.125706]}},
{ "type": "Feature", "properties": {"Name":"South Milwaukee city","State":"Wisconsin","State_Abbrev":"WI"},
"geometry":{ "type": "Point", "coordinates": [-87.862312,42.912643]}},
{ "type": "Feature", "properties": {"Name":"South Wayne village","State":"Wisconsin","State_Abbrev":"WI"},
"geometry":{ "type": "Point", "coordinates": [-89.876146,42.567588]}},
{ "type": "Feature", "properties": {"Name":"Sparta city","State":"Wisconsin","State_Abbrev":"WI"},
"geometry":{ "type": "Point", "coordinates": [-90.812705,43.938249]}},
{ "type": "Feature", "properties": {"Name":"Spencer village","State":"Wisconsin","State_Abbrev":"WI"},
"geometry":{ "type": "Point", "coordinates": [-90.298465,44.753615]}},
{ "type": "Feature", "properties": {"Name":"Spooner city","State":"Wisconsin","State_Abbrev":"WI"},
"geometry":{ "type": "Point", "coordinates": [-91.886125,45.825917]}},
{ "type": "Feature", "properties": {"Name":"Springbrook CDP","State":"Wisconsin","State_Abbrev":"WI"},
"geometry":{ "type": "Point", "coordinates": [-91.688996,45.946907]}},
{ "type": "Feature", "properties": {"Name":"Springfield CDP","State":"Wisconsin","State_Abbrev":"WI"},
"geometry":{ "type": "Point", "coordinates": [-88.413527,42.640657]}},
{ "type": "Feature", "properties": {"Name":"Spring Green village","State":"Wisconsin","State_Abbrev":"WI"},
"geometry":{ "type": "Point", "coordinates": [-90.068837,43.177577]}},
{ "type": "Feature", "properties": {"Name":"Spring Valley village","State":"Wisconsin","State_Abbrev":"WI"},
"geometry":{ "type": "Point", "coordinates": [-92.242932,44.852311]}},
{ "type": "Feature", "properties": {"Name":"Stanley city","State":"Wisconsin","State_Abbrev":"WI"},
"geometry":{ "type": "Point", "coordinates": [-90.943719,44.959383]}},
{ "type": "Feature", "properties": {"Name":"Star Prairie village","State":"Wisconsin","State_Abbrev":"WI"},
"geometry":{ "type": "Point", "coordinates": [-92.532121,45.197508]}},
{ "type": "Feature", "properties": {"Name":"Stetsonville village","State":"Wisconsin","State_Abbrev":"WI"},
"geometry":{ "type": "Point", "coordinates": [-90.314254,45.077155]}},
{ "type": "Feature", "properties": {"Name":"Steuben village","State":"Wisconsin","State_Abbrev":"WI"},
"geometry":{ "type": "Point", "coordinates": [-90.857184,43.183401]}},
{ "type": "Feature", "properties": {"Name":"Stevens Point city","State":"Wisconsin","State_Abbrev":"WI"},
"geometry":{ "type": "Point", "coordinates": [-89.553718,44.525481]}},
{ "type": "Feature", "properties": {"Name":"Stockbridge village","State":"Wisconsin","State_Abbrev":"WI"},
"geometry":{ "type": "Point", "coordinates": [-88.309707,44.068447]}},
{ "type": "Feature", "properties": {"Name":"Stockholm village","State":"Wisconsin","State_Abbrev":"WI"},
"geometry":{ "type": "Point", "coordinates": [-92.272135,44.490989]}},
{ "type": "Feature", "properties": {"Name":"Stoddard village","State":"Wisconsin","State_Abbrev":"WI"},
"geometry":{ "type": "Point", "coordinates": [-91.212852,43.662514]}},
{ "type": "Feature", "properties": {"Name":"Stone Lake CDP","State":"Wisconsin","State_Abbrev":"WI"},
"geometry":{ "type": "Point", "coordinates": [-91.552094,45.838934]}},
{ "type": "Feature", "properties": {"Name":"Stoughton city","State":"Wisconsin","State_Abbrev":"WI"},
"geometry":{ "type": "Point", "coordinates": [-89.222515,42.923769]}},
{ "type": "Feature", "properties": {"Name":"Stratford village","State":"Wisconsin","State_Abbrev":"WI"},
"geometry":{ "type": "Point", "coordinates": [-90.070576,44.797614]}},
{ "type": "Feature", "properties": {"Name":"Strum village","State":"Wisconsin","State_Abbrev":"WI"},
"geometry":{ "type": "Point", "coordinates": [-91.388642,44.553205]}},
{ "type": "Feature", "properties": {"Name":"Sturgeon Bay city","State":"Wisconsin","State_Abbrev":"WI"},
"geometry":{ "type": "Point", "coordinates": [-87.369806,44.822676]}},
{ "type": "Feature", "properties": {"Name":"Sturtevant village","State":"Wisconsin","State_Abbrev":"WI"},
"geometry":{ "type": "Point", "coordinates": [-87.901553,42.6989]}},
{ "type": "Feature", "properties": {"Name":"Suamico village","State":"Wisconsin","State_Abbrev":"WI"},
"geometry":{ "type": "Point", "coordinates": [-88.033045,44.626729]}},
{ "type": "Feature", "properties": {"Name":"Sullivan village","State":"Wisconsin","State_Abbrev":"WI"},
"geometry":{ "type": "Point", "coordinates": [-88.595331,43.012343]}},
{ "type": "Feature", "properties": {"Name":"Summit village","State":"Wisconsin","State_Abbrev":"WI"},
"geometry":{ "type": "Point", "coordinates": [-88.477445,43.046188]}},
{ "type": "Feature", "properties": {"Name":"Summit Lake CDP","State":"Wisconsin","State_Abbrev":"WI"},
"geometry":{ "type": "Point", "coordinates": [-89.198971,45.376968]}},
{ "type": "Feature", "properties": {"Name":"Sun Prairie city","State":"Wisconsin","State_Abbrev":"WI"},
"geometry":{ "type": "Point", "coordinates": [-89.235717,43.181961]}},
{ "type": "Feature", "properties": {"Name":"Superior city","State":"Wisconsin","State_Abbrev":"WI"},
"geometry":{ "type": "Point", "coordinates": [-92.080356,46.692119]}},
{ "type": "Feature", "properties": {"Name":"Superior village","State":"Wisconsin","State_Abbrev":"WI"},
"geometry":{ "type": "Point", "coordinates": [-92.108872,46.648749]}},
{ "type": "Feature", "properties": {"Name":"Suring village","State":"Wisconsin","State_Abbrev":"WI"},
"geometry":{ "type": "Point", "coordinates": [-88.369325,45.000727]}},
{ "type": "Feature", "properties": {"Name":"Sussex village","State":"Wisconsin","State_Abbrev":"WI"},
"geometry":{ "type": "Point", "coordinates": [-88.22286,43.136288]}},
{ "type": "Feature", "properties": {"Name":"Tainter Lake CDP","State":"Wisconsin","State_Abbrev":"WI"},
"geometry":{ "type": "Point", "coordinates": [-91.848207,44.989094]}},
{ "type": "Feature", "properties": {"Name":"Taycheedah CDP","State":"Wisconsin","State_Abbrev":"WI"},
"geometry":{ "type": "Point", "coordinates": [-88.388613,43.812533]}},
{ "type": "Feature", "properties": {"Name":"Taylor village","State":"Wisconsin","State_Abbrev":"WI"},
"geometry":{ "type": "Point", "coordinates": [-91.120505,44.321748]}},
{ "type": "Feature", "properties": {"Name":"Tennyson village","State":"Wisconsin","State_Abbrev":"WI"},
"geometry":{ "type": "Point", "coordinates": [-90.686704,42.690615]}},
{ "type": "Feature", "properties": {"Name":"Theresa village","State":"Wisconsin","State_Abbrev":"WI"},
"geometry":{ "type": "Point", "coordinates": [-88.453809,43.516767]}},
{ "type": "Feature", "properties": {"Name":"Thiensville village","State":"Wisconsin","State_Abbrev":"WI"},
"geometry":{ "type": "Point", "coordinates": [-87.976832,43.235436]}},
{ "type": "Feature", "properties": {"Name":"Thornton CDP","State":"Wisconsin","State_Abbrev":"WI"},
"geometry":{ "type": "Point", "coordinates": [-88.691213,44.798508]}},
{ "type": "Feature", "properties": {"Name":"Thorp city","State":"Wisconsin","State_Abbrev":"WI"},
"geometry":{ "type": "Point", "coordinates": [-90.802185,44.957957]}},
{ "type": "Feature", "properties": {"Name":"Three Lakes CDP","State":"Wisconsin","State_Abbrev":"WI"},
"geometry":{ "type": "Point", "coordinates": [-89.169056,45.804495]}},
{ "type": "Feature", "properties": {"Name":"Tichigan CDP","State":"Wisconsin","State_Abbrev":"WI"},
"geometry":{ "type": "Point", "coordinates": [-88.215218,42.808658]}},
{ "type": "Feature", "properties": {"Name":"Tigerton village","State":"Wisconsin","State_Abbrev":"WI"},
"geometry":{ "type": "Point", "coordinates": [-89.045934,44.741631]}},
{ "type": "Feature", "properties": {"Name":"Tilleda CDP","State":"Wisconsin","State_Abbrev":"WI"},
"geometry":{ "type": "Point", "coordinates": [-88.912575,44.815522]}},
{ "type": "Feature", "properties": {"Name":"Tomah city","State":"Wisconsin","State_Abbrev":"WI"},
"geometry":{ "type": "Point", "coordinates": [-90.50138,43.98801]}},
{ "type": "Feature", "properties": {"Name":"Tomahawk city","State":"Wisconsin","State_Abbrev":"WI"},
"geometry":{ "type": "Point", "coordinates": [-89.711773,45.478961]}},
{ "type": "Feature", "properties": {"Name":"Tony village","State":"Wisconsin","State_Abbrev":"WI"},
"geometry":{ "type": "Point", "coordinates": [-90.997158,45.480315]}},
{ "type": "Feature", "properties": {"Name":"Townsend CDP","State":"Wisconsin","State_Abbrev":"WI"},
"geometry":{ "type": "Point", "coordinates": [-88.590417,45.324031]}},
{ "type": "Feature", "properties": {"Name":"Trego CDP","State":"Wisconsin","State_Abbrev":"WI"},
"geometry":{ "type": "Point", "coordinates": [-91.83106,45.905802]}},
{ "type": "Feature", "properties": {"Name":"Trempealeau village","State":"Wisconsin","State_Abbrev":"WI"},
"geometry":{ "type": "Point", "coordinates": [-91.428001,44.002233]}},
{ "type": "Feature", "properties": {"Name":"Tunnel City CDP","State":"Wisconsin","State_Abbrev":"WI"},
"geometry":{ "type": "Point", "coordinates": [-90.567979,44.004959]}},
{ "type": "Feature", "properties": {"Name":"Turtle Lake village","State":"Wisconsin","State_Abbrev":"WI"},
"geometry":{ "type": "Point", "coordinates": [-92.149832,45.390622]}},
{ "type": "Feature", "properties": {"Name":"Turtle Lake CDP","State":"Wisconsin","State_Abbrev":"WI"},
"geometry":{ "type": "Point", "coordinates": [-88.67754,42.732285]}},
{ "type": "Feature", "properties": {"Name":"Tustin CDP","State":"Wisconsin","State_Abbrev":"WI"},
"geometry":{ "type": "Point", "coordinates": [-88.896056,44.169798]}},
{ "type": "Feature", "properties": {"Name":"Twin Lakes village","State":"Wisconsin","State_Abbrev":"WI"},
"geometry":{ "type": "Point", "coordinates": [-88.250369,42.515576]}},
{ "type": "Feature", "properties": {"Name":"Two Rivers city","State":"Wisconsin","State_Abbrev":"WI"},
"geometry":{ "type": "Point", "coordinates": [-87.577352,44.156137]}},
{ "type": "Feature", "properties": {"Name":"Union Center village","State":"Wisconsin","State_Abbrev":"WI"},
"geometry":{ "type": "Point", "coordinates": [-90.263336,43.682589]}},
{ "type": "Feature", "properties": {"Name":"Union Grove village","State":"Wisconsin","State_Abbrev":"WI"},
"geometry":{ "type": "Point", "coordinates": [-88.049539,42.686397]}},
{ "type": "Feature", "properties": {"Name":"Unity village","State":"Wisconsin","State_Abbrev":"WI"},
"geometry":{ "type": "Point", "coordinates": [-90.313074,44.851124]}},
{ "type": "Feature", "properties": {"Name":"Valders village","State":"Wisconsin","State_Abbrev":"WI"},
"geometry":{ "type": "Point", "coordinates": [-87.885813,44.068148]}},
{ "type": "Feature", "properties": {"Name":"Van Dyne CDP","State":"Wisconsin","State_Abbrev":"WI"},
"geometry":{ "type": "Point", "coordinates": [-88.49781,43.886211]}},
{ "type": "Feature", "properties": {"Name":"Vernon village","State":"Wisconsin","State_Abbrev":"WI"},
"geometry":{ "type": "Point", "coordinates": [-88.266618,42.879031]}},
{ "type": "Feature", "properties": {"Name":"Verona city","State":"Wisconsin","State_Abbrev":"WI"},
"geometry":{ "type": "Point", "coordinates": [-89.538868,42.990061]}},
{ "type": "Feature", "properties": {"Name":"Vesper village","State":"Wisconsin","State_Abbrev":"WI"},
"geometry":{ "type": "Point", "coordinates": [-89.967618,44.480488]}},
{ "type": "Feature", "properties": {"Name":"Viola village","State":"Wisconsin","State_Abbrev":"WI"},
"geometry":{ "type": "Point", "coordinates": [-90.674004,43.508187]}},
{ "type": "Feature", "properties": {"Name":"Viroqua city","State":"Wisconsin","State_Abbrev":"WI"},
"geometry":{ "type": "Point", "coordinates": [-90.885903,43.560284]}},
{ "type": "Feature", "properties": {"Name":"Wabeno CDP","State":"Wisconsin","State_Abbrev":"WI"},
"geometry":{ "type": "Point", "coordinates": [-88.658068,45.439411]}},
{ "type": "Feature", "properties": {"Name":"Waldo village","State":"Wisconsin","State_Abbrev":"WI"},
"geometry":{ "type": "Point", "coordinates": [-87.9479,43.677038]}},
{ "type": "Feature", "properties": {"Name":"Wales village","State":"Wisconsin","State_Abbrev":"WI"},
"geometry":{ "type": "Point", "coordinates": [-88.370357,43.005837]}},
{ "type": "Feature", "properties": {"Name":"Walworth village","State":"Wisconsin","State_Abbrev":"WI"},
"geometry":{ "type": "Point", "coordinates": [-88.593932,42.530514]}},
{ "type": "Feature", "properties": {"Name":"Warrens village","State":"Wisconsin","State_Abbrev":"WI"},
"geometry":{ "type": "Point", "coordinates": [-90.521063,44.127397]}},
{ "type": "Feature", "properties": {"Name":"Washburn city","State":"Wisconsin","State_Abbrev":"WI"},
"geometry":{ "type": "Point", "coordinates": [-90.901287,46.676651]}},
{ "type": "Feature", "properties": {"Name":"Waterford village","State":"Wisconsin","State_Abbrev":"WI"},
"geometry":{ "type": "Point", "coordinates": [-88.21667,42.764397]}},
{ "type": "Feature", "properties": {"Name":"Waterloo city","State":"Wisconsin","State_Abbrev":"WI"},
"geometry":{ "type": "Point", "coordinates": [-88.990044,43.183528]}},
{ "type": "Feature", "properties": {"Name":"Watertown city","State":"Wisconsin","State_Abbrev":"WI"},
"geometry":{ "type": "Point", "coordinates": [-88.72891,43.189405]}},
{ "type": "Feature", "properties": {"Name":"Waubeka CDP","State":"Wisconsin","State_Abbrev":"WI"},
"geometry":{ "type": "Point", "coordinates": [-87.993466,43.47021]}},
{ "type": "Feature", "properties": {"Name":"Waukau CDP","State":"Wisconsin","State_Abbrev":"WI"},
"geometry":{ "type": "Point", "coordinates": [-88.772057,43.984548]}},
{ "type": "Feature", "properties": {"Name":"Waukesha city","State":"Wisconsin","State_Abbrev":"WI"},
"geometry":{ "type": "Point", "coordinates": [-88.245062,43.009084]}},
{ "type": "Feature", "properties": {"Name":"Waukesha village","State":"Wisconsin","State_Abbrev":"WI"},
"geometry":{ "type": "Point", "coordinates": [-88.249314,42.960422]}},
{ "type": "Feature", "properties": {"Name":"Waumandee CDP","State":"Wisconsin","State_Abbrev":"WI"},
"geometry":{ "type": "Point", "coordinates": [-91.705204,44.302329]}},
{ "type": "Feature", "properties": {"Name":"Waunakee village","State":"Wisconsin","State_Abbrev":"WI"},
"geometry":{ "type": "Point", "coordinates": [-89.445293,43.182861]}},
{ "type": "Feature", "properties": {"Name":"Waupaca city","State":"Wisconsin","State_Abbrev":"WI"},
"geometry":{ "type": "Point", "coordinates": [-89.070003,44.350048]}},
{ "type": "Feature", "properties": {"Name":"Waupun city","State":"Wisconsin","State_Abbrev":"WI"},
"geometry":{ "type": "Point", "coordinates": [-88.737534,43.631547]}},
{ "type": "Feature", "properties": {"Name":"Wausau city","State":"Wisconsin","State_Abbrev":"WI"},
"geometry":{ "type": "Point", "coordinates": [-89.646538,44.961766]}},
{ "type": "Feature", "properties": {"Name":"Wausaukee village","State":"Wisconsin","State_Abbrev":"WI"},
"geometry":{ "type": "Point", "coordinates": [-87.954834,45.378247]}},
{ "type": "Feature", "properties": {"Name":"Wautoma city","State":"Wisconsin","State_Abbrev":"WI"},
"geometry":{ "type": "Point", "coordinates": [-89.291119,44.067377]}},
{ "type": "Feature", "properties": {"Name":"Wauwatosa city","State":"Wisconsin","State_Abbrev":"WI"},
"geometry":{ "type": "Point", "coordinates": [-88.035583,43.063165]}},
{ "type": "Feature", "properties": {"Name":"Wauzeka village","State":"Wisconsin","State_Abbrev":"WI"},
"geometry":{ "type": "Point", "coordinates": [-90.898947,43.085852]}},
{ "type": "Feature", "properties": {"Name":"Webster village","State":"Wisconsin","State_Abbrev":"WI"},
"geometry":{ "type": "Point", "coordinates": [-92.36283,45.87978]}},
{ "type": "Feature", "properties": {"Name":"West Allis city","State":"Wisconsin","State_Abbrev":"WI"},
"geometry":{ "type": "Point", "coordinates": [-88.028986,43.007186]}},
{ "type": "Feature", "properties": {"Name":"West Baraboo village","State":"Wisconsin","State_Abbrev":"WI"},
"geometry":{ "type": "Point", "coordinates": [-89.774078,43.478204]}},
{ "type": "Feature", "properties": {"Name":"West Bend city","State":"Wisconsin","State_Abbrev":"WI"},
"geometry":{ "type": "Point", "coordinates": [-88.181685,43.417492]}},
{ "type": "Feature", "properties": {"Name":"Westboro CDP","State":"Wisconsin","State_Abbrev":"WI"},
"geometry":{ "type": "Point", "coordinates": [-90.293396,45.360796]}},
{ "type": "Feature", "properties": {"Name":"Westby city","State":"Wisconsin","State_Abbrev":"WI"},
"geometry":{ "type": "Point", "coordinates": [-90.858193,43.652864]}},
{ "type": "Feature", "properties": {"Name":"Westfield village","State":"Wisconsin","State_Abbrev":"WI"},
"geometry":{ "type": "Point", "coordinates": [-89.492492,43.885163]}},
{ "type": "Feature", "properties": {"Name":"West Milwaukee village","State":"Wisconsin","State_Abbrev":"WI"},
"geometry":{ "type": "Point", "coordinates": [-87.970984,43.012437]}},
{ "type": "Feature", "properties": {"Name":"Weston village","State":"Wisconsin","State_Abbrev":"WI"},
"geometry":{ "type": "Point", "coordinates": [-89.549651,44.89122]}},
{ "type": "Feature", "properties": {"Name":"West Salem village","State":"Wisconsin","State_Abbrev":"WI"},
"geometry":{ "type": "Point", "coordinates": [-91.087453,43.898534]}},
{ "type": "Feature", "properties": {"Name":"Weyauwega city","State":"Wisconsin","State_Abbrev":"WI"},
"geometry":{ "type": "Point", "coordinates": [-88.933131,44.323593]}},
{ "type": "Feature", "properties": {"Name":"Weyerhaeuser village","State":"Wisconsin","State_Abbrev":"WI"},
"geometry":{ "type": "Point", "coordinates": [-91.41524,45.425644]}},
{ "type": "Feature", "properties": {"Name":"Wheeler village","State":"Wisconsin","State_Abbrev":"WI"},
"geometry":{ "type": "Point", "coordinates": [-91.89933,45.043822]}},
{ "type": "Feature", "properties": {"Name":"Whitefish Bay village","State":"Wisconsin","State_Abbrev":"WI"},
"geometry":{ "type": "Point", "coordinates": [-87.900475,43.113137]}},
{ "type": "Feature", "properties": {"Name":"Whitehall city","State":"Wisconsin","State_Abbrev":"WI"},
"geometry":{ "type": "Point", "coordinates": [-91.337802,44.360516]}},
{ "type": "Feature", "properties": {"Name":"White Lake village","State":"Wisconsin","State_Abbrev":"WI"},
"geometry":{ "type": "Point", "coordinates": [-88.763418,45.159693]}},
{ "type": "Feature", "properties": {"Name":"Whitelaw village","State":"Wisconsin","State_Abbrev":"WI"},
"geometry":{ "type": "Point", "coordinates": [-87.82669,44.147561]}},
{ "type": "Feature", "properties": {"Name":"Whitewater city","State":"Wisconsin","State_Abbrev":"WI"},
"geometry":{ "type": "Point", "coordinates": [-88.734282,42.837439]}},
{ "type": "Feature", "properties": {"Name":"Whiting village","State":"Wisconsin","State_Abbrev":"WI"},
"geometry":{ "type": "Point", "coordinates": [-89.560024,44.490088]}},
{ "type": "Feature", "properties": {"Name":"Whittlesey CDP","State":"Wisconsin","State_Abbrev":"WI"},
"geometry":{ "type": "Point", "coordinates": [-90.323224,45.220619]}},
{ "type": "Feature", "properties": {"Name":"Wild Rose village","State":"Wisconsin","State_Abbrev":"WI"},
"geometry":{ "type": "Point", "coordinates": [-89.244468,44.178282]}},
{ "type": "Feature", "properties": {"Name":"Williams Bay village","State":"Wisconsin","State_Abbrev":"WI"},
"geometry":{ "type": "Point", "coordinates": [-88.545715,42.578825]}},
{ "type": "Feature", "properties": {"Name":"Wilson village","State":"Wisconsin","State_Abbrev":"WI"},
"geometry":{ "type": "Point", "coordinates": [-92.170494,44.958611]}},
{ "type": "Feature", "properties": {"Name":"Wilton village","State":"Wisconsin","State_Abbrev":"WI"},
"geometry":{ "type": "Point", "coordinates": [-90.52686,43.813263]}},
{ "type": "Feature", "properties": {"Name":"Winchester CDP","State":"Wisconsin","State_Abbrev":"WI"},
"geometry":{ "type": "Point", "coordinates": [-88.659907,44.198236]}},
{ "type": "Feature", "properties": {"Name":"Wind Lake CDP","State":"Wisconsin","State_Abbrev":"WI"},
"geometry":{ "type": "Point", "coordinates": [-88.154651,42.827839]}},
{ "type": "Feature", "properties": {"Name":"Wind Point village","State":"Wisconsin","State_Abbrev":"WI"},
"geometry":{ "type": "Point", "coordinates": [-87.771599,42.780392]}},
{ "type": "Feature", "properties": {"Name":"Windsor village","State":"Wisconsin","State_Abbrev":"WI"},
"geometry":{ "type": "Point", "coordinates": [-89.281518,43.245704]}},
{ "type": "Feature", "properties": {"Name":"Winneconne village","State":"Wisconsin","State_Abbrev":"WI"},
"geometry":{ "type": "Point", "coordinates": [-88.711977,44.111314]}},
{ "type": "Feature", "properties": {"Name":"Winter village","State":"Wisconsin","State_Abbrev":"WI"},
"geometry":{ "type": "Point", "coordinates": [-91.013043,45.822142]}},
{ "type": "Feature", "properties": {"Name":"Wiota CDP","State":"Wisconsin","State_Abbrev":"WI"},
"geometry":{ "type": "Point", "coordinates": [-89.949317,42.636743]}},
{ "type": "Feature", "properties": {"Name":"Wisconsin Dells city","State":"Wisconsin","State_Abbrev":"WI"},
"geometry":{ "type": "Point", "coordinates": [-89.77576,43.638365]}},
{ "type": "Feature", "properties": {"Name":"Wisconsin Rapids city","State":"Wisconsin","State_Abbrev":"WI"},
"geometry":{ "type": "Point", "coordinates": [-89.826749,44.392923]}},
{ "type": "Feature", "properties": {"Name":"Withee village","State":"Wisconsin","State_Abbrev":"WI"},
"geometry":{ "type": "Point", "coordinates": [-90.598831,44.95082]}},
{ "type": "Feature", "properties": {"Name":"Wittenberg village","State":"Wisconsin","State_Abbrev":"WI"},
"geometry":{ "type": "Point", "coordinates": [-89.166606,44.826885]}},
{ "type": "Feature", "properties": {"Name":"Wonewoc village","State":"Wisconsin","State_Abbrev":"WI"},
"geometry":{ "type": "Point", "coordinates": [-90.224242,43.653477]}},
{ "type": "Feature", "properties": {"Name":"Woodford CDP","State":"Wisconsin","State_Abbrev":"WI"},
"geometry":{ "type": "Point", "coordinates": [-89.857206,42.647308]}},
{ "type": "Feature", "properties": {"Name":"Woodman village","State":"Wisconsin","State_Abbrev":"WI"},
"geometry":{ "type": "Point", "coordinates": [-90.797753,43.092512]}},
{ "type": "Feature", "properties": {"Name":"Woodruff CDP","State":"Wisconsin","State_Abbrev":"WI"},
"geometry":{ "type": "Point", "coordinates": [-89.691154,45.894436]}},
{ "type": "Feature", "properties": {"Name":"Woodville village","State":"Wisconsin","State_Abbrev":"WI"},
"geometry":{ "type": "Point", "coordinates": [-92.285064,44.948302]}},
{ "type": "Feature", "properties": {"Name":"Wrightstown village","State":"Wisconsin","State_Abbrev":"WI"},
"geometry":{ "type": "Point", "coordinates": [-88.175633,44.327137]}},
{ "type": "Feature", "properties": {"Name":"Wyeville village","State":"Wisconsin","State_Abbrev":"WI"},
"geometry":{ "type": "Point", "coordinates": [-90.386077,44.027851]}},
{ "type": "Feature", "properties": {"Name":"Wyocena village","State":"Wisconsin","State_Abbrev":"WI"},
"geometry":{ "type": "Point", "coordinates": [-89.301835,43.493239]}},
{ "type": "Feature", "properties": {"Name":"Yorkville village","State":"Wisconsin","State_Abbrev":"WI"},
"geometry":{ "type": "Point", "coordinates": [-88.001389,42.720098]}},
{ "type": "Feature", "properties": {"Name":"Yuba village","State":"Wisconsin","State_Abbrev":"WI"},
"geometry":{ "type": "Point", "coordinates": [-90.426772,43.536455]}},
{ "type": "Feature", "properties": {"Name":"Zoar CDP","State":"Wisconsin","State_Abbrev":"WI"},
"geometry":{ "type": "Point", "coordinates": [-88.874832,45.005484]}}]}
