{"type":"FeatureCollection","features":[
{ "type": "Feature", "properties": {"Name":"Afton town","State":"Wyoming","State_Abbrev":"WY"},
"geometry":{ "type": "Point", "coordinates": [-110.932032,42.72634]}},
{ "type": "Feature", "properties": {"Name":"Albany CDP","State":"Wyoming","State_Abbrev":"WY"},
"geometry":{ "type": "Point", "coordinates": [-106.12549,41.186857]}},
{ "type": "Feature", "properties": {"Name":"Albin town","State":"Wyoming","State_Abbrev":"WY"},
"geometry":{ "type": "Point", "coordinates": [-104.101549,41.416941]}},
{ "type": "Feature", "properties": {"Name":"Alcova CDP","State":"Wyoming","State_Abbrev":"WY"},
"geometry":{ "type": "Point", "coordinates": [-106.729461,42.553333]}},
{ "type": "Feature", "properties": {"Name":"Alpine town","State":"Wyoming","State_Abbrev":"WY"},
"geometry":{ "type": "Point", "coordinates": [-111.014752,43.160393]}},
{ "type": "Feature", "properties": {"Name":"Alpine Northeast CDP","State":"Wyoming","State_Abbrev":"WY"},
"geometry":{ "type": "Point", "coordinates": [-111.007212,43.193768]}},
{ "type": "Feature", "properties": {"Name":"Alpine Northwest CDP","State":"Wyoming","State_Abbrev":"WY"},
"geometry":{ "type": "Point", "coordinates": [-111.035589,43.183823]}},
{ "type": "Feature", "properties": {"Name":"Alta CDP","State":"Wyoming","State_Abbrev":"WY"},
"geometry":{ "type": "Point", "coordinates": [-111.031262,43.773624]}},
{ "type": "Feature", "properties": {"Name":"Antelope Hills CDP","State":"Wyoming","State_Abbrev":"WY"},
"geometry":{ "type": "Point", "coordinates": [-106.312584,43.081136]}},
{ "type": "Feature", "properties": {"Name":"Arapahoe CDP","State":"Wyoming","State_Abbrev":"WY"},
"geometry":{ "type": "Point", "coordinates": [-108.45273,42.992567]}},
{ "type": "Feature", "properties": {"Name":"Arlington CDP","State":"Wyoming","State_Abbrev":"WY"},
"geometry":{ "type": "Point", "coordinates": [-106.199739,41.605258]}},
{ "type": "Feature", "properties": {"Name":"Arrowhead Springs CDP","State":"Wyoming","State_Abbrev":"WY"},
"geometry":{ "type": "Point", "coordinates": [-109.155085,41.508174]}},
{ "type": "Feature", "properties": {"Name":"Arvada CDP","State":"Wyoming","State_Abbrev":"WY"},
"geometry":{ "type": "Point", "coordinates": [-106.141976,44.662179]}},
{ "type": "Feature", "properties": {"Name":"Atlantic City CDP","State":"Wyoming","State_Abbrev":"WY"},
"geometry":{ "type": "Point", "coordinates": [-108.732896,42.501195]}},
{ "type": "Feature", "properties": {"Name":"Auburn CDP","State":"Wyoming","State_Abbrev":"WY"},
"geometry":{ "type": "Point", "coordinates": [-111.021506,42.79694]}},
{ "type": "Feature", "properties": {"Name":"Baggs town","State":"Wyoming","State_Abbrev":"WY"},
"geometry":{ "type": "Point", "coordinates": [-107.657281,41.034658]}},
{ "type": "Feature", "properties": {"Name":"Bairoil town","State":"Wyoming","State_Abbrev":"WY"},
"geometry":{ "type": "Point", "coordinates": [-107.561048,42.237202]}},
{ "type": "Feature", "properties": {"Name":"Bar Nunn town","State":"Wyoming","State_Abbrev":"WY"},
"geometry":{ "type": "Point", "coordinates": [-106.347429,42.921992]}},
{ "type": "Feature", "properties": {"Name":"Basin town","State":"Wyoming","State_Abbrev":"WY"},
"geometry":{ "type": "Point", "coordinates": [-108.047094,44.380564]}},
{ "type": "Feature", "properties": {"Name":"Bear River town","State":"Wyoming","State_Abbrev":"WY"},
"geometry":{ "type": "Point", "coordinates": [-111.026996,41.385854]}},
{ "type": "Feature", "properties": {"Name":"Bedford CDP","State":"Wyoming","State_Abbrev":"WY"},
"geometry":{ "type": "Point", "coordinates": [-110.928565,42.89468]}},
{ "type": "Feature", "properties": {"Name":"Bessemer Bend CDP","State":"Wyoming","State_Abbrev":"WY"},
"geometry":{ "type": "Point", "coordinates": [-106.517515,42.756119]}},
{ "type": "Feature", "properties": {"Name":"Beulah CDP","State":"Wyoming","State_Abbrev":"WY"},
"geometry":{ "type": "Point", "coordinates": [-104.08279,44.545961]}},
{ "type": "Feature", "properties": {"Name":"Big Horn CDP","State":"Wyoming","State_Abbrev":"WY"},
"geometry":{ "type": "Point", "coordinates": [-106.997071,44.679076]}},
{ "type": "Feature", "properties": {"Name":"Big Piney town","State":"Wyoming","State_Abbrev":"WY"},
"geometry":{ "type": "Point", "coordinates": [-110.119343,42.540168]}},
{ "type": "Feature", "properties": {"Name":"Bondurant CDP","State":"Wyoming","State_Abbrev":"WY"},
"geometry":{ "type": "Point", "coordinates": [-110.402577,43.194859]}},
{ "type": "Feature", "properties": {"Name":"Boulder CDP","State":"Wyoming","State_Abbrev":"WY"},
"geometry":{ "type": "Point", "coordinates": [-109.706729,42.746142]}},
{ "type": "Feature", "properties": {"Name":"Boulder Flats CDP","State":"Wyoming","State_Abbrev":"WY"},
"geometry":{ "type": "Point", "coordinates": [-108.799297,42.915575]}},
{ "type": "Feature", "properties": {"Name":"Brookhurst CDP","State":"Wyoming","State_Abbrev":"WY"},
"geometry":{ "type": "Point", "coordinates": [-106.228789,42.860985]}},
{ "type": "Feature", "properties": {"Name":"Buffalo city","State":"Wyoming","State_Abbrev":"WY"},
"geometry":{ "type": "Point", "coordinates": [-106.715344,44.338545]}},
{ "type": "Feature", "properties": {"Name":"Burlington town","State":"Wyoming","State_Abbrev":"WY"},
"geometry":{ "type": "Point", "coordinates": [-108.432023,44.447065]}},
{ "type": "Feature", "properties": {"Name":"Burns town","State":"Wyoming","State_Abbrev":"WY"},
"geometry":{ "type": "Point", "coordinates": [-104.359035,41.190871]}},
{ "type": "Feature", "properties": {"Name":"Byron town","State":"Wyoming","State_Abbrev":"WY"},
"geometry":{ "type": "Point", "coordinates": [-108.508463,44.796737]}},
{ "type": "Feature", "properties": {"Name":"Carpenter CDP","State":"Wyoming","State_Abbrev":"WY"},
"geometry":{ "type": "Point", "coordinates": [-104.36437,41.045607]}},
{ "type": "Feature", "properties": {"Name":"Carter CDP","State":"Wyoming","State_Abbrev":"WY"},
"geometry":{ "type": "Point", "coordinates": [-110.430327,41.440444]}},
{ "type": "Feature", "properties": {"Name":"Casper city","State":"Wyoming","State_Abbrev":"WY"},
"geometry":{ "type": "Point", "coordinates": [-106.321282,42.84212]}},
{ "type": "Feature", "properties": {"Name":"Casper Mountain CDP","State":"Wyoming","State_Abbrev":"WY"},
"geometry":{ "type": "Point", "coordinates": [-106.308146,42.741555]}},
{ "type": "Feature", "properties": {"Name":"Centennial CDP","State":"Wyoming","State_Abbrev":"WY"},
"geometry":{ "type": "Point", "coordinates": [-106.137607,41.306844]}},
{ "type": "Feature", "properties": {"Name":"Cheyenne city","State":"Wyoming","State_Abbrev":"WY"},
"geometry":{ "type": "Point", "coordinates": [-104.792425,41.132478]}},
{ "type": "Feature", "properties": {"Name":"Chugcreek CDP","State":"Wyoming","State_Abbrev":"WY"},
"geometry":{ "type": "Point", "coordinates": [-104.907902,42.053475]}},
{ "type": "Feature", "properties": {"Name":"Chugwater town","State":"Wyoming","State_Abbrev":"WY"},
"geometry":{ "type": "Point", "coordinates": [-104.822936,41.755749]}},
{ "type": "Feature", "properties": {"Name":"Clearmont town","State":"Wyoming","State_Abbrev":"WY"},
"geometry":{ "type": "Point", "coordinates": [-106.381297,44.63985]}},
{ "type": "Feature", "properties": {"Name":"Clearview Acres CDP","State":"Wyoming","State_Abbrev":"WY"},
"geometry":{ "type": "Point", "coordinates": [-109.280028,41.584203]}},
{ "type": "Feature", "properties": {"Name":"Cody city","State":"Wyoming","State_Abbrev":"WY"},
"geometry":{ "type": "Point", "coordinates": [-109.057469,44.521242]}},
{ "type": "Feature", "properties": {"Name":"Cokeville town","State":"Wyoming","State_Abbrev":"WY"},
"geometry":{ "type": "Point", "coordinates": [-110.951869,42.079308]}},
{ "type": "Feature", "properties": {"Name":"Cora CDP","State":"Wyoming","State_Abbrev":"WY"},
"geometry":{ "type": "Point", "coordinates": [-109.99159,42.957661]}},
{ "type": "Feature", "properties": {"Name":"Cowley town","State":"Wyoming","State_Abbrev":"WY"},
"geometry":{ "type": "Point", "coordinates": [-108.469272,44.883452]}},
{ "type": "Feature", "properties": {"Name":"Crowheart CDP","State":"Wyoming","State_Abbrev":"WY"},
"geometry":{ "type": "Point", "coordinates": [-109.229756,43.33978]}},
{ "type": "Feature", "properties": {"Name":"Daniel CDP","State":"Wyoming","State_Abbrev":"WY"},
"geometry":{ "type": "Point", "coordinates": [-110.076474,42.865738]}},
{ "type": "Feature", "properties": {"Name":"Dayton town","State":"Wyoming","State_Abbrev":"WY"},
"geometry":{ "type": "Point", "coordinates": [-107.262432,44.873351]}},
{ "type": "Feature", "properties": {"Name":"Deaver town","State":"Wyoming","State_Abbrev":"WY"},
"geometry":{ "type": "Point", "coordinates": [-108.596018,44.889024]}},
{ "type": "Feature", "properties": {"Name":"Diamondville town","State":"Wyoming","State_Abbrev":"WY"},
"geometry":{ "type": "Point", "coordinates": [-110.535188,41.77701]}},
{ "type": "Feature", "properties": {"Name":"Dixon town","State":"Wyoming","State_Abbrev":"WY"},
"geometry":{ "type": "Point", "coordinates": [-107.536144,41.034896]}},
{ "type": "Feature", "properties": {"Name":"Douglas city","State":"Wyoming","State_Abbrev":"WY"},
"geometry":{ "type": "Point", "coordinates": [-105.397802,42.754773]}},
{ "type": "Feature", "properties": {"Name":"Dubois town","State":"Wyoming","State_Abbrev":"WY"},
"geometry":{ "type": "Point", "coordinates": [-109.647628,43.545964]}},
{ "type": "Feature", "properties": {"Name":"East Thermopolis town","State":"Wyoming","State_Abbrev":"WY"},
"geometry":{ "type": "Point", "coordinates": [-108.197883,43.644094]}},
{ "type": "Feature", "properties": {"Name":"Eden CDP","State":"Wyoming","State_Abbrev":"WY"},
"geometry":{ "type": "Point", "coordinates": [-109.439152,42.060165]}},
{ "type": "Feature", "properties": {"Name":"Edgerton town","State":"Wyoming","State_Abbrev":"WY"},
"geometry":{ "type": "Point", "coordinates": [-106.247359,43.413394]}},
{ "type": "Feature", "properties": {"Name":"Elk Mountain town","State":"Wyoming","State_Abbrev":"WY"},
"geometry":{ "type": "Point", "coordinates": [-106.413501,41.688298]}},
{ "type": "Feature", "properties": {"Name":"El Rancho CDP","State":"Wyoming","State_Abbrev":"WY"},
"geometry":{ "type": "Point", "coordinates": [-105.04767,42.26798]}},
{ "type": "Feature", "properties": {"Name":"Encampment town","State":"Wyoming","State_Abbrev":"WY"},
"geometry":{ "type": "Point", "coordinates": [-106.794819,41.208758]}},
{ "type": "Feature", "properties": {"Name":"Esterbrook CDP","State":"Wyoming","State_Abbrev":"WY"},
"geometry":{ "type": "Point", "coordinates": [-105.385914,42.406113]}},
{ "type": "Feature", "properties": {"Name":"Ethete CDP","State":"Wyoming","State_Abbrev":"WY"},
"geometry":{ "type": "Point", "coordinates": [-108.723027,43.00083]}},
{ "type": "Feature", "properties": {"Name":"Etna CDP","State":"Wyoming","State_Abbrev":"WY"},
"geometry":{ "type": "Point", "coordinates": [-111.012948,43.033434]}},
{ "type": "Feature", "properties": {"Name":"Evanston city","State":"Wyoming","State_Abbrev":"WY"},
"geometry":{ "type": "Point", "coordinates": [-110.963739,41.260088]}},
{ "type": "Feature", "properties": {"Name":"Evansville town","State":"Wyoming","State_Abbrev":"WY"},
"geometry":{ "type": "Point", "coordinates": [-106.26775,42.875985]}},
{ "type": "Feature", "properties": {"Name":"Fairview CDP","State":"Wyoming","State_Abbrev":"WY"},
"geometry":{ "type": "Point", "coordinates": [-110.986632,42.687079]}},
{ "type": "Feature", "properties": {"Name":"Farson CDP","State":"Wyoming","State_Abbrev":"WY"},
"geometry":{ "type": "Point", "coordinates": [-109.424802,42.154423]}},
{ "type": "Feature", "properties": {"Name":"Fontenelle CDP","State":"Wyoming","State_Abbrev":"WY"},
"geometry":{ "type": "Point", "coordinates": [-110.062193,42.003262]}},
{ "type": "Feature", "properties": {"Name":"Fort Bridger CDP","State":"Wyoming","State_Abbrev":"WY"},
"geometry":{ "type": "Point", "coordinates": [-110.389387,41.318335]}},
{ "type": "Feature", "properties": {"Name":"Fort Laramie town","State":"Wyoming","State_Abbrev":"WY"},
"geometry":{ "type": "Point", "coordinates": [-104.517389,42.213071]}},
{ "type": "Feature", "properties": {"Name":"Fort Washakie CDP","State":"Wyoming","State_Abbrev":"WY"},
"geometry":{ "type": "Point", "coordinates": [-108.920417,43.006905]}},
{ "type": "Feature", "properties": {"Name":"Fox Farm-College CDP","State":"Wyoming","State_Abbrev":"WY"},
"geometry":{ "type": "Point", "coordinates": [-104.786988,41.110562]}},
{ "type": "Feature", "properties": {"Name":"Fox Park CDP","State":"Wyoming","State_Abbrev":"WY"},
"geometry":{ "type": "Point", "coordinates": [-106.153386,41.080132]}},
{ "type": "Feature", "properties": {"Name":"Frannie town","State":"Wyoming","State_Abbrev":"WY"},
"geometry":{ "type": "Point", "coordinates": [-108.62054,44.971029]}},
{ "type": "Feature", "properties": {"Name":"Freedom CDP","State":"Wyoming","State_Abbrev":"WY"},
"geometry":{ "type": "Point", "coordinates": [-111.029605,42.985342]}},
{ "type": "Feature", "properties": {"Name":"Garland CDP","State":"Wyoming","State_Abbrev":"WY"},
"geometry":{ "type": "Point", "coordinates": [-108.654155,44.77772]}},
{ "type": "Feature", "properties": {"Name":"Gillette city","State":"Wyoming","State_Abbrev":"WY"},
"geometry":{ "type": "Point", "coordinates": [-105.498936,44.27258]}},
{ "type": "Feature", "properties": {"Name":"Glendo town","State":"Wyoming","State_Abbrev":"WY"},
"geometry":{ "type": "Point", "coordinates": [-105.024987,42.504863]}},
{ "type": "Feature", "properties": {"Name":"Glenrock town","State":"Wyoming","State_Abbrev":"WY"},
"geometry":{ "type": "Point", "coordinates": [-105.862355,42.856473]}},
{ "type": "Feature", "properties": {"Name":"Granger town","State":"Wyoming","State_Abbrev":"WY"},
"geometry":{ "type": "Point", "coordinates": [-109.965232,41.597934]}},
{ "type": "Feature", "properties": {"Name":"Green River city","State":"Wyoming","State_Abbrev":"WY"},
"geometry":{ "type": "Point", "coordinates": [-109.470796,41.512922]}},
{ "type": "Feature", "properties": {"Name":"Greybull town","State":"Wyoming","State_Abbrev":"WY"},
"geometry":{ "type": "Point", "coordinates": [-108.055744,44.486533]}},
{ "type": "Feature", "properties": {"Name":"Grover CDP","State":"Wyoming","State_Abbrev":"WY"},
"geometry":{ "type": "Point", "coordinates": [-110.940544,42.801989]}},
{ "type": "Feature", "properties": {"Name":"Guernsey town","State":"Wyoming","State_Abbrev":"WY"},
"geometry":{ "type": "Point", "coordinates": [-104.742889,42.264791]}},
{ "type": "Feature", "properties": {"Name":"Hanna town","State":"Wyoming","State_Abbrev":"WY"},
"geometry":{ "type": "Point", "coordinates": [-106.559644,41.869797]}},
{ "type": "Feature", "properties": {"Name":"Hartrandt CDP","State":"Wyoming","State_Abbrev":"WY"},
"geometry":{ "type": "Point", "coordinates": [-106.349223,42.883584]}},
{ "type": "Feature", "properties": {"Name":"Hartville town","State":"Wyoming","State_Abbrev":"WY"},
"geometry":{ "type": "Point", "coordinates": [-104.7245,42.327626]}},
{ "type": "Feature", "properties": {"Name":"Hawk Springs CDP","State":"Wyoming","State_Abbrev":"WY"},
"geometry":{ "type": "Point", "coordinates": [-104.265083,41.785252]}},
{ "type": "Feature", "properties": {"Name":"Hillsdale CDP","State":"Wyoming","State_Abbrev":"WY"},
"geometry":{ "type": "Point", "coordinates": [-104.47439,41.207977]}},
{ "type": "Feature", "properties": {"Name":"Hill View Heights CDP","State":"Wyoming","State_Abbrev":"WY"},
"geometry":{ "type": "Point", "coordinates": [-104.150664,43.814571]}},
{ "type": "Feature", "properties": {"Name":"Hoback CDP","State":"Wyoming","State_Abbrev":"WY"},
"geometry":{ "type": "Point", "coordinates": [-110.744868,43.307625]}},
{ "type": "Feature", "properties": {"Name":"Homa Hills CDP","State":"Wyoming","State_Abbrev":"WY"},
"geometry":{ "type": "Point", "coordinates": [-106.384995,42.99002]}},
{ "type": "Feature", "properties": {"Name":"Hudson town","State":"Wyoming","State_Abbrev":"WY"},
"geometry":{ "type": "Point", "coordinates": [-108.581993,42.902698]}},
{ "type": "Feature", "properties": {"Name":"Hulett town","State":"Wyoming","State_Abbrev":"WY"},
"geometry":{ "type": "Point", "coordinates": [-104.59806,44.683044]}},
{ "type": "Feature", "properties": {"Name":"Huntley CDP","State":"Wyoming","State_Abbrev":"WY"},
"geometry":{ "type": "Point", "coordinates": [-104.144008,41.931621]}},
{ "type": "Feature", "properties": {"Name":"Hyattville CDP","State":"Wyoming","State_Abbrev":"WY"},
"geometry":{ "type": "Point", "coordinates": [-107.614964,44.249778]}},
{ "type": "Feature", "properties": {"Name":"Jackson town","State":"Wyoming","State_Abbrev":"WY"},
"geometry":{ "type": "Point", "coordinates": [-110.775267,43.471936]}},
{ "type": "Feature", "properties": {"Name":"James Town CDP","State":"Wyoming","State_Abbrev":"WY"},
"geometry":{ "type": "Point", "coordinates": [-109.536499,41.563972]}},
{ "type": "Feature", "properties": {"Name":"Jeffrey City CDP","State":"Wyoming","State_Abbrev":"WY"},
"geometry":{ "type": "Point", "coordinates": [-107.829134,42.483044]}},
{ "type": "Feature", "properties": {"Name":"Johnstown CDP","State":"Wyoming","State_Abbrev":"WY"},
"geometry":{ "type": "Point", "coordinates": [-108.689948,43.113834]}},
{ "type": "Feature", "properties": {"Name":"Kaycee town","State":"Wyoming","State_Abbrev":"WY"},
"geometry":{ "type": "Point", "coordinates": [-106.637276,43.710039]}},
{ "type": "Feature", "properties": {"Name":"Kelly CDP","State":"Wyoming","State_Abbrev":"WY"},
"geometry":{ "type": "Point", "coordinates": [-110.632051,43.621897]}},
{ "type": "Feature", "properties": {"Name":"Kemmerer city","State":"Wyoming","State_Abbrev":"WY"},
"geometry":{ "type": "Point", "coordinates": [-110.552817,41.778484]}},
{ "type": "Feature", "properties": {"Name":"Kirby town","State":"Wyoming","State_Abbrev":"WY"},
"geometry":{ "type": "Point", "coordinates": [-108.180972,43.803284]}},
{ "type": "Feature", "properties": {"Name":"La Barge town","State":"Wyoming","State_Abbrev":"WY"},
"geometry":{ "type": "Point", "coordinates": [-110.197203,42.260779]}},
{ "type": "Feature", "properties": {"Name":"LaGrange town","State":"Wyoming","State_Abbrev":"WY"},
"geometry":{ "type": "Point", "coordinates": [-104.162999,41.638571]}},
{ "type": "Feature", "properties": {"Name":"Lakeview North CDP","State":"Wyoming","State_Abbrev":"WY"},
"geometry":{ "type": "Point", "coordinates": [-104.958621,42.096984]}},
{ "type": "Feature", "properties": {"Name":"Lance Creek CDP","State":"Wyoming","State_Abbrev":"WY"},
"geometry":{ "type": "Point", "coordinates": [-104.663835,43.04474]}},
{ "type": "Feature", "properties": {"Name":"Lander city","State":"Wyoming","State_Abbrev":"WY"},
"geometry":{ "type": "Point", "coordinates": [-108.759894,42.831276]}},
{ "type": "Feature", "properties": {"Name":"Laramie city","State":"Wyoming","State_Abbrev":"WY"},
"geometry":{ "type": "Point", "coordinates": [-105.608637,41.305955]}},
{ "type": "Feature", "properties": {"Name":"Lingle town","State":"Wyoming","State_Abbrev":"WY"},
"geometry":{ "type": "Point", "coordinates": [-104.346105,42.138665]}},
{ "type": "Feature", "properties": {"Name":"Little America CDP","State":"Wyoming","State_Abbrev":"WY"},
"geometry":{ "type": "Point", "coordinates": [-109.884876,41.549363]}},
{ "type": "Feature", "properties": {"Name":"Lonetree CDP","State":"Wyoming","State_Abbrev":"WY"},
"geometry":{ "type": "Point", "coordinates": [-110.144045,41.034403]}},
{ "type": "Feature", "properties": {"Name":"Lost Springs town","State":"Wyoming","State_Abbrev":"WY"},
"geometry":{ "type": "Point", "coordinates": [-104.925492,42.765165]}},
{ "type": "Feature", "properties": {"Name":"Lovell town","State":"Wyoming","State_Abbrev":"WY"},
"geometry":{ "type": "Point", "coordinates": [-108.391889,44.835801]}},
{ "type": "Feature", "properties": {"Name":"Lucerne CDP","State":"Wyoming","State_Abbrev":"WY"},
"geometry":{ "type": "Point", "coordinates": [-108.18471,43.718022]}},
{ "type": "Feature", "properties": {"Name":"Lusk town","State":"Wyoming","State_Abbrev":"WY"},
"geometry":{ "type": "Point", "coordinates": [-104.458403,42.761259]}},
{ "type": "Feature", "properties": {"Name":"Lyman town","State":"Wyoming","State_Abbrev":"WY"},
"geometry":{ "type": "Point", "coordinates": [-110.297622,41.32748]}},
{ "type": "Feature", "properties": {"Name":"McKinnon CDP","State":"Wyoming","State_Abbrev":"WY"},
"geometry":{ "type": "Point", "coordinates": [-109.9383,41.031441]}},
{ "type": "Feature", "properties": {"Name":"Mammoth CDP","State":"Wyoming","State_Abbrev":"WY"},
"geometry":{ "type": "Point", "coordinates": [-110.692943,44.97321]}},
{ "type": "Feature", "properties": {"Name":"Manderson town","State":"Wyoming","State_Abbrev":"WY"},
"geometry":{ "type": "Point", "coordinates": [-107.964202,44.269757]}},
{ "type": "Feature", "properties": {"Name":"Manville town","State":"Wyoming","State_Abbrev":"WY"},
"geometry":{ "type": "Point", "coordinates": [-104.617446,42.779448]}},
{ "type": "Feature", "properties": {"Name":"Marbleton town","State":"Wyoming","State_Abbrev":"WY"},
"geometry":{ "type": "Point", "coordinates": [-110.100459,42.557414]}},
{ "type": "Feature", "properties": {"Name":"Meadow Acres CDP","State":"Wyoming","State_Abbrev":"WY"},
"geometry":{ "type": "Point", "coordinates": [-106.094617,42.859353]}},
{ "type": "Feature", "properties": {"Name":"Medicine Bow town","State":"Wyoming","State_Abbrev":"WY"},
"geometry":{ "type": "Point", "coordinates": [-106.201916,41.899537]}},
{ "type": "Feature", "properties": {"Name":"Meeteetse town","State":"Wyoming","State_Abbrev":"WY"},
"geometry":{ "type": "Point", "coordinates": [-108.853443,44.157013]}},
{ "type": "Feature", "properties": {"Name":"Midwest town","State":"Wyoming","State_Abbrev":"WY"},
"geometry":{ "type": "Point", "coordinates": [-106.277289,43.410768]}},
{ "type": "Feature", "properties": {"Name":"Mills town","State":"Wyoming","State_Abbrev":"WY"},
"geometry":{ "type": "Point", "coordinates": [-106.39083,42.849882]}},
{ "type": "Feature", "properties": {"Name":"Moorcroft town","State":"Wyoming","State_Abbrev":"WY"},
"geometry":{ "type": "Point", "coordinates": [-104.947564,44.264483]}},
{ "type": "Feature", "properties": {"Name":"Moose Wilson Road CDP","State":"Wyoming","State_Abbrev":"WY"},
"geometry":{ "type": "Point", "coordinates": [-110.834831,43.531488]}},
{ "type": "Feature", "properties": {"Name":"Mountain View CDP","State":"Wyoming","State_Abbrev":"WY"},
"geometry":{ "type": "Point", "coordinates": [-106.414668,42.87744]}},
{ "type": "Feature", "properties": {"Name":"Mountain View town","State":"Wyoming","State_Abbrev":"WY"},
"geometry":{ "type": "Point", "coordinates": [-110.334101,41.27237]}},
{ "type": "Feature", "properties": {"Name":"Newcastle city","State":"Wyoming","State_Abbrev":"WY"},
"geometry":{ "type": "Point", "coordinates": [-104.196487,43.850271]}},
{ "type": "Feature", "properties": {"Name":"Nordic CDP","State":"Wyoming","State_Abbrev":"WY"},
"geometry":{ "type": "Point", "coordinates": [-110.991324,43.079317]}},
{ "type": "Feature", "properties": {"Name":"North Rock Springs CDP","State":"Wyoming","State_Abbrev":"WY"},
"geometry":{ "type": "Point", "coordinates": [-109.287932,41.669074]}},
{ "type": "Feature", "properties": {"Name":"Oakley CDP","State":"Wyoming","State_Abbrev":"WY"},
"geometry":{ "type": "Point", "coordinates": [-110.526057,41.750972]}},
{ "type": "Feature", "properties": {"Name":"Opal town","State":"Wyoming","State_Abbrev":"WY"},
"geometry":{ "type": "Point", "coordinates": [-110.324078,41.768055]}},
{ "type": "Feature", "properties": {"Name":"Orin CDP","State":"Wyoming","State_Abbrev":"WY"},
"geometry":{ "type": "Point", "coordinates": [-105.177769,42.651705]}},
{ "type": "Feature", "properties": {"Name":"Osage CDP","State":"Wyoming","State_Abbrev":"WY"},
"geometry":{ "type": "Point", "coordinates": [-104.434645,43.98482]}},
{ "type": "Feature", "properties": {"Name":"Osmond CDP","State":"Wyoming","State_Abbrev":"WY"},
"geometry":{ "type": "Point", "coordinates": [-110.94076,42.677715]}},
{ "type": "Feature", "properties": {"Name":"Owl Creek CDP","State":"Wyoming","State_Abbrev":"WY"},
"geometry":{ "type": "Point", "coordinates": [-108.56782,43.781866]}},
{ "type": "Feature", "properties": {"Name":"Parkman CDP","State":"Wyoming","State_Abbrev":"WY"},
"geometry":{ "type": "Point", "coordinates": [-107.313456,44.957086]}},
{ "type": "Feature", "properties": {"Name":"Pavillion town","State":"Wyoming","State_Abbrev":"WY"},
"geometry":{ "type": "Point", "coordinates": [-108.689024,43.244011]}},
{ "type": "Feature", "properties": {"Name":"Pine Bluffs town","State":"Wyoming","State_Abbrev":"WY"},
"geometry":{ "type": "Point", "coordinates": [-104.074782,41.180212]}},
{ "type": "Feature", "properties": {"Name":"Pinedale town","State":"Wyoming","State_Abbrev":"WY"},
"geometry":{ "type": "Point", "coordinates": [-109.870527,42.867585]}},
{ "type": "Feature", "properties": {"Name":"Pine Haven town","State":"Wyoming","State_Abbrev":"WY"},
"geometry":{ "type": "Point", "coordinates": [-104.810453,44.353395]}},
{ "type": "Feature", "properties": {"Name":"Point of Rocks CDP","State":"Wyoming","State_Abbrev":"WY"},
"geometry":{ "type": "Point", "coordinates": [-108.775444,41.683121]}},
{ "type": "Feature", "properties": {"Name":"Powder Horn CDP","State":"Wyoming","State_Abbrev":"WY"},
"geometry":{ "type": "Point", "coordinates": [-106.972716,44.691195]}},
{ "type": "Feature", "properties": {"Name":"Powder River CDP","State":"Wyoming","State_Abbrev":"WY"},
"geometry":{ "type": "Point", "coordinates": [-106.990566,43.052119]}},
{ "type": "Feature", "properties": {"Name":"Powell city","State":"Wyoming","State_Abbrev":"WY"},
"geometry":{ "type": "Point", "coordinates": [-108.757581,44.761783]}},
{ "type": "Feature", "properties": {"Name":"Purple Sage CDP","State":"Wyoming","State_Abbrev":"WY"},
"geometry":{ "type": "Point", "coordinates": [-109.320193,41.551396]}},
{ "type": "Feature", "properties": {"Name":"Rafter J Ranch CDP","State":"Wyoming","State_Abbrev":"WY"},
"geometry":{ "type": "Point", "coordinates": [-110.791464,43.430513]}},
{ "type": "Feature", "properties": {"Name":"Ralston CDP","State":"Wyoming","State_Abbrev":"WY"},
"geometry":{ "type": "Point", "coordinates": [-108.885417,44.706865]}},
{ "type": "Feature", "properties": {"Name":"Ranchester town","State":"Wyoming","State_Abbrev":"WY"},
"geometry":{ "type": "Point", "coordinates": [-107.167323,44.9076]}},
{ "type": "Feature", "properties": {"Name":"Ranchettes CDP","State":"Wyoming","State_Abbrev":"WY"},
"geometry":{ "type": "Point", "coordinates": [-104.772969,41.218792]}},
{ "type": "Feature", "properties": {"Name":"Rawlins city","State":"Wyoming","State_Abbrev":"WY"},
"geometry":{ "type": "Point", "coordinates": [-107.224653,41.78513]}},
{ "type": "Feature", "properties": {"Name":"Red Butte CDP","State":"Wyoming","State_Abbrev":"WY"},
"geometry":{ "type": "Point", "coordinates": [-106.434625,42.806204]}},
{ "type": "Feature", "properties": {"Name":"Reliance CDP","State":"Wyoming","State_Abbrev":"WY"},
"geometry":{ "type": "Point", "coordinates": [-109.197696,41.668198]}},
{ "type": "Feature", "properties": {"Name":"Riverside town","State":"Wyoming","State_Abbrev":"WY"},
"geometry":{ "type": "Point", "coordinates": [-106.781343,41.215414]}},
{ "type": "Feature", "properties": {"Name":"Riverton city","State":"Wyoming","State_Abbrev":"WY"},
"geometry":{ "type": "Point", "coordinates": [-108.381303,43.026256]}},
{ "type": "Feature", "properties": {"Name":"Robertson CDP","State":"Wyoming","State_Abbrev":"WY"},
"geometry":{ "type": "Point", "coordinates": [-110.42739,41.181571]}},
{ "type": "Feature", "properties": {"Name":"Rock River town","State":"Wyoming","State_Abbrev":"WY"},
"geometry":{ "type": "Point", "coordinates": [-105.975146,41.731739]}},
{ "type": "Feature", "properties": {"Name":"Rock Springs city","State":"Wyoming","State_Abbrev":"WY"},
"geometry":{ "type": "Point", "coordinates": [-109.220922,41.594704]}},
{ "type": "Feature", "properties": {"Name":"Rolling Hills town","State":"Wyoming","State_Abbrev":"WY"},
"geometry":{ "type": "Point", "coordinates": [-105.843369,42.903561]}},
{ "type": "Feature", "properties": {"Name":"Ryan Park CDP","State":"Wyoming","State_Abbrev":"WY"},
"geometry":{ "type": "Point", "coordinates": [-106.489613,41.313153]}},
{ "type": "Feature", "properties": {"Name":"Saratoga town","State":"Wyoming","State_Abbrev":"WY"},
"geometry":{ "type": "Point", "coordinates": [-106.81173,41.452392]}},
{ "type": "Feature", "properties": {"Name":"Shell CDP","State":"Wyoming","State_Abbrev":"WY"},
"geometry":{ "type": "Point", "coordinates": [-107.784481,44.534519]}},
{ "type": "Feature", "properties": {"Name":"Sheridan city","State":"Wyoming","State_Abbrev":"WY"},
"geometry":{ "type": "Point", "coordinates": [-106.964166,44.796219]}},
{ "type": "Feature", "properties": {"Name":"Shoshoni town","State":"Wyoming","State_Abbrev":"WY"},
"geometry":{ "type": "Point", "coordinates": [-108.106792,43.238066]}},
{ "type": "Feature", "properties": {"Name":"Sinclair town","State":"Wyoming","State_Abbrev":"WY"},
"geometry":{ "type": "Point", "coordinates": [-107.11994,41.776084]}},
{ "type": "Feature", "properties": {"Name":"Slater CDP","State":"Wyoming","State_Abbrev":"WY"},
"geometry":{ "type": "Point", "coordinates": [-104.788709,41.877633]}},
{ "type": "Feature", "properties": {"Name":"Sleepy Hollow CDP","State":"Wyoming","State_Abbrev":"WY"},
"geometry":{ "type": "Point", "coordinates": [-105.430895,44.232692]}},
{ "type": "Feature", "properties": {"Name":"Smoot CDP","State":"Wyoming","State_Abbrev":"WY"},
"geometry":{ "type": "Point", "coordinates": [-110.91549,42.618389]}},
{ "type": "Feature", "properties": {"Name":"South Greeley CDP","State":"Wyoming","State_Abbrev":"WY"},
"geometry":{ "type": "Point", "coordinates": [-104.806622,41.093131]}},
{ "type": "Feature", "properties": {"Name":"South Park CDP","State":"Wyoming","State_Abbrev":"WY"},
"geometry":{ "type": "Point", "coordinates": [-110.798549,43.4255]}},
{ "type": "Feature", "properties": {"Name":"Star Valley Ranch town","State":"Wyoming","State_Abbrev":"WY"},
"geometry":{ "type": "Point", "coordinates": [-110.963521,42.979688]}},
{ "type": "Feature", "properties": {"Name":"Story CDP","State":"Wyoming","State_Abbrev":"WY"},
"geometry":{ "type": "Point", "coordinates": [-106.914173,44.573079]}},
{ "type": "Feature", "properties": {"Name":"Sundance town","State":"Wyoming","State_Abbrev":"WY"},
"geometry":{ "type": "Point", "coordinates": [-104.366209,44.404823]}},
{ "type": "Feature", "properties": {"Name":"Superior town","State":"Wyoming","State_Abbrev":"WY"},
"geometry":{ "type": "Point", "coordinates": [-108.964235,41.759508]}},
{ "type": "Feature", "properties": {"Name":"Table Rock CDP","State":"Wyoming","State_Abbrev":"WY"},
"geometry":{ "type": "Point", "coordinates": [-108.404046,41.621985]}},
{ "type": "Feature", "properties": {"Name":"Taylor CDP","State":"Wyoming","State_Abbrev":"WY"},
"geometry":{ "type": "Point", "coordinates": [-110.986308,42.069202]}},
{ "type": "Feature", "properties": {"Name":"Ten Sleep town","State":"Wyoming","State_Abbrev":"WY"},
"geometry":{ "type": "Point", "coordinates": [-107.448279,44.035013]}},
{ "type": "Feature", "properties": {"Name":"Teton Village CDP","State":"Wyoming","State_Abbrev":"WY"},
"geometry":{ "type": "Point", "coordinates": [-110.841978,43.590679]}},
{ "type": "Feature", "properties": {"Name":"Thayne town","State":"Wyoming","State_Abbrev":"WY"},
"geometry":{ "type": "Point", "coordinates": [-110.996538,42.919543]}},
{ "type": "Feature", "properties": {"Name":"Thermopolis town","State":"Wyoming","State_Abbrev":"WY"},
"geometry":{ "type": "Point", "coordinates": [-108.214538,43.647615]}},
{ "type": "Feature", "properties": {"Name":"Torrington city","State":"Wyoming","State_Abbrev":"WY"},
"geometry":{ "type": "Point", "coordinates": [-104.173528,42.06505]}},
{ "type": "Feature", "properties": {"Name":"Turnerville CDP","State":"Wyoming","State_Abbrev":"WY"},
"geometry":{ "type": "Point", "coordinates": [-110.900728,42.862419]}},
{ "type": "Feature", "properties": {"Name":"Upton town","State":"Wyoming","State_Abbrev":"WY"},
"geometry":{ "type": "Point", "coordinates": [-104.636538,44.104017]}},
{ "type": "Feature", "properties": {"Name":"Urie CDP","State":"Wyoming","State_Abbrev":"WY"},
"geometry":{ "type": "Point", "coordinates": [-110.335196,41.308856]}},
{ "type": "Feature", "properties": {"Name":"Van Tassell town","State":"Wyoming","State_Abbrev":"WY"},
"geometry":{ "type": "Point", "coordinates": [-104.091328,42.664277]}},
{ "type": "Feature", "properties": {"Name":"Veteran CDP","State":"Wyoming","State_Abbrev":"WY"},
"geometry":{ "type": "Point", "coordinates": [-104.38625,41.962665]}},
{ "type": "Feature", "properties": {"Name":"Vista West CDP","State":"Wyoming","State_Abbrev":"WY"},
"geometry":{ "type": "Point", "coordinates": [-106.436712,42.86236]}},
{ "type": "Feature", "properties": {"Name":"Wamsutter town","State":"Wyoming","State_Abbrev":"WY"},
"geometry":{ "type": "Point", "coordinates": [-107.979142,41.667977]}},
{ "type": "Feature", "properties": {"Name":"Warren AFB CDP","State":"Wyoming","State_Abbrev":"WY"},
"geometry":{ "type": "Point", "coordinates": [-104.86163,41.147053]}},
{ "type": "Feature", "properties": {"Name":"Washam CDP","State":"Wyoming","State_Abbrev":"WY"},
"geometry":{ "type": "Point", "coordinates": [-109.699135,41.005604]}},
{ "type": "Feature", "properties": {"Name":"Westview Circle CDP","State":"Wyoming","State_Abbrev":"WY"},
"geometry":{ "type": "Point", "coordinates": [-105.06758,42.061641]}},
{ "type": "Feature", "properties": {"Name":"Wheatland town","State":"Wyoming","State_Abbrev":"WY"},
"geometry":{ "type": "Point", "coordinates": [-104.959472,42.051706]}},
{ "type": "Feature", "properties": {"Name":"Whiting CDP","State":"Wyoming","State_Abbrev":"WY"},
"geometry":{ "type": "Point", "coordinates": [-104.971051,42.00888]}},
{ "type": "Feature", "properties": {"Name":"Wilson CDP","State":"Wyoming","State_Abbrev":"WY"},
"geometry":{ "type": "Point", "coordinates": [-110.920701,43.480905]}},
{ "type": "Feature", "properties": {"Name":"Woods Landing-Jelm CDP","State":"Wyoming","State_Abbrev":"WY"},
"geometry":{ "type": "Point", "coordinates": [-106.028802,41.101461]}},
{ "type": "Feature", "properties": {"Name":"Worland city","State":"Wyoming","State_Abbrev":"WY"},
"geometry":{ "type": "Point", "coordinates": [-107.961653,44.020402]}},
{ "type": "Feature", "properties": {"Name":"Wright town","State":"Wyoming","State_Abbrev":"WY"},
"geometry":{ "type": "Point", "coordinates": [-105.494834,43.749153]}},
{ "type": "Feature", "properties": {"Name":"Yoder town","State":"Wyoming","State_Abbrev":"WY"},
"geometry":{ "type": "Point", "coordinates": [-104.295389,41.916978]}},
{ "type": "Feature", "properties": {"Name":"Y-O Ranch CDP","State":"Wyoming","State_Abbrev":"WY"},
"geometry":{ "type": "Point", "coordinates": [-104.922969,42.035162]}}]}
