{"type":"FeatureCollection","features":[
{ "type": "Feature", "properties": {"Afton town":"Albany CDP","Wyoming":"Wyoming","WY":"WY"},
"geometry":{ "type": "Point", "coordinates": [-106.12549,41.186857]}},
{ "type": "Feature", "properties": {"Afton town":"Albin town","Wyoming":"Wyoming","WY":"WY"},
"geometry":{ "type": "Point", "coordinates": [-104.101549,41.416941]}},
{ "type": "Feature", "properties": {"Afton town":"Alcova CDP","Wyoming":"Wyoming","WY":"WY"},
"geometry":{ "type": "Point", "coordinates": [-106.729461,42.553333]}},
{ "type": "Feature", "properties": {"Afton town":"Alpine town","Wyoming":"Wyoming","WY":"WY"},
"geometry":{ "type": "Point", "coordinates": [-111.014752,43.160393]}},
{ "type": "Feature", "properties": {"Afton town":"Alpine Northeast CDP","Wyoming":"Wyoming","WY":"WY"},
"geometry":{ "type": "Point", "coordinates": [-111.007212,43.193768]}},
{ "type": "Feature", "properties": {"Afton town":"Alpine Northwest CDP","Wyoming":"Wyoming","WY":"WY"},
"geometry":{ "type": "Point", "coordinates": [-111.035589,43.183823]}},
{ "type": "Feature", "properties": {"Afton town":"Alta CDP","Wyoming":"Wyoming","WY":"WY"},
"geometry":{ "type": "Point", "coordinates": [-111.031262,43.773624]}},
{ "type": "Feature", "properties": {"Afton town":"Antelope Hills CDP","Wyoming":"Wyoming","WY":"WY"},
"geometry":{ "type": "Point", "coordinates": [-106.312584,43.081136]}},
{ "type": "Feature", "properties": {"Afton town":"Arapahoe CDP","Wyoming":"Wyoming","WY":"WY"},
"geometry":{ "type": "Point", "coordinates": [-108.45273,42.992567]}},
{ "type": "Feature", "properties": {"Afton town":"Arlington CDP","Wyoming":"Wyoming","WY":"WY"},
"geometry":{ "type": "Point", "coordinates": [-106.199739,41.605258]}},
{ "type": "Feature", "properties": {"Afton town":"Arrowhead Springs CDP","Wyoming":"Wyoming","WY":"WY"},
"geometry":{ "type": "Point", "coordinates": [-109.155085,41.508174]}},
{ "type": "Feature", "properties": {"Afton town":"Arvada CDP","Wyoming":"Wyoming","WY":"WY"},
"geometry":{ "type": "Point", "coordinates": [-106.141976,44.662179]}},
{ "type": "Feature", "properties": {"Afton town":"Atlantic City CDP","Wyoming":"Wyoming","WY":"WY"},
"geometry":{ "type": "Point", "coordinates": [-108.732896,42.501195]}},
{ "type": "Feature", "properties": {"Afton town":"Auburn CDP","Wyoming":"Wyoming","WY":"WY"},
"geometry":{ "type": "Point", "coordinates": [-111.021506,42.79694]}},
{ "type": "Feature", "properties": {"Afton town":"Baggs town","Wyoming":"Wyoming","WY":"WY"},
"geometry":{ "type": "Point", "coordinates": [-107.657281,41.034658]}},
{ "type": "Feature", "properties": {"Afton town":"Bairoil town","Wyoming":"Wyoming","WY":"WY"},
"geometry":{ "type": "Point", "coordinates": [-107.561048,42.237202]}},
{ "type": "Feature", "properties": {"Afton town":"Bar Nunn town","Wyoming":"Wyoming","WY":"WY"},
"geometry":{ "type": "Point", "coordinates": [-106.347429,42.921992]}},
{ "type": "Feature", "properties": {"Afton town":"Basin town","Wyoming":"Wyoming","WY":"WY"},
"geometry":{ "type": "Point", "coordinates": [-108.047094,44.380564]}},
{ "type": "Feature", "properties": {"Afton town":"Bear River town","Wyoming":"Wyoming","WY":"WY"},
"geometry":{ "type": "Point", "coordinates": [-111.026996,41.385854]}},
{ "type": "Feature", "properties": {"Afton town":"Bedford CDP","Wyoming":"Wyoming","WY":"WY"},
"geometry":{ "type": "Point", "coordinates": [-110.928565,42.89468]}},
{ "type": "Feature", "properties": {"Afton town":"Bessemer Bend CDP","Wyoming":"Wyoming","WY":"WY"},
"geometry":{ "type": "Point", "coordinates": [-106.517515,42.756119]}},
{ "type": "Feature", "properties": {"Afton town":"Beulah CDP","Wyoming":"Wyoming","WY":"WY"},
"geometry":{ "type": "Point", "coordinates": [-104.08279,44.545961]}},
{ "type": "Feature", "properties": {"Afton town":"Big Horn CDP","Wyoming":"Wyoming","WY":"WY"},
"geometry":{ "type": "Point", "coordinates": [-106.997071,44.679076]}},
{ "type": "Feature", "properties": {"Afton town":"Big Piney town","Wyoming":"Wyoming","WY":"WY"},
"geometry":{ "type": "Point", "coordinates": [-110.119343,42.540168]}},
{ "type": "Feature", "properties": {"Afton town":"Bondurant CDP","Wyoming":"Wyoming","WY":"WY"},
"geometry":{ "type": "Point", "coordinates": [-110.402577,43.194859]}},
{ "type": "Feature", "properties": {"Afton town":"Boulder CDP","Wyoming":"Wyoming","WY":"WY"},
"geometry":{ "type": "Point", "coordinates": [-109.706729,42.746142]}},
{ "type": "Feature", "properties": {"Afton town":"Boulder Flats CDP","Wyoming":"Wyoming","WY":"WY"},
"geometry":{ "type": "Point", "coordinates": [-108.799297,42.915575]}},
{ "type": "Feature", "properties": {"Afton town":"Brookhurst CDP","Wyoming":"Wyoming","WY":"WY"},
"geometry":{ "type": "Point", "coordinates": [-106.228789,42.860985]}},
{ "type": "Feature", "properties": {"Afton town":"Buffalo city","Wyoming":"Wyoming","WY":"WY"},
"geometry":{ "type": "Point", "coordinates": [-106.715344,44.338545]}},
{ "type": "Feature", "properties": {"Afton town":"Burlington town","Wyoming":"Wyoming","WY":"WY"},
"geometry":{ "type": "Point", "coordinates": [-108.432023,44.447065]}},
{ "type": "Feature", "properties": {"Afton town":"Burns town","Wyoming":"Wyoming","WY":"WY"},
"geometry":{ "type": "Point", "coordinates": [-104.359035,41.190871]}},
{ "type": "Feature", "properties": {"Afton town":"Byron town","Wyoming":"Wyoming","WY":"WY"},
"geometry":{ "type": "Point", "coordinates": [-108.508463,44.796737]}},
{ "type": "Feature", "properties": {"Afton town":"Carpenter CDP","Wyoming":"Wyoming","WY":"WY"},
"geometry":{ "type": "Point", "coordinates": [-104.36437,41.045607]}},
{ "type": "Feature", "properties": {"Afton town":"Carter CDP","Wyoming":"Wyoming","WY":"WY"},
"geometry":{ "type": "Point", "coordinates": [-110.430327,41.440444]}},
{ "type": "Feature", "properties": {"Afton town":"Casper city","Wyoming":"Wyoming","WY":"WY"},
"geometry":{ "type": "Point", "coordinates": [-106.321282,42.84212]}},
{ "type": "Feature", "properties": {"Afton town":"Casper Mountain CDP","Wyoming":"Wyoming","WY":"WY"},
"geometry":{ "type": "Point", "coordinates": [-106.308146,42.741555]}},
{ "type": "Feature", "properties": {"Afton town":"Centennial CDP","Wyoming":"Wyoming","WY":"WY"},
"geometry":{ "type": "Point", "coordinates": [-106.137607,41.306844]}},
{ "type": "Feature", "properties": {"Afton town":"Cheyenne city","Wyoming":"Wyoming","WY":"WY"},
"geometry":{ "type": "Point", "coordinates": [-104.792425,41.132478]}},
{ "type": "Feature", "properties": {"Afton town":"Chugcreek CDP","Wyoming":"Wyoming","WY":"WY"},
"geometry":{ "type": "Point", "coordinates": [-104.907902,42.053475]}},
{ "type": "Feature", "properties": {"Afton town":"Chugwater town","Wyoming":"Wyoming","WY":"WY"},
"geometry":{ "type": "Point", "coordinates": [-104.822936,41.755749]}},
{ "type": "Feature", "properties": {"Afton town":"Clearmont town","Wyoming":"Wyoming","WY":"WY"},
"geometry":{ "type": "Point", "coordinates": [-106.381297,44.63985]}},
{ "type": "Feature", "properties": {"Afton town":"Clearview Acres CDP","Wyoming":"Wyoming","WY":"WY"},
"geometry":{ "type": "Point", "coordinates": [-109.280028,41.584203]}},
{ "type": "Feature", "properties": {"Afton town":"Cody city","Wyoming":"Wyoming","WY":"WY"},
"geometry":{ "type": "Point", "coordinates": [-109.057469,44.521242]}},
{ "type": "Feature", "properties": {"Afton town":"Cokeville town","Wyoming":"Wyoming","WY":"WY"},
"geometry":{ "type": "Point", "coordinates": [-110.951869,42.079308]}},
{ "type": "Feature", "properties": {"Afton town":"Cora CDP","Wyoming":"Wyoming","WY":"WY"},
"geometry":{ "type": "Point", "coordinates": [-109.99159,42.957661]}},
{ "type": "Feature", "properties": {"Afton town":"Cowley town","Wyoming":"Wyoming","WY":"WY"},
"geometry":{ "type": "Point", "coordinates": [-108.469272,44.883452]}},
{ "type": "Feature", "properties": {"Afton town":"Crowheart CDP","Wyoming":"Wyoming","WY":"WY"},
"geometry":{ "type": "Point", "coordinates": [-109.229756,43.33978]}},
{ "type": "Feature", "properties": {"Afton town":"Daniel CDP","Wyoming":"Wyoming","WY":"WY"},
"geometry":{ "type": "Point", "coordinates": [-110.076474,42.865738]}},
{ "type": "Feature", "properties": {"Afton town":"Dayton town","Wyoming":"Wyoming","WY":"WY"},
"geometry":{ "type": "Point", "coordinates": [-107.262432,44.873351]}},
{ "type": "Feature", "properties": {"Afton town":"Deaver town","Wyoming":"Wyoming","WY":"WY"},
"geometry":{ "type": "Point", "coordinates": [-108.596018,44.889024]}},
{ "type": "Feature", "properties": {"Afton town":"Diamondville town","Wyoming":"Wyoming","WY":"WY"},
"geometry":{ "type": "Point", "coordinates": [-110.535188,41.77701]}},
{ "type": "Feature", "properties": {"Afton town":"Dixon town","Wyoming":"Wyoming","WY":"WY"},
"geometry":{ "type": "Point", "coordinates": [-107.536144,41.034896]}},
{ "type": "Feature", "properties": {"Afton town":"Douglas city","Wyoming":"Wyoming","WY":"WY"},
"geometry":{ "type": "Point", "coordinates": [-105.397802,42.754773]}},
{ "type": "Feature", "properties": {"Afton town":"Dubois town","Wyoming":"Wyoming","WY":"WY"},
"geometry":{ "type": "Point", "coordinates": [-109.647628,43.545964]}},
{ "type": "Feature", "properties": {"Afton town":"East Thermopolis town","Wyoming":"Wyoming","WY":"WY"},
"geometry":{ "type": "Point", "coordinates": [-108.197883,43.644094]}},
{ "type": "Feature", "properties": {"Afton town":"Eden CDP","Wyoming":"Wyoming","WY":"WY"},
"geometry":{ "type": "Point", "coordinates": [-109.439152,42.060165]}},
{ "type": "Feature", "properties": {"Afton town":"Edgerton town","Wyoming":"Wyoming","WY":"WY"},
"geometry":{ "type": "Point", "coordinates": [-106.247359,43.413394]}},
{ "type": "Feature", "properties": {"Afton town":"Elk Mountain town","Wyoming":"Wyoming","WY":"WY"},
"geometry":{ "type": "Point", "coordinates": [-106.413501,41.688298]}},
{ "type": "Feature", "properties": {"Afton town":"El Rancho CDP","Wyoming":"Wyoming","WY":"WY"},
"geometry":{ "type": "Point", "coordinates": [-105.04767,42.26798]}},
{ "type": "Feature", "properties": {"Afton town":"Encampment town","Wyoming":"Wyoming","WY":"WY"},
"geometry":{ "type": "Point", "coordinates": [-106.794819,41.208758]}},
{ "type": "Feature", "properties": {"Afton town":"Esterbrook CDP","Wyoming":"Wyoming","WY":"WY"},
"geometry":{ "type": "Point", "coordinates": [-105.385914,42.406113]}},
{ "type": "Feature", "properties": {"Afton town":"Ethete CDP","Wyoming":"Wyoming","WY":"WY"},
"geometry":{ "type": "Point", "coordinates": [-108.723027,43.00083]}},
{ "type": "Feature", "properties": {"Afton town":"Etna CDP","Wyoming":"Wyoming","WY":"WY"},
"geometry":{ "type": "Point", "coordinates": [-111.012948,43.033434]}},
{ "type": "Feature", "properties": {"Afton town":"Evanston city","Wyoming":"Wyoming","WY":"WY"},
"geometry":{ "type": "Point", "coordinates": [-110.963739,41.260088]}},
{ "type": "Feature", "properties": {"Afton town":"Evansville town","Wyoming":"Wyoming","WY":"WY"},
"geometry":{ "type": "Point", "coordinates": [-106.26775,42.875985]}},
{ "type": "Feature", "properties": {"Afton town":"Fairview CDP","Wyoming":"Wyoming","WY":"WY"},
"geometry":{ "type": "Point", "coordinates": [-110.986632,42.687079]}},
{ "type": "Feature", "properties": {"Afton town":"Farson CDP","Wyoming":"Wyoming","WY":"WY"},
"geometry":{ "type": "Point", "coordinates": [-109.424802,42.154423]}},
{ "type": "Feature", "properties": {"Afton town":"Fontenelle CDP","Wyoming":"Wyoming","WY":"WY"},
"geometry":{ "type": "Point", "coordinates": [-110.062193,42.003262]}},
{ "type": "Feature", "properties": {"Afton town":"Fort Bridger CDP","Wyoming":"Wyoming","WY":"WY"},
"geometry":{ "type": "Point", "coordinates": [-110.389387,41.318335]}},
{ "type": "Feature", "properties": {"Afton town":"Fort Laramie town","Wyoming":"Wyoming","WY":"WY"},
"geometry":{ "type": "Point", "coordinates": [-104.517389,42.213071]}},
{ "type": "Feature", "properties": {"Afton town":"Fort Washakie CDP","Wyoming":"Wyoming","WY":"WY"},
"geometry":{ "type": "Point", "coordinates": [-108.920417,43.006905]}},
{ "type": "Feature", "properties": {"Afton town":"Fox Farm-College CDP","Wyoming":"Wyoming","WY":"WY"},
"geometry":{ "type": "Point", "coordinates": [-104.786988,41.110562]}},
{ "type": "Feature", "properties": {"Afton town":"Fox Park CDP","Wyoming":"Wyoming","WY":"WY"},
"geometry":{ "type": "Point", "coordinates": [-106.153386,41.080132]}},
{ "type": "Feature", "properties": {"Afton town":"Frannie town","Wyoming":"Wyoming","WY":"WY"},
"geometry":{ "type": "Point", "coordinates": [-108.62054,44.971029]}},
{ "type": "Feature", "properties": {"Afton town":"Freedom CDP","Wyoming":"Wyoming","WY":"WY"},
"geometry":{ "type": "Point", "coordinates": [-111.029605,42.985342]}},
{ "type": "Feature", "properties": {"Afton town":"Garland CDP","Wyoming":"Wyoming","WY":"WY"},
"geometry":{ "type": "Point", "coordinates": [-108.654155,44.77772]}},
{ "type": "Feature", "properties": {"Afton town":"Gillette city","Wyoming":"Wyoming","WY":"WY"},
"geometry":{ "type": "Point", "coordinates": [-105.498936,44.27258]}},
{ "type": "Feature", "properties": {"Afton town":"Glendo town","Wyoming":"Wyoming","WY":"WY"},
"geometry":{ "type": "Point", "coordinates": [-105.024987,42.504863]}},
{ "type": "Feature", "properties": {"Afton town":"Glenrock town","Wyoming":"Wyoming","WY":"WY"},
"geometry":{ "type": "Point", "coordinates": [-105.862355,42.856473]}},
{ "type": "Feature", "properties": {"Afton town":"Granger town","Wyoming":"Wyoming","WY":"WY"},
"geometry":{ "type": "Point", "coordinates": [-109.965232,41.597934]}},
{ "type": "Feature", "properties": {"Afton town":"Green River city","Wyoming":"Wyoming","WY":"WY"},
"geometry":{ "type": "Point", "coordinates": [-109.470796,41.512922]}},
{ "type": "Feature", "properties": {"Afton town":"Greybull town","Wyoming":"Wyoming","WY":"WY"},
"geometry":{ "type": "Point", "coordinates": [-108.055744,44.486533]}},
{ "type": "Feature", "properties": {"Afton town":"Grover CDP","Wyoming":"Wyoming","WY":"WY"},
"geometry":{ "type": "Point", "coordinates": [-110.940544,42.801989]}},
{ "type": "Feature", "properties": {"Afton town":"Guernsey town","Wyoming":"Wyoming","WY":"WY"},
"geometry":{ "type": "Point", "coordinates": [-104.742889,42.264791]}},
{ "type": "Feature", "properties": {"Afton town":"Hanna town","Wyoming":"Wyoming","WY":"WY"},
"geometry":{ "type": "Point", "coordinates": [-106.559644,41.869797]}},
{ "type": "Feature", "properties": {"Afton town":"Hartrandt CDP","Wyoming":"Wyoming","WY":"WY"},
"geometry":{ "type": "Point", "coordinates": [-106.349223,42.883584]}},
{ "type": "Feature", "properties": {"Afton town":"Hartville town","Wyoming":"Wyoming","WY":"WY"},
"geometry":{ "type": "Point", "coordinates": [-104.7245,42.327626]}},
{ "type": "Feature", "properties": {"Afton town":"Hawk Springs CDP","Wyoming":"Wyoming","WY":"WY"},
"geometry":{ "type": "Point", "coordinates": [-104.265083,41.785252]}},
{ "type": "Feature", "properties": {"Afton town":"Hillsdale CDP","Wyoming":"Wyoming","WY":"WY"},
"geometry":{ "type": "Point", "coordinates": [-104.47439,41.207977]}},
{ "type": "Feature", "properties": {"Afton town":"Hill View Heights CDP","Wyoming":"Wyoming","WY":"WY"},
"geometry":{ "type": "Point", "coordinates": [-104.150664,43.814571]}},
{ "type": "Feature", "properties": {"Afton town":"Hoback CDP","Wyoming":"Wyoming","WY":"WY"},
"geometry":{ "type": "Point", "coordinates": [-110.744868,43.307625]}},
{ "type": "Feature", "properties": {"Afton town":"Homa Hills CDP","Wyoming":"Wyoming","WY":"WY"},
"geometry":{ "type": "Point", "coordinates": [-106.384995,42.99002]}},
{ "type": "Feature", "properties": {"Afton town":"Hudson town","Wyoming":"Wyoming","WY":"WY"},
"geometry":{ "type": "Point", "coordinates": [-108.581993,42.902698]}},
{ "type": "Feature", "properties": {"Afton town":"Hulett town","Wyoming":"Wyoming","WY":"WY"},
"geometry":{ "type": "Point", "coordinates": [-104.59806,44.683044]}},
{ "type": "Feature", "properties": {"Afton town":"Huntley CDP","Wyoming":"Wyoming","WY":"WY"},
"geometry":{ "type": "Point", "coordinates": [-104.144008,41.931621]}},
{ "type": "Feature", "properties": {"Afton town":"Hyattville CDP","Wyoming":"Wyoming","WY":"WY"},
"geometry":{ "type": "Point", "coordinates": [-107.614964,44.249778]}},
{ "type": "Feature", "properties": {"Afton town":"Jackson town","Wyoming":"Wyoming","WY":"WY"},
"geometry":{ "type": "Point", "coordinates": [-110.775267,43.471936]}},
{ "type": "Feature", "properties": {"Afton town":"James Town CDP","Wyoming":"Wyoming","WY":"WY"},
"geometry":{ "type": "Point", "coordinates": [-109.536499,41.563972]}},
{ "type": "Feature", "properties": {"Afton town":"Jeffrey City CDP","Wyoming":"Wyoming","WY":"WY"},
"geometry":{ "type": "Point", "coordinates": [-107.829134,42.483044]}},
{ "type": "Feature", "properties": {"Afton town":"Johnstown CDP","Wyoming":"Wyoming","WY":"WY"},
"geometry":{ "type": "Point", "coordinates": [-108.689948,43.113834]}},
{ "type": "Feature", "properties": {"Afton town":"Kaycee town","Wyoming":"Wyoming","WY":"WY"},
"geometry":{ "type": "Point", "coordinates": [-106.637276,43.710039]}},
{ "type": "Feature", "properties": {"Afton town":"Kelly CDP","Wyoming":"Wyoming","WY":"WY"},
"geometry":{ "type": "Point", "coordinates": [-110.632051,43.621897]}},
{ "type": "Feature", "properties": {"Afton town":"Kemmerer city","Wyoming":"Wyoming","WY":"WY"},
"geometry":{ "type": "Point", "coordinates": [-110.552817,41.778484]}},
{ "type": "Feature", "properties": {"Afton town":"Kirby town","Wyoming":"Wyoming","WY":"WY"},
"geometry":{ "type": "Point", "coordinates": [-108.180972,43.803284]}},
{ "type": "Feature", "properties": {"Afton town":"La Barge town","Wyoming":"Wyoming","WY":"WY"},
"geometry":{ "type": "Point", "coordinates": [-110.197203,42.260779]}},
{ "type": "Feature", "properties": {"Afton town":"LaGrange town","Wyoming":"Wyoming","WY":"WY"},
"geometry":{ "type": "Point", "coordinates": [-104.162999,41.638571]}},
{ "type": "Feature", "properties": {"Afton town":"Lakeview North CDP","Wyoming":"Wyoming","WY":"WY"},
"geometry":{ "type": "Point", "coordinates": [-104.958621,42.096984]}},
{ "type": "Feature", "properties": {"Afton town":"Lance Creek CDP","Wyoming":"Wyoming","WY":"WY"},
"geometry":{ "type": "Point", "coordinates": [-104.663835,43.04474]}},
{ "type": "Feature", "properties": {"Afton town":"Lander city","Wyoming":"Wyoming","WY":"WY"},
"geometry":{ "type": "Point", "coordinates": [-108.759894,42.831276]}},
{ "type": "Feature", "properties": {"Afton town":"Laramie city","Wyoming":"Wyoming","WY":"WY"},
"geometry":{ "type": "Point", "coordinates": [-105.608637,41.305955]}},
{ "type": "Feature", "properties": {"Afton town":"Lingle town","Wyoming":"Wyoming","WY":"WY"},
"geometry":{ "type": "Point", "coordinates": [-104.346105,42.138665]}},
{ "type": "Feature", "properties": {"Afton town":"Little America CDP","Wyoming":"Wyoming","WY":"WY"},
"geometry":{ "type": "Point", "coordinates": [-109.884876,41.549363]}},
{ "type": "Feature", "properties": {"Afton town":"Lonetree CDP","Wyoming":"Wyoming","WY":"WY"},
"geometry":{ "type": "Point", "coordinates": [-110.144045,41.034403]}},
{ "type": "Feature", "properties": {"Afton town":"Lost Springs town","Wyoming":"Wyoming","WY":"WY"},
"geometry":{ "type": "Point", "coordinates": [-104.925492,42.765165]}},
{ "type": "Feature", "properties": {"Afton town":"Lovell town","Wyoming":"Wyoming","WY":"WY"},
"geometry":{ "type": "Point", "coordinates": [-108.391889,44.835801]}},
{ "type": "Feature", "properties": {"Afton town":"Lucerne CDP","Wyoming":"Wyoming","WY":"WY"},
"geometry":{ "type": "Point", "coordinates": [-108.18471,43.718022]}},
{ "type": "Feature", "properties": {"Afton town":"Lusk town","Wyoming":"Wyoming","WY":"WY"},
"geometry":{ "type": "Point", "coordinates": [-104.458403,42.761259]}},
{ "type": "Feature", "properties": {"Afton town":"Lyman town","Wyoming":"Wyoming","WY":"WY"},
"geometry":{ "type": "Point", "coordinates": [-110.297622,41.32748]}},
{ "type": "Feature", "properties": {"Afton town":"McKinnon CDP","Wyoming":"Wyoming","WY":"WY"},
"geometry":{ "type": "Point", "coordinates": [-109.9383,41.031441]}},
{ "type": "Feature", "properties": {"Afton town":"Mammoth CDP","Wyoming":"Wyoming","WY":"WY"},
"geometry":{ "type": "Point", "coordinates": [-110.692943,44.97321]}},
{ "type": "Feature", "properties": {"Afton town":"Manderson town","Wyoming":"Wyoming","WY":"WY"},
"geometry":{ "type": "Point", "coordinates": [-107.964202,44.269757]}},
{ "type": "Feature", "properties": {"Afton town":"Manville town","Wyoming":"Wyoming","WY":"WY"},
"geometry":{ "type": "Point", "coordinates": [-104.617446,42.779448]}},
{ "type": "Feature", "properties": {"Afton town":"Marbleton town","Wyoming":"Wyoming","WY":"WY"},
"geometry":{ "type": "Point", "coordinates": [-110.100459,42.557414]}},
{ "type": "Feature", "properties": {"Afton town":"Meadow Acres CDP","Wyoming":"Wyoming","WY":"WY"},
"geometry":{ "type": "Point", "coordinates": [-106.094617,42.859353]}},
{ "type": "Feature", "properties": {"Afton town":"Medicine Bow town","Wyoming":"Wyoming","WY":"WY"},
"geometry":{ "type": "Point", "coordinates": [-106.201916,41.899537]}},
{ "type": "Feature", "properties": {"Afton town":"Meeteetse town","Wyoming":"Wyoming","WY":"WY"},
"geometry":{ "type": "Point", "coordinates": [-108.853443,44.157013]}},
{ "type": "Feature", "properties": {"Afton town":"Midwest town","Wyoming":"Wyoming","WY":"WY"},
"geometry":{ "type": "Point", "coordinates": [-106.277289,43.410768]}},
{ "type": "Feature", "properties": {"Afton town":"Mills town","Wyoming":"Wyoming","WY":"WY"},
"geometry":{ "type": "Point", "coordinates": [-106.39083,42.849882]}},
{ "type": "Feature", "properties": {"Afton town":"Moorcroft town","Wyoming":"Wyoming","WY":"WY"},
"geometry":{ "type": "Point", "coordinates": [-104.947564,44.264483]}},
{ "type": "Feature", "properties": {"Afton town":"Moose Wilson Road CDP","Wyoming":"Wyoming","WY":"WY"},
"geometry":{ "type": "Point", "coordinates": [-110.834831,43.531488]}},
{ "type": "Feature", "properties": {"Afton town":"Mountain View CDP","Wyoming":"Wyoming","WY":"WY"},
"geometry":{ "type": "Point", "coordinates": [-106.414668,42.87744]}},
{ "type": "Feature", "properties": {"Afton town":"Mountain View town","Wyoming":"Wyoming","WY":"WY"},
"geometry":{ "type": "Point", "coordinates": [-110.334101,41.27237]}},
{ "type": "Feature", "properties": {"Afton town":"Newcastle city","Wyoming":"Wyoming","WY":"WY"},
"geometry":{ "type": "Point", "coordinates": [-104.196487,43.850271]}},
{ "type": "Feature", "properties": {"Afton town":"Nordic CDP","Wyoming":"Wyoming","WY":"WY"},
"geometry":{ "type": "Point", "coordinates": [-110.991324,43.079317]}},
{ "type": "Feature", "properties": {"Afton town":"North Rock Springs CDP","Wyoming":"Wyoming","WY":"WY"},
"geometry":{ "type": "Point", "coordinates": [-109.287932,41.669074]}},
{ "type": "Feature", "properties": {"Afton town":"Oakley CDP","Wyoming":"Wyoming","WY":"WY"},
"geometry":{ "type": "Point", "coordinates": [-110.526057,41.750972]}},
{ "type": "Feature", "properties": {"Afton town":"Opal town","Wyoming":"Wyoming","WY":"WY"},
"geometry":{ "type": "Point", "coordinates": [-110.324078,41.768055]}},
{ "type": "Feature", "properties": {"Afton town":"Orin CDP","Wyoming":"Wyoming","WY":"WY"},
"geometry":{ "type": "Point", "coordinates": [-105.177769,42.651705]}},
{ "type": "Feature", "properties": {"Afton town":"Osage CDP","Wyoming":"Wyoming","WY":"WY"},
"geometry":{ "type": "Point", "coordinates": [-104.434645,43.98482]}},
{ "type": "Feature", "properties": {"Afton town":"Osmond CDP","Wyoming":"Wyoming","WY":"WY"},
"geometry":{ "type": "Point", "coordinates": [-110.94076,42.677715]}},
{ "type": "Feature", "properties": {"Afton town":"Owl Creek CDP","Wyoming":"Wyoming","WY":"WY"},
"geometry":{ "type": "Point", "coordinates": [-108.56782,43.781866]}},
{ "type": "Feature", "properties": {"Afton town":"Parkman CDP","Wyoming":"Wyoming","WY":"WY"},
"geometry":{ "type": "Point", "coordinates": [-107.313456,44.957086]}},
{ "type": "Feature", "properties": {"Afton town":"Pavillion town","Wyoming":"Wyoming","WY":"WY"},
"geometry":{ "type": "Point", "coordinates": [-108.689024,43.244011]}},
{ "type": "Feature", "properties": {"Afton town":"Pine Bluffs town","Wyoming":"Wyoming","WY":"WY"},
"geometry":{ "type": "Point", "coordinates": [-104.074782,41.180212]}},
{ "type": "Feature", "properties": {"Afton town":"Pinedale town","Wyoming":"Wyoming","WY":"WY"},
"geometry":{ "type": "Point", "coordinates": [-109.870527,42.867585]}},
{ "type": "Feature", "properties": {"Afton town":"Pine Haven town","Wyoming":"Wyoming","WY":"WY"},
"geometry":{ "type": "Point", "coordinates": [-104.810453,44.353395]}},
{ "type": "Feature", "properties": {"Afton town":"Point of Rocks CDP","Wyoming":"Wyoming","WY":"WY"},
"geometry":{ "type": "Point", "coordinates": [-108.775444,41.683121]}},
{ "type": "Feature", "properties": {"Afton town":"Powder Horn CDP","Wyoming":"Wyoming","WY":"WY"},
"geometry":{ "type": "Point", "coordinates": [-106.972716,44.691195]}},
{ "type": "Feature", "properties": {"Afton town":"Powder River CDP","Wyoming":"Wyoming","WY":"WY"},
"geometry":{ "type": "Point", "coordinates": [-106.990566,43.052119]}},
{ "type": "Feature", "properties": {"Afton town":"Powell city","Wyoming":"Wyoming","WY":"WY"},
"geometry":{ "type": "Point", "coordinates": [-108.757581,44.761783]}},
{ "type": "Feature", "properties": {"Afton town":"Purple Sage CDP","Wyoming":"Wyoming","WY":"WY"},
"geometry":{ "type": "Point", "coordinates": [-109.320193,41.551396]}},
{ "type": "Feature", "properties": {"Afton town":"Rafter J Ranch CDP","Wyoming":"Wyoming","WY":"WY"},
"geometry":{ "type": "Point", "coordinates": [-110.791464,43.430513]}},
{ "type": "Feature", "properties": {"Afton town":"Ralston CDP","Wyoming":"Wyoming","WY":"WY"},
"geometry":{ "type": "Point", "coordinates": [-108.885417,44.706865]}},
{ "type": "Feature", "properties": {"Afton town":"Ranchester town","Wyoming":"Wyoming","WY":"WY"},
"geometry":{ "type": "Point", "coordinates": [-107.167323,44.9076]}},
{ "type": "Feature", "properties": {"Afton town":"Ranchettes CDP","Wyoming":"Wyoming","WY":"WY"},
"geometry":{ "type": "Point", "coordinates": [-104.772969,41.218792]}},
{ "type": "Feature", "properties": {"Afton town":"Rawlins city","Wyoming":"Wyoming","WY":"WY"},
"geometry":{ "type": "Point", "coordinates": [-107.224653,41.78513]}},
{ "type": "Feature", "properties": {"Afton town":"Red Butte CDP","Wyoming":"Wyoming","WY":"WY"},
"geometry":{ "type": "Point", "coordinates": [-106.434625,42.806204]}},
{ "type": "Feature", "properties": {"Afton town":"Reliance CDP","Wyoming":"Wyoming","WY":"WY"},
"geometry":{ "type": "Point", "coordinates": [-109.197696,41.668198]}},
{ "type": "Feature", "properties": {"Afton town":"Riverside town","Wyoming":"Wyoming","WY":"WY"},
"geometry":{ "type": "Point", "coordinates": [-106.781343,41.215414]}},
{ "type": "Feature", "properties": {"Afton town":"Riverton city","Wyoming":"Wyoming","WY":"WY"},
"geometry":{ "type": "Point", "coordinates": [-108.381303,43.026256]}},
{ "type": "Feature", "properties": {"Afton town":"Robertson CDP","Wyoming":"Wyoming","WY":"WY"},
"geometry":{ "type": "Point", "coordinates": [-110.42739,41.181571]}},
{ "type": "Feature", "properties": {"Afton town":"Rock River town","Wyoming":"Wyoming","WY":"WY"},
"geometry":{ "type": "Point", "coordinates": [-105.975146,41.731739]}},
{ "type": "Feature", "properties": {"Afton town":"Rock Springs city","Wyoming":"Wyoming","WY":"WY"},
"geometry":{ "type": "Point", "coordinates": [-109.220922,41.594704]}},
{ "type": "Feature", "properties": {"Afton town":"Rolling Hills town","Wyoming":"Wyoming","WY":"WY"},
"geometry":{ "type": "Point", "coordinates": [-105.843369,42.903561]}},
{ "type": "Feature", "properties": {"Afton town":"Ryan Park CDP","Wyoming":"Wyoming","WY":"WY"},
"geometry":{ "type": "Point", "coordinates": [-106.489613,41.313153]}},
{ "type": "Feature", "properties": {"Afton town":"Saratoga town","Wyoming":"Wyoming","WY":"WY"},
"geometry":{ "type": "Point", "coordinates": [-106.81173,41.452392]}},
{ "type": "Feature", "properties": {"Afton town":"Shell CDP","Wyoming":"Wyoming","WY":"WY"},
"geometry":{ "type": "Point", "coordinates": [-107.784481,44.534519]}},
{ "type": "Feature", "properties": {"Afton town":"Sheridan city","Wyoming":"Wyoming","WY":"WY"},
"geometry":{ "type": "Point", "coordinates": [-106.964166,44.796219]}},
{ "type": "Feature", "properties": {"Afton town":"Shoshoni town","Wyoming":"Wyoming","WY":"WY"},
"geometry":{ "type": "Point", "coordinates": [-108.106792,43.238066]}},
{ "type": "Feature", "properties": {"Afton town":"Sinclair town","Wyoming":"Wyoming","WY":"WY"},
"geometry":{ "type": "Point", "coordinates": [-107.11994,41.776084]}},
{ "type": "Feature", "properties": {"Afton town":"Slater CDP","Wyoming":"Wyoming","WY":"WY"},
"geometry":{ "type": "Point", "coordinates": [-104.788709,41.877633]}},
{ "type": "Feature", "properties": {"Afton town":"Sleepy Hollow CDP","Wyoming":"Wyoming","WY":"WY"},
"geometry":{ "type": "Point", "coordinates": [-105.430895,44.232692]}},
{ "type": "Feature", "properties": {"Afton town":"Smoot CDP","Wyoming":"Wyoming","WY":"WY"},
"geometry":{ "type": "Point", "coordinates": [-110.91549,42.618389]}},
{ "type": "Feature", "properties": {"Afton town":"South Greeley CDP","Wyoming":"Wyoming","WY":"WY"},
"geometry":{ "type": "Point", "coordinates": [-104.806622,41.093131]}},
{ "type": "Feature", "properties": {"Afton town":"South Park CDP","Wyoming":"Wyoming","WY":"WY"},
"geometry":{ "type": "Point", "coordinates": [-110.798549,43.4255]}},
{ "type": "Feature", "properties": {"Afton town":"Star Valley Ranch town","Wyoming":"Wyoming","WY":"WY"},
"geometry":{ "type": "Point", "coordinates": [-110.963521,42.979688]}},
{ "type": "Feature", "properties": {"Afton town":"Story CDP","Wyoming":"Wyoming","WY":"WY"},
"geometry":{ "type": "Point", "coordinates": [-106.914173,44.573079]}},
{ "type": "Feature", "properties": {"Afton town":"Sundance town","Wyoming":"Wyoming","WY":"WY"},
"geometry":{ "type": "Point", "coordinates": [-104.366209,44.404823]}},
{ "type": "Feature", "properties": {"Afton town":"Superior town","Wyoming":"Wyoming","WY":"WY"},
"geometry":{ "type": "Point", "coordinates": [-108.964235,41.759508]}},
{ "type": "Feature", "properties": {"Afton town":"Table Rock CDP","Wyoming":"Wyoming","WY":"WY"},
"geometry":{ "type": "Point", "coordinates": [-108.404046,41.621985]}},
{ "type": "Feature", "properties": {"Afton town":"Taylor CDP","Wyoming":"Wyoming","WY":"WY"},
"geometry":{ "type": "Point", "coordinates": [-110.986308,42.069202]}},
{ "type": "Feature", "properties": {"Afton town":"Ten Sleep town","Wyoming":"Wyoming","WY":"WY"},
"geometry":{ "type": "Point", "coordinates": [-107.448279,44.035013]}},
{ "type": "Feature", "properties": {"Afton town":"Teton Village CDP","Wyoming":"Wyoming","WY":"WY"},
"geometry":{ "type": "Point", "coordinates": [-110.841978,43.590679]}},
{ "type": "Feature", "properties": {"Afton town":"Thayne town","Wyoming":"Wyoming","WY":"WY"},
"geometry":{ "type": "Point", "coordinates": [-110.996538,42.919543]}},
{ "type": "Feature", "properties": {"Afton town":"Thermopolis town","Wyoming":"Wyoming","WY":"WY"},
"geometry":{ "type": "Point", "coordinates": [-108.214538,43.647615]}},
{ "type": "Feature", "properties": {"Afton town":"Torrington city","Wyoming":"Wyoming","WY":"WY"},
"geometry":{ "type": "Point", "coordinates": [-104.173528,42.06505]}},
{ "type": "Feature", "properties": {"Afton town":"Turnerville CDP","Wyoming":"Wyoming","WY":"WY"},
"geometry":{ "type": "Point", "coordinates": [-110.900728,42.862419]}},
{ "type": "Feature", "properties": {"Afton town":"Upton town","Wyoming":"Wyoming","WY":"WY"},
"geometry":{ "type": "Point", "coordinates": [-104.636538,44.104017]}},
{ "type": "Feature", "properties": {"Afton town":"Urie CDP","Wyoming":"Wyoming","WY":"WY"},
"geometry":{ "type": "Point", "coordinates": [-110.335196,41.308856]}},
{ "type": "Feature", "properties": {"Afton town":"Van Tassell town","Wyoming":"Wyoming","WY":"WY"},
"geometry":{ "type": "Point", "coordinates": [-104.091328,42.664277]}},
{ "type": "Feature", "properties": {"Afton town":"Veteran CDP","Wyoming":"Wyoming","WY":"WY"},
"geometry":{ "type": "Point", "coordinates": [-104.38625,41.962665]}},
{ "type": "Feature", "properties": {"Afton town":"Vista West CDP","Wyoming":"Wyoming","WY":"WY"},
"geometry":{ "type": "Point", "coordinates": [-106.436712,42.86236]}},
{ "type": "Feature", "properties": {"Afton town":"Wamsutter town","Wyoming":"Wyoming","WY":"WY"},
"geometry":{ "type": "Point", "coordinates": [-107.979142,41.667977]}},
{ "type": "Feature", "properties": {"Afton town":"Warren AFB CDP","Wyoming":"Wyoming","WY":"WY"},
"geometry":{ "type": "Point", "coordinates": [-104.86163,41.147053]}},
{ "type": "Feature", "properties": {"Afton town":"Washam CDP","Wyoming":"Wyoming","WY":"WY"},
"geometry":{ "type": "Point", "coordinates": [-109.699135,41.005604]}},
{ "type": "Feature", "properties": {"Afton town":"Westview Circle CDP","Wyoming":"Wyoming","WY":"WY"},
"geometry":{ "type": "Point", "coordinates": [-105.06758,42.061641]}},
{ "type": "Feature", "properties": {"Afton town":"Wheatland town","Wyoming":"Wyoming","WY":"WY"},
"geometry":{ "type": "Point", "coordinates": [-104.959472,42.051706]}},
{ "type": "Feature", "properties": {"Afton town":"Whiting CDP","Wyoming":"Wyoming","WY":"WY"},
"geometry":{ "type": "Point", "coordinates": [-104.971051,42.00888]}},
{ "type": "Feature", "properties": {"Afton town":"Wilson CDP","Wyoming":"Wyoming","WY":"WY"},
"geometry":{ "type": "Point", "coordinates": [-110.920701,43.480905]}},
{ "type": "Feature", "properties": {"Afton town":"Woods Landing-Jelm CDP","Wyoming":"Wyoming","WY":"WY"},
"geometry":{ "type": "Point", "coordinates": [-106.028802,41.101461]}},
{ "type": "Feature", "properties": {"Afton town":"Worland city","Wyoming":"Wyoming","WY":"WY"},
"geometry":{ "type": "Point", "coordinates": [-107.961653,44.020402]}},
{ "type": "Feature", "properties": {"Afton town":"Wright town","Wyoming":"Wyoming","WY":"WY"},
"geometry":{ "type": "Point", "coordinates": [-105.494834,43.749153]}},
{ "type": "Feature", "properties": {"Afton town":"Yoder town","Wyoming":"Wyoming","WY":"WY"},
"geometry":{ "type": "Point", "coordinates": [-104.295389,41.916978]}},
{ "type": "Feature", "properties": {"Afton town":"Y-O Ranch CDP","Wyoming":"Wyoming","WY":"WY"},
"geometry":{ "type": "Point", "coordinates": [-104.922969,42.035162]}}]}
